Numéro du support;Longitude;Latitude;"Position";"Insee";"Lieu dit";"Adresse";"Code postal";"Commune";"Nature du support";Hauteur en m;"Propriétaire"
3392;3.40250;48.90444;"03° 24' 09.00'' Est, 48° 54' 16.00'' Nord";"02798";;"MONT-CEL-ENGER";"02540";"VIELS-MAISONS";"Pylône autostable"; 37.0;"ORANGE Services Fixes"
3402;3.52667;49.20194;"03° 31' 36.00'' Est, 49° 12' 07.00'' Nord";"02305";;"CH DE SERINGES PRES CHATEAU D'EAU";"02130";"FERE-EN-TARDENOIS";"Pylône autostable"; 10.0;"ORANGE Services Fixes"
3404;3.51472;49.20194;"03° 30' 53.00'' Est, 49° 12' 07.00'' Nord";"02305";;"4 R DU CHATEAU RN 367";"02130";"FERE-EN-TARDENOIS";"Bâtiment"; 4.0;"ORANGE Services Fixes"
3414;3.55583;49.49139;"03° 33' 21.00'' Est, 49° 29' 29.00'' Nord";"02755";;"C R DERRIÈRE L'HOTESSE";"02000";"URCEL";"Pylône autostable"; 12.0;"ORANGE Services Fixes"
3418;4.01944;49.69722;"04° 01' 10.00'' Est, 49° 41' 50.00'' Nord";"02502";;"R ARISTIDE BRIAND AUTOCOMMUTATEUR";"02340";"MONTCORNET";"Bâtiment"; 7.0;"ORANGE Services Fixes"
23222;3.25944;49.74556;"03° 15' 34.00'' Est, 49° 44' 44.00'' Nord";"02504";;"CHÂTEAU D'EAU CD N° 8";"02440";"MONTESCOURT-LIZEROLLES";"Château d'eau - réservoir"; 36.3;"SFR"
23230;3.31222;49.48694;"03° 18' 44.00'' Est, 49° 29' 13.00'' Nord";"02236";;"LE CHAMP DU MOULIN À VENT CHEM COMMUNAL VC2 DE CRECY AU MONT À JUVIGNY";"02380";"CRECY-AU-MONT";"Pylône autostable"; 46.0;"SFR"
23232;3.82889;49.51250;"03° 49' 44.00'' Est, 49° 30' 45.00'' Nord";"02676";"LES USAGES DES MOULINS";"1 FERME DE BRIBAX ST ERME OUTRE ET RAMECOURT";"02820";"SAINT-ERME-OUTRE-ET-RAMECOURT";"Pylône autostable"; 23.5;"Société Privée SA"
23254;3.47222;49.46750;"03° 28' 20.00'' Est, 49° 28' 03.00'' Nord";"02766";"LE BOIS DE ST GUISLAIN";"CHEM RURAL DU BOIS DU ROI - CD 14";"02320";"VAUDESSON";"Pylône autostable"; 45.0;"SFR"
23280;3.21361;49.40944;"03° 12' 49.00'' Est, 49° 24' 34.00'' Nord";"02326";"CHATILLON";"2, R CHATILLON";"02290";"FONTENOY";"Pylône autostable"; 48.0;"SFR"
23294;3.65833;49.53306;"03° 39' 30.00'' Est, 49° 31' 59.00'' Nord";"02128";"LE BOIS BRULÉ";"STADE MUNICIPAL";"02860";"BRUYERES-ET-MONTBERAULT";"Pylône autostable"; 40.0;"SFR"
23296;3.83750;49.56028;"03° 50' 15.00'' Est, 49° 33' 37.00'' Nord";"02498";"LA PIERRE TROUÉE";"D24";"02820";"MONTAIGU";"Pylône autostable"; 35.0;"SFR"
23306;3.52611;49.47583;"03° 31' 34.00'' Est, 49° 28' 33.00'' Nord";"02174";;"4 R DU CHEM DES DAMES";"02000";"CHAVIGNON";"Pylône autostable"; 20.0;"SFR"
23314;3.48806;49.04222;"03° 29' 17.00'' Est, 49° 02' 32.00'' Nord";"02328";"BOIS D'AIGREMONT";;"02650";"FOSSOY";"Pylône autostable"; 30.0;"SFR"
23318;4.01139;49.45222;"04° 00' 41.00'' Est, 49° 27' 08.00'' Nord";"02541";"LE MONT BLANC DE PROUVAIS";"LA FERME DE BELLEVUE";"02190";"NEUFCHATEL-SUR-AISNE";"Pylône autostable"; 30.0;"SFR"
23332;3.31528;49.79028;"03° 18' 55.00'' Est, 49° 47' 25.00'' Nord";"02756";;"R DU MONT GUYOT PROLONGÉE RÉSERVOIR";"02690";"URVILLERS";"Château d'eau - réservoir"; 29.5;"SFR"
23388;3.70722;50.02750;"03° 42' 26.00'' Est, 50° 01' 39.00'' Nord";"02067";;"15 R DE BOUE";"02450";"BERGUES-SUR-SAMBRE";"Pylône autostable"; 13.0;"SFR"
65105;3.20889;49.94611;"03° 12' 32.00'' Est, 49° 56' 46.00'' Nord";"02614";"VILLERET";;"02490";"PONTRU";"Pylône autostable"; 17.0;"Sociétés d'Autoroutes"
65200;3.92667;49.44778;"03° 55' 36.00'' Est, 49° 26' 52.00'' Nord";"02399";"AIRE DE SERVICE";;"02190";"JUVINCOURT-ET-DAMARY";"Pylône autostable"; 24.0;"Sociétés d'Autoroutes"
65204;3.38417;49.75083;"03° 23' 03.00'' Est, 49° 45' 03.00'' Nord";"02124";"LA CARRIERE MARTIN";;"02240";"BRISSY-HAMEGICOURT";"Pylône autostable"; 24.0;"Sociétés d'Autoroutes"
65222;3.53278;49.66278;"03° 31' 58.00'' Est, 49° 39' 46.00'' Nord";"02638";"AIRE DE REPOS";;"02270";"REMIES";"Pylône autostable"; 24.0;"Sociétés d'Autoroutes"
65224;3.72611;49.56667;"03° 43' 34.00'' Est, 49° 34' 00.00'' Nord";"02282";"AIRE DE REPOS";;"02840";"EPPES";"Pylône autostable"; 24.0;"Sociétés d'Autoroutes"
65309;3.24028;49.86111;"03° 14' 25.00'' Est, 49° 51' 40.00'' Nord";"02303";"PÉAGE";;"02100";"FAYET";"Pylône autostable"; 37.0;"Sociétés d'Autoroutes"
65788;3.13833;49.84306;"03° 08' 18.00'' Est, 49° 50' 35.00'' Nord";"02029";"PÂTURE DE BEAUVILLERS";;"02490";"ATTILLY";"Pylône autostable"; 18.0;"Sociétés d'Autoroutes"
71543;3.20639;49.97722;"03° 12' 23.00'' Est, 49° 58' 38.00'' Nord";"02370";"ENTRE DEUX BOIS";"D57";"02420";"HARGICOURT";"Pylône autostable"; 40.0;"ORANGE"
71595;3.91306;49.91028;"03° 54' 47.00'' Est, 49° 54' 37.00'' Nord";"02295";"LE POTEAU";"R ALBERT LEDAN - N.2";"02580";"ETREAUPONT";"Pylône autostable"; 28.0;"ORANGE"
71609;3.53694;48.99833;"03° 32' 13.00'' Est, 48° 59' 54.00'' Nord";"02223";;"RUE SAINT EUGENE";"02330";"COURBOIN";"Pylône autostable"; 31.0;"ORANGE Services Fixes"
71669;3.41139;48.90889;"03° 24' 41.00'' Est, 48° 54' 32.00'' Nord";"02798";"LES DODIERS";"CHÂTEAU D'EAU LES DODIERS";"02540";"VIELS-MAISONS";"Château d'eau - réservoir"; 31.0;"Commune, communauté de commune"
147211;3.56944;49.47694;"03° 34' 10.00'' Est, 49° 28' 37.00'' Nord";"02490";;"CHEM DIT DES COCHONS";"02000";"MONAMPTEUIL";"Pylône tubulaire"; 22.5;"FPS TOWERS"
147968;3.81611;49.58417;"03° 48' 58.00'' Est, 49° 35' 03.00'' Nord";"02457";;"GRAND RUE DOMAINE DE MARCHAIS CHATEAU";"02350";"MARCHAIS";"Bâtiment"; 20.0;"Particulier"
156285;3.58861;49.68278;"03° 35' 19.00'' Est, 49° 40' 58.00'' Nord";"02617";;"4 GRAND RUE MAIRIE";"02270";"POUILLY-SUR-SERRE";"Bâtiment"; 9.0;"Commune, communauté de commune"
159479;3.45889;49.79611;"03° 27' 32.00'' Est, 49° 47' 46.00'' Nord";"02648";;"R DE CONDORCET";"02240";"RIBEMONT";"Support non décrit"; 7.0;
160127;3.24167;49.88806;"03° 14' 30.00'' Est, 49° 53' 17.00'' Nord";"02355";;"PL JULES FERRY MAIRIE";"02100";"GRICOURT";"Bâtiment"; 8.0;"Commune, communauté de commune"
161199;3.70417;50.03389;"03° 42' 15.00'' Est, 50° 02' 02.00'' Nord";"02067";;"RUE DU GÉNÉRAL DE GAULLE MAIRIE";"02450";"BERGUES-SUR-SAMBRE";"Bâtiment"; 10.0;"Commune, communauté de commune"
164570;3.19694;49.40778;"03° 11' 49.00'' Est, 49° 24' 28.00'' Nord";"02326";;"1 PLACE DE LA MAIRIE MAIRIE";"02290";"FONTENOY";"Bâtiment"; 10.0;"Commune, communauté de commune"
165852;3.41472;49.94722;"03° 24' 53.00'' Est, 49° 56' 50.00'' Nord";"02334";;"PL DU GAL DE GAULLE";"02230";"FRESNOY-LE-GRAND";"Support non décrit"; 10.0;
170472;3.29222;49.54306;"03° 17' 32.00'' Est, 49° 32' 35.00'' Nord";"02318";;"R BERNARD LEFEVRE MAIRIE";"02670";"FOLEMBRAY";"Immeuble"; 10.0;"Commune, communauté de commune"
171802;3.61000;49.07583;"03° 36' 36.00'' Est, 49° 04' 33.00'' Nord";"02748";;"35 R DE L'EUROPE MAIRIE";"02850";"TRELOU-SUR-MARNE";"Bâtiment"; 10.0;"Commune, communauté de commune"
173839;3.08611;49.25056;"03° 05' 10.00'' Est, 49° 15' 02.00'' Nord";"02810";;"R REMY BARAQUINT";"02600";"VILLERS-COTTERETS";"Support non décrit";;
174518;3.15278;49.51528;"03° 09' 10.00'' Est, 49° 30' 55.00'' Nord";"02093";;"MAIRIE LOCAL TECNIQUE";"02300";"BLERANCOURT";"Support non décrit"; 10.0;
244574;3.87639;49.67028;"03° 52' 35.00'' Est, 49° 40' 13.00'' Nord";"02274";;"CHEM RURAL DE GOUDELANCOURT À ROUGEMONT";"02350";"EBOULEAU";"Château d'eau - réservoir"; 40.0;"Syndicat des eaux, Adduction"
251149;3.64306;49.58556;"03° 38' 35.00'' Est, 49° 35' 08.00'' Nord";"02408";;"6 R ARMAND BRIMBOEUF";"02000";"LAON";"Bâtiment"; 22.0;"Conseil Général"
251155;3.27056;49.83694;"03° 16' 14.00'' Est, 49° 50' 13.00'' Nord";"02691";;"151 RUE DE PARIS";"02100";"SAINT-QUENTIN";"Bâtiment"; 22.0;"Etat, Ministère"
251285;3.33472;49.39250;"03° 20' 05.00'' Est, 49° 23' 33.00'' Nord";"02722";;"R DU PRÉSIDENT RENÉ COTY";"02200";"SOISSONS";"Bâtiment"; 25.0;"Conseil Général"
251287;3.88694;49.82917;"03° 53' 13.00'' Est, 49° 49' 45.00'' Nord";"02789";"STATION DE GOUDRONNAGE";;"02140";"VERVINS";"Bâtiment"; 20.0;
251290;4.07500;49.93111;"04° 04' 30.00'' Est, 49° 55' 52.00'' Nord";"02381";;"R CHANZY PROLONGÉE";"02500";"HIRSON";"Bâtiment"; 12.0;"Conseil Général"
251303;3.45806;49.40111;"03° 27' 29.00'' Est, 49° 24' 04.00'' Nord";"02210";"FORT DE CONDÉ";;"02370";"CONDE-SUR-AISNE";"Pylône autostable"; 32.0;"Autres"
251382;3.77389;49.73833;"03° 46' 26.00'' Est, 49° 44' 18.00'' Nord";"02468";;"RUE DESAINS ATELIERS MUNICIPAUX";"02250";"MARLE";"Bâtiment"; 11.0;"Commune, communauté de commune"
251440;3.91556;49.83889;"03° 54' 56.00'' Est, 49° 50' 20.00'' Nord";"02789";;"20 RUE D'HIRSON";"02140";"VERVINS";"Bâtiment"; 10.0;"Conseil Général"
251445;3.62083;49.90333;"03° 37' 15.00'' Est, 49° 54' 12.00'' Nord";"02361";;"545 R ANDRÉ GODIN";"02120";"GUISE";"Bâtiment"; 10.0;"Conseil Général"
251449;3.28389;49.85194;"03° 17' 02.00'' Est, 49° 51' 07.00'' Nord";"02691";;"25 R ALBERT THOMAS";"02100";"SAINT-QUENTIN";"Bâtiment"; 14.0;"Conseil Général"
251457;3.39417;49.04361;"03° 23' 39.00'' Est, 49° 02' 37.00'' Nord";"02168";;"AV PIERRE ET MARIE CURIE";"02400";"CHATEAU-THIERRY";"Bâtiment"; 10.0;"Conseil Général"
251459;3.09889;49.26028;"03° 05' 56.00'' Est, 49° 15' 37.00'' Nord";"02810";;"AV MAX DORMOY";"02600";"VILLERS-COTTERETS";"Bâtiment"; 10.0;"Conseil Général"
251464;3.64278;49.58389;"03° 38' 34.00'' Est, 49° 35' 02.00'' Nord";"02408";;"2 R ARMAND BRIMBEUF";"02000";"LAON";"Bâtiment"; 10.0;"Conseil Général"
251468;3.32972;49.38000;"03° 19' 47.00'' Est, 49° 22' 48.00'' Nord";"02722";;"10 R DE MAYENNE";"02200";"SOISSONS";"Bâtiment"; 27.0;"Etat, Ministère"
269513;4.07917;49.92389;"04° 04' 45.00'' Est, 49° 55' 26.00'' Nord";"02381";;"R DU 8 MAI 1945 EGLISE NOTRE DAME";"02500";"HIRSON";"Monument religieux"; 37.0;"Association"
269971;3.21306;49.62333;"03° 12' 47.00'' Est, 49° 37' 24.00'' Nord";"02173";;"27 B  R TERNYNCK";"02300";"CHAUNY";"Immeuble"; 19.0;"Particulier"
270709;3.23611;49.61611;"03° 14' 10.00'' Est, 49° 36' 58.00'' Nord";"02173";;"R GÉO LUFBÉRY TERRAIN NU";"02300";"CHAUNY";"Pylône autostable"; 26.0;"Commune, communauté de commune"
282251;3.29667;49.67222;"03° 17' 48.00'' Est, 49° 40' 20.00'' Nord";"02738";;"R DU DR ROUX STADE MUNICIPAL";"02700";"TERGNIER";"Pylône tubulaire"; 27.0;"ORANGE"
283251;3.91389;49.56806;"03° 54' 50.00'' Est, 49° 34' 05.00'' Nord";"02720";;"CAMP MILITAIRE DE SISSONNE";"02150";"SISSONNE";"Pylône autostable"; 54.0;"TDF"
312131;3.22639;49.60556;"03° 13' 35.00'' Est, 49° 36' 20.00'' Nord";"02173";;"5 RTE DE SOISSONS";"02300";"CHAUNY";"Bâtiment"; 4.0;"Société Privée SA"
312137;3.28556;49.82556;"03° 17' 08.00'' Est, 49° 49' 32.00'' Nord";"02340";;"8 R A RENARD MAIRIE";"02430";"GAUCHY";"Bâtiment"; 10.0;"Commune, communauté de commune"
312147;3.35028;49.66806;"03° 21' 01.00'' Est, 49° 40' 05.00'' Nord";"02304";"LE TROU TONNERRE";"RTE DE ST QUENTIN LE TROU TONNERRE";"02800";"LA FERE";"Bâtiment"; 5.0;"Société Privée SA"
312925;3.32639;48.96917;"03° 19' 35.00'' Est, 48° 58' 09.00'' Nord";"02555";;"MONTOISELLE PK 084.058 DE LA LIGNE 70000";"02310";"NOGENT-L'ARTAUD";"Pylône autostable"; 29.0;
312927;3.47833;49.05361;"03° 28' 42.00'' Est, 49° 03' 13.00'' Nord";"02328";;"LES ORMES ANCIENNE DECHARGE PK 100.280 DE LA LIGNE 70000";"02650";"FOSSOY";"Pylône autostable"; 34.0;
312929;3.54972;49.07917;"03° 32' 59.00'' Est, 49° 04' 45.00'' Nord";"02228";;"LE PARC PK 107.125 DE LA LIGNE 70000";"02850";"COURTEMONT-VARENNES";"Pylône autostable"; 29.0;
312931;3.26361;48.95000;"03° 15' 49.00'' Est, 48° 57' 00.00'' Nord";"02163";;"PISSELOUP PK 078.280 DE LA LIGNE 70000";"02310";"CHARLY";"Pylône autostable"; 34.0;
313185;3.61500;49.60972;"03° 36' 54.00'' Est, 49° 36' 35.00'' Nord";"02037";;"47 R DE CHAMBRY";"02000";"AULNOIS-SOUS-LAON";"Bâtiment"; 25.0;"Société Privée SA"
313187;3.76167;49.38528;"03° 45' 42.00'' Est, 49° 23' 07.00'' Nord";"02250";;"CARRIERE DE BEAURIEU";"02160";"CUIRY-LES-CHAUDARDES";"Bâtiment"; 15.0;"Commune, communauté de commune"
314777;3.38972;49.03556;"03° 23' 23.00'' Est, 49° 02' 08.00'' Nord";"02168";"LA PRAIRIE";"R DE LA PLAINE Z. I.";"02400";"CHATEAU-THIERRY";"Silo"; 23.0;"Société Privée SA"
314974;3.27000;49.86028;"03° 16' 12.00'' Est, 49° 51' 37.00'' Nord";"02691";;"93 R HENRIETTE CABOT HOP DE ST QUENTIN";"02100";"SAINT-QUENTIN";"Bâtiment"; 3.0;
315176;3.33750;49.80472;"03° 20' 15.00'' Est, 49° 48' 17.00'' Nord";"02387";;"RTE D URVILLIERS";"02240";"ITANCOURT";"Bâtiment"; 23.0;"Société Privée SA"
325377;3.39750;49.05250;"03° 23' 51.00'' Est, 49° 03' 09.00'' Nord";"02168";"LES CHESNEAUX";"AV DE SOISSONS";"02400";"CHATEAU-THIERRY";"Bâtiment"; 10.0;"ORANGE Services Fixes"
326064;3.27778;49.34278;"03° 16' 40.00'' Est, 49° 20' 34.00'' Nord";"02226";;"AERODROME DE COURMELLES";"02200";"COURMELLES";"Bâtiment"; 18.0;"Société Privée SA"
337225;3.35750;48.98889;"03° 21' 27.00'' Est, 48° 59' 20.00'' Nord";"02186";;"TUNNEL DE CHEZY S MARNE D 86 PE CHEZY REP1 PK 087 520";"02570";"CHEZY-SUR-MARNE";"Mât"; 12.0;
337227;3.36167;48.99056;"03° 21' 42.00'' Est, 48° 59' 26.00'' Nord";"02186";;"TUNNEL DE CHEZY S MARNE D 86 GAR PE CHEZY PK 087 0800";"02570";"CHEZY-SUR-MARNE";"Pylône autostable"; 30.0;
347231;3.19611;49.95111;"03° 11' 46.00'' Est, 49° 57' 04.00'' Nord";"02808";"LE GRAND CARILLON";"R DU CHÂTEAU D'EAU";"02420";"VILLERET";"Château d'eau - réservoir"; 29.0;"Commune, communauté de commune"
350065;3.21333;49.27806;"03° 12' 48.00'' Est, 49° 16' 41.00'' Nord";"02438";"TERRE DE LA GRILLE";"ROUTE DE CHAVIGNY";"02600";"LONGPONT";"Pylône tubulaire"; 15.0;"SFR"
350071;3.21056;49.25556;"03° 12' 38.00'' Est, 49° 15' 20.00'' Nord";"02216";;"CHEM DE GAILLARD";"02600";"CORCY";"Pylône autostable"; 20.0;"SFR"
353471;3.45972;49.99222;"03° 27' 35.00'' Est, 49° 59' 32.00'' Nord";"02095";;"CHEM DES DAMES STADE DE FOOTBALL MUNICIPAL";"02110";"BOHAIN-EN-VERMANDOIS";"Pylône tubulaire"; 30.0;"SFR"
355504;3.50972;49.46694;"03° 30' 35.00'' Est, 49° 28' 01.00'' Nord";"02174";"EMBRON";"VALLÉE DE MALMAISON TERRAIN DE CHAMPIGNONIÈRE";"02000";"CHAVIGNON";"Pylône autostable"; 30.0;"ORANGE"
365895;4.05194;49.54500;"04° 03' 07.00'' Est, 49° 32' 42.00'' Nord";"02440";"LA CROIX BOURDIN";"LES MOINES ROUGES";"02190";"LOR";"Pylône autostable"; 25.0;"Conseil Général"
367508;3.28056;49.46083;"03° 16' 50.00'' Est, 49° 27' 39.00'' Nord";"02043";"LE CHAMP CHARDON";;"02290";"BAGNEUX";"Pylône autostable"; 30.0;"Conseil Général"
367510;3.34778;49.09722;"03° 20' 52.00'' Est, 49° 05' 50.00'' Nord";"02279";"LE PETIT PUITS";;"02400";"EPAUX-BEZU";"Château d'eau - réservoir"; 26.0;"Conseil Général"
367512;3.43306;49.16222;"03° 25' 59.00'' Est, 49° 09' 44.00'' Nord";"02203";"LA GARENNE";;"02210";"COINCY";"Château d'eau - réservoir"; 20.0;"Conseil Général"
368307;3.32722;49.38528;"03° 19' 38.00'' Est, 49° 23' 07.00'' Nord";"02722";;"PL DE L HOTEL DE VILLE";"02200";"SOISSONS";"Monument religieux"; 48.0;"Commune, communauté de commune"
384573;3.19083;49.59111;"03° 11' 27.00'' Est, 49° 35' 28.00'' Nord";"02001";"ÉCLUSE";;"02300";"ABBECOURT";"Bâtiment"; 4.0;"Voies navigables de France"
394632;3.71083;49.82722;"03° 42' 39.00'' Est, 49° 49' 38.00'' Nord";"02668";;"30 R. DES MAZURES CHÂTEAU D'EAU";"02120";"SAINS-RICHAUMONT";"Château d'eau - réservoir"; 27.0;"Syndicat des eaux, Adduction"
403141;3.21861;49.09694;"03° 13' 07.00'' Est, 49° 05' 49.00'' Nord";"02792";"COFFRET";"DÉPARTEMENTALE D 843";"02810";"VEUILLY-LA-POTERIE";"Pylône autostable"; 36.0;"Conseil Général"
403143;3.59750;49.17083;"03° 35' 51.00'' Est, 49° 10' 15.00'' Nord";"02193";"LE BAS RUISSEAU";;"02130";"CIERGES";"Pylône tubulaire"; 18.0;"SFR"
418675;3.32639;49.36667;"03° 19' 35.00'' Est, 49° 22' 00.00'' Nord";"02722";;"17 AV SALVADOR ALLENDE";"02200";"SOISSONS";"Bâtiment"; 20.0;"Société Privée SA"
436496;3.33250;49.36833;"03° 19' 57.00'' Est, 49° 22' 06.00'' Nord";"02064";;"9 R DE FÉRE";"02200";"BELLEU";"Immeuble"; 22.0;"Société Privée SA"
436509;3.36611;49.36889;"03° 21' 58.00'' Est, 49° 22' 08.00'' Nord";"02805";;"R GUSTAVE EIFFEL ZI";"02200";"VILLENEUVE-SAINT-GERMAIN";"Pylône autostable"; 48.6;"TDF"
436661;3.61194;49.56472;"03° 36' 43.00'' Est, 49° 33' 53.00'' Nord";"02408";;"35 R DU 13 OCTOBRE 1918";"02000";"LAON";"Château d'eau - réservoir"; 30.3;"TDF"
438084;3.35278;49.37556;"03° 21' 10.00'' Est, 49° 22' 32.00'' Nord";"02805";"LA BUTTE DU MOULIN";"R DU CIMETIERE";"02200";"VILLENEUVE-SAINT-GERMAIN";"Pylône autostable"; 28.0;"TDF"
439250;3.25917;49.84139;"03° 15' 33.00'' Est, 49° 50' 29.00'' Nord";"02691";;"R DU DR CORDIER CHEM DE LA TOMBELLE";"02100";"SAINT-QUENTIN";"Château d'eau - réservoir"; 45.0;"Syndicat des eaux, Adduction"
440143;3.26889;49.86083;"03° 16' 08.00'' Est, 49° 51' 39.00'' Nord";"02691";;"1, AV MICHEL DE L'HÔPITAL";"02100";"SAINT-QUENTIN";"Immeuble"; 67.2;"Etablissement de soins"
440894;3.29222;49.85583;"03° 17' 32.00'' Est, 49° 51' 21.00'' Nord";"02691";;"R POETTE CHÂTEAU D'EAU";"02100";"SAINT-QUENTIN";"Château d'eau - réservoir"; 45.0;"Commune, communauté de commune"
441163;3.56306;49.75889;"03° 33' 47.00'' Est, 49° 45' 32.00'' Nord";"02184";"POINTE DU BUISSON";"CHEM RURAL DU BOIS DE FRÉMONT PRÈS D.64";"02270";"CHEVRESIS-MONCEAU";"Pylône autostable"; 25.0;"Conseil Général"
441232;3.38806;49.06278;"03° 23' 17.00'' Est, 49° 03' 46.00'' Nord";"02168";;"54 ROUTE D'ETRÉPILLY FERME DE LAUCONNOIS";"02400";"CHATEAU-THIERRY";"Pylône autostable"; 65.0;"TDF"
442574;3.20694;49.63778;"03° 12' 25.00'' Est, 49° 38' 16.00'' Nord";"02173";"CHEMIN DE GRAISSET";"ROUTE ANDRÉ TERNYNCK";"02300";"CHAUNY";"Pylône autostable"; 54.0;"TDF"
445827;3.66083;49.43139;"03° 39' 39.00'' Est, 49° 25' 53.00'' Nord";"02778";"LES SAVARTS - MONT FAUCON";"CHEM RURAL";"02160";"VENDRESSE-BEAULNE";"Pylône autostable"; 30.0;"Conseil Général"
446145;3.64028;49.20056;"03° 38' 25.00'' Est, 49° 12' 02.00'' Nord";"02220";"LES SAVARDS";"BOIS ROGNAC";"02130";"COULONGES-COHAN";"Pylône tubulaire"; 25.0;"SFR"
447745;3.36472;49.06583;"03° 21' 53.00'' Est, 49° 03' 57.00'' Nord";"02168";"LA MONTAGNE";"PYLÔNE RFF/PK 61.769-DR/0/066";"02400";"CHATEAU-THIERRY";"Pylône autostable"; 35.0;"SNCF Réseau"
447788;3.23028;49.04556;"03° 13' 49.00'' Est, 49° 02' 44.00'' Nord";"02465";"LA GRANDE BOULLOYE";"D.84 PYLÔNE RFF - PK 51.514 - DR/O/067";"02810";"MARIGNY-EN-ORXOIS";"Pylône autostable"; 38.0;"SNCF Réseau"
447832;3.48222;49.10833;"03° 28' 56.00'' Est, 49° 06' 30.00'' Nord";"02280";"LES USAGES";"PRÈS A.4 LIGNE TGV EST SENS PARIS-METZ";"02400";"EPIEDS";"Pylône autostable"; 30.0;"SNCF Réseau"
448257;3.70944;49.17750;"03° 42' 34.00'' Est, 49° 10' 39.00'' Nord";"02809";"LE BOIS DE LA NOUE";"PYLÔNE RFF - PK 90.170-DR/O/068";"02130";"VILLERS-AGRON-AIGUIZY";"Pylône autostable"; 40.0;"SNCF Réseau"
448688;3.28389;49.82111;"03° 17' 02.00'' Est, 49° 49' 16.00'' Nord";"02340";"MOULIN DE TOUS VENTS";"ANGLE R DE GRUGIES ET R DU MOULIN DE TOUS VENTS STATION TDF DE ST QUENTIN";"02430";"GAUCHY";"Pylône autostable"; 48.0;"TDF"
449175;3.90583;49.39667;"03° 54' 21.00'' Est, 49° 23' 48.00'' Nord";"02073";"LES TERRES DE LA PLANCHETTE";"7 CHEM DU SILO SILO CHAMPAGNE CÉRÉALES";"02190";"BERRY-AU-BAC";"Silo"; 59.0;"Coopérative Agricole, Vinicole"
450193;3.60750;49.26444;"03° 36' 27.00'' Est, 49° 15' 52.00'' Nord";"02179";"LA CROIX DES BUTTES";"VOIE COM. N°4 DE BRUYS À CHERY CHARTREUVE";"02220";"CHERY-CHARTREUVE";"Pylône autostable"; 27.3;"SFR"
450338;3.09972;49.24167;"03° 05' 59.00'' Est, 49° 14' 30.00'' Nord";"02810";;"59 AV DE LA FERTE MILLON";"02600";"VILLERS-COTTERETS";"Pylône autostable"; 15.0;"FPS TOWERS"
452073;3.34111;49.35417;"03° 20' 28.00'' Est, 49° 21' 15.00'' Nord";"02064";"LE MONT BELLEU";"CHEM RURAL DU MONT DE BELLEU";"02200";"BELLEU";"Pylône autostable"; 40.0;"SFR"
452433;3.47000;49.12028;"03° 28' 12.00'' Est, 49° 07' 13.00'' Nord";"02280";"COURPOIL";"D 967";"02400";"EPIEDS";"Tour hertzienne"; 61.0;"TDF"
452500;3.72528;49.37389;"03° 43' 31.00'' Est, 49° 22' 26.00'' Nord";"02453";"LE BOIS HUGUENIN";"CHEM RURAL DE LA GOUTTE D'OR";"02160";"MAIZY";"Pylône autostable"; 30.0;"Conseil Général"
453066;4.02611;49.96722;"04° 01' 34.00'' Est, 49° 58' 02.00'' Nord";"02495";"LA R NEUVE DU HAUT";"CHÂTEAU D'EAU";"02500";"MONDREPUIS";"Château d'eau - réservoir"; 35.0;"Syndicat des eaux, Adduction"
454399;3.61500;49.57222;"03° 36' 54.00'' Est, 49° 34' 20.00'' Nord";"02408";"CITE DE LA BOUCHE";"R VICTOR BASSELET";"02000";"LAON";"Pylône autostable"; 34.0;"SNCF Réseau"
454409;3.30611;49.37444;"03° 18' 22.00'' Est, 49° 22' 28.00'' Nord";"02722";;"22 R LEON BLUM";"02200";"SOISSONS";"Immeuble"; 36.0;"Société Privée SA"
455811;3.38167;49.06500;"03° 22' 54.00'' Est, 49° 03' 54.00'' Nord";"02168";"LES BLANCHARDS";"RTE D'ETREPILLY";"02400";"CHATEAU-THIERRY";"Pylône autostable"; 51.0;"Société Privée SA"
457732;3.34972;49.66306;"03° 20' 59.00'' Est, 49° 39' 47.00'' Nord";"02304";"LE TROU TONNERRE";"R DU CIMETIÈRE";"02800";"LA FERE";"Pylône autostable"; 33.0;"FPS TOWERS"
459092;3.32667;49.38194;"03° 19' 36.00'' Est, 49° 22' 55.00'' Nord";"02722";;"8 R DU BEFFROI CINEMA";"02200";"SOISSONS";"Bâtiment"; 37.0;"Société Privée SA"
459169;3.15750;49.27722;"03° 09' 27.00'' Est, 49° 16' 38.00'' Nord";"02316";;"CARF.DU SAUT DU CERF";"02600";"FLEURY";"Pylône haubané"; 270.0;"TDF"
459940;3.65111;49.87111;"03° 39' 04.00'' Est, 49° 52' 16.00'' Nord";"02035";"LE TROU MAHOU";;"02120";"AUDIGNY";"Château d'eau - réservoir"; 32.0;"Syndicat des eaux, Adduction"
461551;3.64333;49.57139;"03° 38' 36.00'' Est, 49° 34' 17.00'' Nord";"02408";;"25 R PIERRE BOURDAN STE CAILLE";"02000";"LAON";"Bâtiment"; 28.8;"Société Privée SA"
463002;3.28556;49.65944;"03° 17' 08.00'' Est, 49° 39' 34.00'' Nord";"02738";"FOSSE DE BEAUMONT";"RUE DE LA BONNETERIE";"02700";"TERGNIER";"Pylône autostable"; 34.0;"FPS TOWERS"
463034;3.63028;49.56472;"03° 37' 49.00'' Est, 49° 33' 53.00'' Nord";"02408";;"ALL J. MARTINOT CITE ADMINISTRATIVE";"02000";"LAON";"Bâtiment"; 28.0;"Etat, Ministère"
463444;3.41444;49.04167;"03° 24' 52.00'' Est, 49° 02' 30.00'' Nord";"02187";;"1 AV DU GÉNÉRAL DE GAULLE CAAR SILO";"02400";"CHIERRY";"Silo"; 60.7;"Société Privée SA"
464585;3.32111;49.39083;"03° 19' 16.00'' Est, 49° 23' 27.00'' Nord";"02722";;"43 BD HENRI MARTIN";"02200";"SOISSONS";"Immeuble"; 20.0;"Société Privée SA"
466270;4.08889;49.93278;"04° 05' 20.00'' Est, 49° 55' 58.00'' Nord";"02381";;"LA DÉRAUDERIE";"02500";"HIRSON";"Pylône autostable"; 45.0;"TDF"
466570;3.38639;49.06083;"03° 23' 11.00'' Est, 49° 03' 39.00'' Nord";"02168";"LES BLANCHARDS";"AV DE LAUCONNOIS PALAIS DES RENCONTRES";"02400";"CHATEAU-THIERRY";"Bâtiment"; 40.0;"Commune, communauté de commune"
467088;3.39833;49.35278;"03° 23' 54.00'' Est, 49° 21' 10.00'' Nord";"02003";"LE TRANSBORDEUR";;"02200";"ACY";"Pylône autostable"; 33.0;"SFR"
467099;3.33639;49.40944;"03° 20' 11.00'' Est, 49° 24' 34.00'' Nord";"02424";"MEUNIER NOIR";"CR CHEVELIN";"02880";"LEURY";"Pylône autostable"; 35.0;"TDF"
468053;3.29556;49.36806;"03° 17' 44.00'' Est, 49° 22' 05.00'' Nord";"02770";"PRESLES LES SOISSONS";"MONTAGNE DE PARIS";"02200";"VAUXBUIN";"Pylône autostable"; 35.0;"TDF"
468351;3.32667;49.37972;"03° 19' 36.00'' Est, 49° 22' 47.00'' Nord";"02722";;"2 R DES CHAPERONS ROUGES";"02200";"SOISSONS";"Bâtiment"; 25.0;"Société Privée SA"
470488;3.29111;49.82194;"03° 17' 28.00'' Est, 49° 49' 19.00'' Nord";"02340";;"1 R ALEXANDRE DUMAS RES ANEMONES";"02430";"GAUCHY";"Immeuble"; 27.0;"Société Privée SA"
471377;3.70278;49.67611;"03° 42' 10.00'' Est, 49° 40' 34.00'' Nord";"02338";"VAUCELLE";"DERRIERE COHARTILLE N 2";"02270";"FROIDMONT-COHARTILLE";"Pylône autostable"; 33.0;"TDF"
472840;3.34139;49.27972;"03° 20' 29.00'' Est, 49° 16' 47.00'' Nord";"02585";"LES MARNIÈRES";"CH RURAL DES MARNIÈRES";"02210";"PARCY-ET-TIGNY";"Pylône autostable"; 40.0;"SFR"
473636;3.27389;48.98528;"03° 16' 26.00'' Est, 48° 59' 07.00'' Nord";"02163";"PRÈS DES TROUS AUX RENARDS";"CHEM RURAL DES ALOUETTES";"02310";"CHARLY";"Pylône autostable"; 28.0;"ORANGE Services Fixes"
473640;4.12528;49.92000;"04° 07' 31.00'' Est, 49° 55' 12.00'' Nord";"02684";"LES TERRES JEAN VASSEUR";"R JULES GUESDES - STADE COMMUNAL";"02830";"SAINT-MICHEL";"Pylône autostable"; 33.0;"FPS TOWERS"
473646;3.18500;49.71528;"03° 11' 06.00'' Est, 49° 42' 55.00'' Nord";"02315";"LA PATURE DU TURC";"R. DU STADE";"02520";"FLAVY-LE-MARTEL";"Pylône tubulaire"; 27.0;"ORANGE"
473652;3.41833;49.95194;"03° 25' 06.00'' Est, 49° 57' 07.00'' Nord";"02334";"LA R DU BOHAIN";"R CHARLES GUISE CH D'EAU";"02230";"FRESNOY-LE-GRAND";"Château d'eau - réservoir"; 28.0;"Syndicat des eaux, Adduction"
474071;3.22361;49.61389;"03° 13' 25.00'' Est, 49° 36' 50.00'' Nord";"02173";"LE PARC JONCOURT";"R D'EURE ET LOIRE-STADE";"02300";"CHAUNY";"Pylône autostable"; 25.0;"Commune, communauté de commune"
474501;3.53944;49.34333;"03° 32' 22.00'' Est, 49° 20' 36.00'' Nord";"02110";;"AV DE REIMS CHEMEE INDUSTRIELLE";"02220";"BRAINE";"Bâtiment"; 45.0;"Particulier"
475633;3.63417;49.55833;"03° 38' 03.00'' Est, 49° 33' 30.00'' Nord";"02408";;"IMP LÉO LAGRANGE STADE MARCEL LEVINDREY";"02000";"LAON";"Pylône autostable"; 32.8;"Commune, communauté de commune"
476079;3.20583;49.21972;"03° 12' 21.00'' Est, 49° 13' 11.00'' Nord";"02015";"LE PETIT PARC";"CHEM DES VACHES";"02600";"ANCIENVILLE";"Pylône tubulaire"; 20.0;"SFR"
476183;3.10556;49.25250;"03° 06' 20.00'' Est, 49° 15' 09.00'' Nord";"02810";;"R DE LA BELLE IDÉE RTE DE DAMPLEUX";"02600";"VILLERS-COTTERETS";"Pylône autostable"; 45.0;"BOUYGUES"
477033;3.23056;49.85500;"03° 13' 50.00'' Est, 49° 51' 18.00'' Nord";"02330";;"R DE LA CHAUSSÉE ROMAINE";"02760";"FRANCILLY-SELENCY";"Château d'eau - réservoir"; 47.0;"Syndicat des eaux, Adduction"
477477;3.33500;49.40778;"03° 20' 06.00'' Est, 49° 24' 28.00'' Nord";"02243";"FERME DU MEUNIER NOIR";;"02880";"CROUY";"Pylône autostable"; 45.0;"Towercast"
478093;3.10250;49.73528;"03° 06' 09.00'' Est, 49° 44' 07.00'' Nord";"02726";"LE BUISSON POUILLEUX";"D. 937";"02480";"SOMMETTE-EAUCOURT";"Pylône autostable"; 27.0;"ORANGE"
478178;4.08861;49.90944;"04° 05' 19.00'' Est, 49° 54' 34.00'' Nord";"02381";"LES CHAMPS ÉLYSÉES";;"02500";"HIRSON";"Pylône autostable"; 45.0;"TDF"
479394;3.29639;49.84500;"03° 17' 47.00'' Est, 49° 50' 42.00'' Nord";"02691";;"2 R DE L'ABATTOIR R DE L'ABATTOIR";"02100";"SAINT-QUENTIN";"Bâtiment"; 38.0;"ORANGE Services Fixes"
480737;3.68389;49.51333;"03° 41' 02.00'' Est, 49° 30' 48.00'' Nord";"02177";;"CHEM RURAL DES FAYETS PRÈS D.903";"02860";"CHERET";"Pylône tubulaire"; 25.0;"ORANGE"
481148;3.70167;49.57750;"03° 42' 06.00'' Est, 49° 34' 39.00'' Nord";"02028";"LES FONTINETTES";"CHEM RURAL DE LA GRANDE FOSSE PRÈS A26 PYLONE TDF";"02840";"ATHIES-SOUS-LAON";"Pylône autostable"; 47.0;"TDF"
481512;3.31250;49.37583;"03° 18' 45.00'' Est, 49° 22' 33.00'' Nord";"02722";;"14 R P. CURIE";"02200";"SOISSONS";"Immeuble"; 22.0;"Société Privée SA"
481516;3.34806;49.37278;"03° 20' 53.00'' Est, 49° 22' 22.00'' Nord";"02805";;"R DES MOINES";"02200";"VILLENEUVE-SAINT-GERMAIN";"Pylône autostable"; 30.0;"SFR"
481894;3.62083;49.90000;"03° 37' 15.00'' Est, 49° 53' 60.00'' Nord";"02361";;"174 R DES TILLEULS";"02120";"GUISE";"Bâtiment"; 11.4;"Particulier"
483169;3.72444;49.99194;"03° 43' 28.00'' Est, 49° 59' 31.00'' Nord";"02286";"LE PETIT FOUCOMMÉ";"D.284";"02170";"ESQUEHERIES";"Château d'eau - réservoir"; 46.0;"Syndicat des eaux, Adduction"
483252;3.44611;49.98306;"03° 26' 46.00'' Est, 49° 58' 59.00'' Nord";"02095";;"R MARTHE LEFEVRE LES RAMETTES";"02110";"BOHAIN-EN-VERMANDOIS";"Pylône autostable"; 38.6;"ORANGE"
484178;3.66833;49.16861;"03° 40' 06.00'' Est, 49° 10' 07.00'' Nord";"02351";"LES PÂTIS";"R. DE LA MOTTE HERLIN D 80";"02130";"GOUSSANCOURT";"Pylône autostable"; 43.0;"ORANGE Services Fixes"
484540;3.30167;49.99861;"03° 18' 06.00'' Est, 49° 59' 55.00'' Nord";"02057";"LE CALVAIRE PETRUS";"R DU CATELET";"02110";"BEAUREVOIR";"Pylône autostable"; 37.0;"FPS TOWERS"
484952;3.37139;49.17222;"03° 22' 17.00'' Est, 49° 10' 20.00'' Nord";"02241";;"CR 12 VERS LA FERME DE MONTIGNY";"02210";"LA CROIX-SUR-OURCQ";"Pylône autostable"; 30.0;"ORANGE"
485064;3.26472;49.66972;"03° 15' 53.00'' Est, 49° 40' 11.00'' Nord";"02336";"LE RIEZ GIARD";"RD1";"02700";"FRIERES-FAILLOUEL";"Pylône autostable"; 42.0;"TDF"
486819;3.73500;49.71722;"03° 44' 06.00'' Est, 49° 43' 02.00'' Nord";"02827";"LA CARRIÈRE VINAIGRE";"ROUTE DU CIMETIÈRE RÉSERVOIR";"02250";"VOYENNE";"Pylône autostable"; 40.0;"SFR"
492131;3.23583;49.63444;"03° 14' 09.00'' Est, 49° 38' 04.00'' Nord";"02820";;"R CHATELEINE";"02300";"VIRY-NOUREUIL";"Pylône autostable"; 30.0;"Particulier"
492222;4.02667;49.89222;"04° 01' 36.00'' Est, 49° 53' 32.00'' Nord";"02574";;"PL DE LA GARE TERRAIN VAGUE";"02550";"ORIGNY-EN-THIERACHE";"Pylône autostable"; 40.0;"BOUYGUES"
492655;4.01556;49.86250;"04° 00' 56.00'' Est, 49° 51' 45.00'' Nord";"02405";"LE GRAND CHAMPS";"LE CHAUDRON D29 PYLÔNE TDF";"02140";"LANDOUZY-LA-VILLE";"Pylône haubané"; 203.0;"TDF"
492848;3.89639;49.57417;"03° 53' 47.00'' Est, 49° 34' 27.00'' Nord";"02720";;"V N°26 DITE DU BARBOT MATHIEU COUSART";"02150";"SISSONNE";"Château d'eau - réservoir"; 40.0;"Commune, communauté de commune"
492854;3.49056;49.60722;"03° 29' 26.00'' Est, 49° 36' 26.00'' Nord";"02238";"LA MONTAGNE DE LA TOMBELLE";"CHEM RURAL DE LA CAPLETTE";"02870";"CREPY";"Pylône autostable"; 39.0;"FPS TOWERS"
492905;3.36556;49.02472;"03° 21' 56.00'' Est, 49° 01' 29.00'' Nord";"02290";"LES GOMBLOTS";"CHEM RURAL DIT DES GOMBLOTS";"02400";"ESSOMES-SUR-MARNE";"Pylône autostable"; 37.0;"ORANGE"
493300;3.28806;49.64667;"03° 17' 17.00'' Est, 49° 38' 48.00'' Nord";"02738";;"R DE L'EUROPE";"02700";"TERGNIER";"Pylône tubulaire"; 30.0;"ORANGE"
493348;3.40194;49.64861;"03° 24' 07.00'' Est, 49° 38' 55.00'' Nord";"02651";"BOIS DU TRANNOIS";"CHEM RURAL DIT DE MONTFRENOIS À ROGECOURT";"02800";"ROGECOURT";"Pylône autostable"; 44.0;"TDF"
494642;3.62667;49.31250;"03° 37' 36.00'' Est, 49° 18' 45.00'' Nord";"02054";"LA FONTAINE NANTIER";"CHEM DE MONPLAISIR";"02220";"BAZOCHES-SUR-VESLES";"Pylône autostable"; 43.0;"FPS TOWERS"
497886;3.39194;49.73722;"03° 23' 31.00'' Est, 49° 44' 14.00'' Nord";"02124";;"LE VIEUX CHENIN DE LAON";"02240";"BRISSY-HAMEGICOURT";"Pylône autostable"; 43.0;"TDF"
498250;3.61500;49.56361;"03° 36' 54.00'' Est, 49° 33' 49.00'' Nord";"02408";;"20 R ST MARIN";"02000";"LAON";"Pylône autostable"; 33.0;"Société Privée SA"
499841;3.31833;49.83611;"03° 19' 06.00'' Est, 49° 50' 10.00'' Nord";"02691";;"R  J.BLANCHOT IMM OPAC";"02100";"SAINT-QUENTIN";"Immeuble"; 29.0;"Société HLM"
502689;3.61889;49.63278;"03° 37' 08.00'' Est, 49° 37' 58.00'' Nord";"02037";"LA BUTTE DE RENEUIL";"PRÉS INTERSECTION D967 A26";"02000";"AULNOIS-SOUS-LAON";"Pylône autostable"; 48.5;"TDF"
502693;3.31639;49.83583;"03° 18' 59.00'' Est, 49° 50' 09.00'' Nord";"02691";;"2 R LEON LEMAIRE";"02100";"SAINT-QUENTIN";"Immeuble"; 29.1;"Société HLM"
508084;3.77917;49.49722;"03° 46' 45.00'' Est, 49° 29' 50.00'' Nord";"02033";"MAISON ROUGE";"RN 44";"02820";"AUBIGNY-EN-LAONNOIS";"Pylône autostable"; 45.0;"SFR"
509383;3.29750;49.86389;"03° 17' 51.00'' Est, 49° 51' 50.00'' Nord";"02691";;"4 RUE D'ALEMBERT";"02100";"SAINT-QUENTIN";"Immeuble"; 59.0;"Société HLM"
510036;3.91583;49.83861;"03° 54' 57.00'' Est, 49° 50' 19.00'' Nord";"02789";"LA FONTAINE AMOUREUSE";"RTE D'HIRSON - D51 CHÂTEAU D'EAU";"02140";"VERVINS";"Château d'eau - réservoir"; 33.0;"Syndicat des eaux, Adduction"
510305;3.59139;49.89194;"03° 35' 29.00'' Est, 49° 53' 31.00'' Nord";"02361";"LE BOIS DES HAYETTES";"RTE DE MACQUIGNY";"02120";"GUISE";"Pylône autostable"; 46.5;"TDF"
513630;3.33361;49.81944;"03° 20' 01.00'' Est, 49° 49' 10.00'' Nord";"02549";"COUTURE DU GRAND CHEVET";;"02100";"NEUVILLE-SAINT-AMAND";"Pylône autostable"; 64.0;"TDF"
516108;3.28806;49.60472;"03° 17' 17.00'' Est, 49° 36' 17.00'' Nord";"02014";"LES BUTTES DE ROUY";"STATION TDF DE CHAUNY D7 ROUTE DE CHAUNY";"02700";"AMIGNY-ROUY";"Pylône autostable"; 46.0;"TDF"
516543;3.62111;49.08389;"03° 37' 16.00'' Est, 49° 05' 02.00'' Nord";"02748";"LE CHEM DU MOULIN";"R GALILÉE";"02850";"TRELOU-SUR-MARNE";"Pylône autostable"; 15.0;"FPS TOWERS"
517911;3.76556;49.56306;"03° 45' 56.00'' Est, 49° 33' 47.00'' Nord";"02218";"LA PELLE A FOUR";"CHEM RURAL DIT DE SAMOUSSY PROXIMITÉ A26";"02840";"COUCY-LES-EPPES";"Pylône autostable"; 39.0;"ORANGE"
520718;3.32806;49.22056;"03° 19' 41.00'' Est, 49° 13' 14.00'' Nord";"02090";"GÉROSMÉNIL";"C V N°4";"02210";"BILLY-SUR-OURCQ";"Pylône autostable"; 42.0;"ORANGE"
520768;3.79000;50.01861;"03° 47' 24.00'' Est, 50° 01' 07.00'' Nord";"02558";;"DÉPARTEMENTALE 78-RTE DE BEAUCAMP";"02170";"LE NOUVION-EN-THIERACHE";"Pylône autostable"; 37.0;"ORANGE Services Fixes"
520991;3.11556;49.38944;"03° 06' 56.00'' Est, 49° 23' 22.00'' Nord";"02514";;"31 R DE COEUVRES";"02290";"MONTIGNY-LENGRAIN";"Pylône autostable"; 44.0;"ORANGE"
523989;3.29500;49.84361;"03° 17' 42.00'' Est, 49° 50' 37.00'' Nord";"02691";;"3 BD GAMBETTA";"02100";"SAINT-QUENTIN";"Immeuble"; 30.5;"Société HLM"
529917;3.40083;49.04528;"03° 24' 03.00'' Est, 49° 02' 43.00'' Nord";"02168";;"27 GRANDE RUE";"02400";"CHATEAU-THIERRY";"Bâtiment"; 12.6;"Copropriété, Syndic, SCI"
530034;3.79194;49.60806;"03° 47' 31.00'' Est, 49° 36' 29.00'' Nord";"02346";;"R DE LA GARE";"02350";"GIZY";"Château d'eau - réservoir"; 34.0;"Syndicat des eaux, Adduction"
532015;3.46056;49.39778;"03° 27' 38.00'' Est, 49° 23' 52.00'' Nord";"02210";"LE CLEF MORAN";"CHEM DE LA CLEF MORAN";"02370";"CONDE-SUR-AISNE";"Pylône autostable"; 42.0;"SFR"
532036;3.17111;49.85306;"03° 10' 16.00'' Est, 49° 51' 11.00'' Nord";"02029";"LES BOULEAUX";"LE CARNOIS PRES DU RVOIR";"02490";"ATTILLY";"Pylône autostable"; 37.0;"ORANGE"
532197;3.37583;49.59222;"03° 22' 33.00'' Est, 49° 35' 32.00'' Nord";"02680";;"R CHESNOYE";"02410";"SAINT-GOBAIN";"Château d'eau - réservoir"; 16.7;"Syndicat des eaux, Adduction"
533435;3.29528;49.83250;"03° 17' 43.00'' Est, 49° 49' 57.00'' Nord";"02340";;"CHEM DE LA CAVÉE ST-LAZARE CITÉ DU NORD EST";"02430";"GAUCHY";"Pylône autostable"; 30.0;"ORANGE"
540063;3.23333;49.61806;"03° 14' 00.00'' Est, 49° 37' 05.00'' Nord";"02173";;"150 AV JEAN JAURES";"02300";"CHAUNY";"Bâtiment"; 35.0;"Particulier"
542713;3.84583;49.80083;"03° 50' 45.00'' Est, 49° 48' 03.00'' Nord";"02681";"LES BOULOIS";"LA PETITE VALLÉE GAMIN RN 2";"02140";"SAINT-GOBERT";"Pylône autostable"; 40.0;"SFR"
545533;3.20528;49.02139;"03° 12' 19.00'' Est, 49° 01' 17.00'' Nord";"02521";;"CHEM RURAL DIT DU MOULIN À VENT";"02310";"MONTREUIL-AUX-LIONS";"Pylône autostable"; 31.0;"ORANGE"
545537;3.37778;49.04389;"03° 22' 40.00'' Est, 49° 02' 38.00'' Nord";"02168";"COURTEAU";"CHEM DU RÉSERVOIR RÉSERVOIR DE COURTEAU";"02400";"CHATEAU-THIERRY";"Château d'eau - réservoir"; 12.0;"Syndicat des eaux, Adduction"
545748;3.39806;49.05250;"03° 23' 53.00'' Est, 49° 03' 09.00'' Nord";"02168";;"105 AV DE SOISSONS CENTRE FRANCE TELECOM";"02400";"CHATEAU-THIERRY";"Pylône autostable"; 21.0;"ORANGE"
546084;4.24639;49.85889;"04° 14' 47.00'' Est, 49° 51' 32.00'' Nord";"02435";"LE FOND DES MAÇONS";"PRÈS INTERSECTION D10 D 37";"02500";"LOGNY-LES-AUBENTON";"Pylône tubulaire"; 12.0;"ORANGE"
546617;4.14806;49.86833;"04° 08' 53.00'' Est, 49° 52' 06.00'' Nord";"02470";"LE GRAND CHAMPTAUX";"VOIE COMMUNALE";"02500";"MARTIGNY";"Pylône autostable"; 36.0;"ORANGE"
546619;3.37222;49.65722;"03° 22' 20.00'' Est, 49° 39' 26.00'' Nord";"02304";;"R DU GÉNÉRAL PIERRE BROSSET";"02800";"LA FERE";"Pylône autostable"; 36.0;"ORANGE"
547871;3.13889;49.88417;"03° 08' 20.00'' Est, 49° 53' 03.00'' Nord";"02785";;"R DE SOYECOURT RD121";"02490";"VERMAND";"Château d'eau - réservoir"; 41.0;"Commune, communauté de commune"
547879;3.31361;49.33917;"03° 18' 49.00'' Est, 49° 20' 21.00'' Nord";"02226";"LE BOIS DE LATILLY";"VC N°2 DE BERSY LE SEC";"02200";"COURMELLES";"Pylône tubulaire"; 30.0;"SFR"
549738;3.28611;49.84944;"03° 17' 10.00'' Est, 49° 50' 58.00'' Nord";"02691";;"6 R DES ARBALÈTRIERS";"02100";"SAINT-QUENTIN";"Bâtiment"; 20.5;"Association"
550934;3.34528;49.51583;"03° 20' 43.00'' Est, 49° 30' 57.00'' Nord";"02395";"LE CLOS ST MARTIN";"CHEM RURAL DE MOYEMBRIE À L' ARGENTEL";"02380";"JUMENCOURT";"Pylône autostable"; 41.0;"FPS TOWERS"
551532;3.16167;49.60361;"03° 09' 42.00'' Est, 49° 36' 13.00'' Nord";"02001";;"LA TOMBELLE STATION DE POMPAGE N 32";"02300";"ABBECOURT";"Bâtiment"; 13.0;"Particulier"
552365;4.08611;49.91472;"04° 05' 10.00'' Est, 49° 54' 53.00'' Nord";"02381";;"PL DE LA GARE VOIE SNCF";"02500";"HIRSON";"Pylône autostable"; 33.0;"SNCF Réseau"
553124;3.27500;49.84250;"03° 16' 30.00'' Est, 49° 50' 33.00'' Nord";"02691";;"R DU PARVIS ST MARTIN EGLISE";"02100";"SAINT-QUENTIN";"Monument religieux"; 48.0;"Commune, communauté de commune"
570341;3.42583;49.44639;"03° 25' 33.00'' Est, 49° 26' 47.00'' Nord";"02400";"CHEM DE SOISSON";"DESSUS DE LA VILLE";"02880";"LAFFAUX";"Pylône autostable"; 30.0;"ORANGE"
571763;3.39250;49.06028;"03° 23' 33.00'' Est, 49° 03' 37.00'' Nord";"02168";;"1 RÉS. BERLIOZ - QUARTIER BLANCHARD";"02400";"CHATEAU-THIERRY";"Immeuble"; 52.0;"Copropriété, Syndic, SCI"
575392;3.41333;49.75028;"03° 24' 48.00'' Est, 49° 45' 01.00'' Nord";"02124";"VALLÉE-À-LA-MAYE";"ANGLE CHEM RURAL DIT DU BOIS CHEM RURAL DE RENANSART";"02240";"BRISSY-HAMEGICOURT";"Pylône autostable"; 42.0;"ORANGE"
576517;3.90722;49.95111;"03° 54' 26.00'' Est, 49° 57' 04.00'' Nord";"02337";"DESSUS LES HAIES";"RN2";"02260";"FROIDESTREES";"Château d'eau - réservoir"; 39.0;"Commune, communauté de commune"
577577;3.65417;49.90667;"03° 39' 15.00'' Est, 49° 54' 24.00'' Nord";"02313";"RTE DE LA CAPELLE";"RN29 APPROXIMATIVEMENT FACE À DECHETTERIE PROCHE LIMITE GUISE";"02120";"FLAVIGNY-LE-GRAND-ET-BEAURAIN";"Pylône autostable"; 45.0;"SFR"
581336;3.23667;49.88056;"03° 14' 12.00'' Est, 49° 52' 50.00'' Nord";"02355";"FRESNOY-LE-PETIT";"LES SABLONS ETSS CARLIER";"02100";"GRICOURT";"Pylône haubané"; 34.0;"Société Privée SA"
581386;3.27972;49.16972;"03° 16' 47.00'' Est, 49° 10' 11.00'' Nord";"02543";"MAUBRY";"RUELLE EBAINE";"02470";"NEUILLY-SAINT-FRONT";"Pylône autostable"; 46.0;"ORANGE Services Fixes"
581832;3.25611;49.54139;"03° 15' 22.00'' Est, 49° 32' 29.00'' Nord";"02159";"LA GRANDE COUTURE";"R DU CH D'EAU";"02670";"CHAMPS";"Château d'eau - réservoir"; 33.0;"Syndicat des eaux, Adduction"
587060;3.26528;49.84944;"03° 15' 55.00'' Est, 49° 50' 58.00'' Nord";"02691";;"9003 R CHARLES LINNE ZAC DE LA VALLÉE SOCIÉTÉ DISCONET";"02100";"SAINT-QUENTIN";"Pylône tubulaire"; 16.0;"ORANGE"
587664;3.35750;48.97194;"03° 21' 27.00'' Est, 48° 58' 19.00'' Nord";"02186";;"LE PETIT TRONCET LA FERME PROSLINS";"02570";"CHEZY-SUR-MARNE";"Pylône autostable"; 46.0;"TDF"
588213;3.33028;49.39667;"03° 19' 49.00'' Est, 49° 23' 48.00'' Nord";"02245";"VAUXROT";"AV  DE COUCY D1 USINE DE VAUXROT";"02880";"CUFFIES";"Château d'eau - réservoir"; 40.2;"Syndicat des eaux, Adduction"
588515;3.42167;49.03639;"03° 25' 18.00'' Est, 49° 02' 11.00'' Nord";"02187";"LES VAROLLES";"R D'ETAMPES PÂTURAGE";"02400";"CHIERRY";"Pylône tubulaire"; 23.0;"ORANGE"
596168;3.51583;49.53333;"03° 30' 57.00'' Est, 49° 31' 60.00'' Nord";"02499";"MONTARCENE";"LE CHAMP ST PIERRE";"02000";"MONTBAVIN";"Pylône autostable"; 67.0;"ORANGE Services Fixes"
596807;4.02389;49.71361;"04° 01' 26.00'' Est, 49° 42' 49.00'' Nord";"02819";"LA MOTTE";"CHEM RURAL PRÈS D.966";"02340";"VINCY-REUIL-ET-MAGNY";"Tour hertzienne"; 104.0;"TDF"
605264;3.90194;49.39889;"03° 54' 07.00'' Est, 49° 23' 56.00'' Nord";"02073";"ECLUSE N3 DE BERRY AU BAC";"AV DU GÉNÉRAL DE GAULLE";"02190";"BERRY-AU-BAC";"Bâtiment"; 11.0;"Voies navigables de France"
605392;3.60611;49.43806;"03° 36' 22.00'' Est, 49° 26' 17.00'' Nord";"02115";"LA VOUTE";"14 R DU SOUPIR";"02000";"BRAYE-EN-LAONNOIS";"Bâtiment"; 20.0;"Voies navigables de France"
612474;3.09361;49.23722;"03° 05' 37.00'' Est, 49° 14' 14.00'' Nord";"02810";"ZI LES VERRIERS";"AV DES VERRIERS DECHETTERIE";"02600";"VILLERS-COTTERETS";"Pylône autostable"; 30.0;"ORANGE"
618233;3.32833;49.40250;"03° 19' 42.00'' Est, 49° 24' 09.00'' Nord";"02245";"LA GOUTTE D'OR";"BOIS DU PÔLE UNIVERSITAIRE - R DU CHÂTEAU D'EAU";"02880";"CUFFIES";"Pylône autostable"; 30.0;"SFR"
619264;3.29528;49.36833;"03° 17' 43.00'' Est, 49° 22' 06.00'' Nord";"02770";"LA PLAINE DE PRESLES";;"02200";"VAUXBUIN";"Pylône autostable"; 37.0;"BOUYGUES"
619441;3.77694;49.73583;"03° 46' 37.00'' Est, 49° 44' 09.00'' Nord";"02468";"LA CARRIÈRE DURE";"R DE L'ECOLE DU BOIS JOLI  VC N°53";"02250";"MARLE";"Pylône autostable"; 38.5;"ORANGE Services Fixes"
625300;3.53444;49.20389;"03° 32' 04.00'' Est, 49° 12' 14.00'' Nord";"02713";"LA GRANDE PIECE DE SERINGE";"LA CROIX DES PLANÇONS";"02130";"SERINGES-ET-NESLES";"Château d'eau - réservoir"; 44.0;"Syndicat des eaux, Adduction"
631523;3.82528;49.54361;"03° 49' 31.00'' Est, 49° 32' 37.00'' Nord";"02498";;"CHEM RURAL DU  GRAND ROUTY";"02820";"MONTAIGU";"Pylône autostable"; 35.0;"SNCF Réseau"
631525;3.96000;49.43722;"03° 57' 36.00'' Est, 49° 26' 14.00'' Nord";"02360";;"AV DU GÉNÉRAL DE GAULLE";"02190";"GUIGNICOURT";"Pylône autostable"; 30.0;"SNCF Réseau"
632797;3.90778;49.48667;"03° 54' 28.00'' Est, 49° 29' 12.00'' Nord";"02013";;"CHEM RURAL DIT DU PETIT TERROIR";"02190";"AMIFONTAINE";"Pylône autostable"; 30.0;"SNCF Réseau"
632799;3.64694;49.57083;"03° 38' 49.00'' Est, 49° 34' 15.00'' Nord";"02408";"ANCIEN CHEM DE LIESSE";;"02000";"LAON";"Pylône autostable"; 25.0;"SNCF Réseau"
634276;3.56750;49.59722;"03° 34' 03.00'' Est, 49° 35' 50.00'' Nord";"02080";"LA FÉRIOLE";;"02870";"BESNY-ET-LOIZY";"Pylône autostable"; 25.0;"SNCF Réseau"
634278;3.29389;49.67167;"03° 17' 38.00'' Est, 49° 40' 18.00'' Nord";"02738";"LE TRIAGE";;"02700";"TERGNIER";"Pylône autostable"; 30.0;"SNCF Réseau"
634280;3.25306;49.73000;"03° 15' 11.00'' Est, 49° 43' 48.00'' Nord";"02504";"PÂTURE DU QUESNOY";;"02440";"MONTESCOURT-LIZEROLLES";"Pylône autostable"; 30.0;"SNCF Réseau"
634282;3.48500;49.63361;"03° 29' 06.00'' Est, 49° 38' 01.00'' Nord";"02238";"LA QUEUE DE L'ETANG";;"02870";"CREPY";"Pylône autostable"; 35.0;"SNCF Réseau"
634284;3.44556;49.65167;"03° 26' 44.00'' Est, 49° 39' 06.00'' Nord";"02788";"LES BROSSETTES";;"02800";"VERSIGNY";"Pylône autostable"; 30.0;"SNCF Réseau"
634286;3.36472;49.65778;"03° 21' 53.00'' Est, 49° 39' 28.00'' Nord";"02304";;"PL DE LA GARE";"02800";"LA FERE";"Pylône autostable"; 30.0;"SNCF Réseau"
634288;3.14333;49.72778;"03° 08' 36.00'' Est, 49° 43' 40.00'' Nord";"02570";"PELLE À FOUR";;"02480";"OLLEZY";"Pylône autostable"; 25.0;"SNCF Réseau"
635450;3.86972;49.52528;"03° 52' 11.00'' Est, 49° 31' 31.00'' Nord";"02676";;"A 26 PK 232.000 ST ERME";"02820";"SAINT-ERME-OUTRE-ET-RAMECOURT";"Pylône autostable"; 56.0;"Sociétés d'Autoroutes"
639645;3.48278;49.06944;"03° 28' 58.00'' Est, 49° 04' 10.00'' Nord";"02524";"ECLUSE N°5";"17 ROUTE DE MONT ST PÈRE";"02400";"MONT-SAINT-PERE";"Bâtiment"; 7.0;"Voies navigables de France"
643893;4.01611;49.86806;"04° 00' 58.00'' Est, 49° 52' 05.00'' Nord";"02574";"LE CHAUDRON";"CHATEAU D'EAU";"02550";"ORIGNY-EN-THIERACHE";"Château d'eau - réservoir"; 48.0;"Syndicat des eaux, Adduction"
648225;3.53167;49.12111;"03° 31' 54.00'' Est, 49° 07' 16.00'' Nord";"02164";"LA TERRE D'IGNY NORD";"D. 3";"02850";"LE CHARMEL";"Pylône autostable"; 22.0;"ORANGE"
649615;3.16528;49.50889;"03° 09' 55.00'' Est, 49° 30' 32.00'' Nord";"02093";"LES LONGS CHAMPS";"CHEM RURAL DIT DE LA CARRIÈRE LAYEN";"02300";"BLERANCOURT";"Pylône autostable"; 30.0;"SFR"
649698;3.19944;49.78528;"03° 11' 58.00'' Est, 49° 47' 07.00'' Nord";"02710";"LA BONNETTE";"CHÂTEAU D'EAU";"02790";"SERAUCOURT-LE-GRAND";"Château d'eau - réservoir"; 52.0;"Syndicat des eaux, Adduction"
651810;3.12500;49.17806;"03° 07' 30.00'' Est, 49° 10' 41.00'' Nord";"02307";;"29 R DE LA CHAUSSEE";"02460";"LA FERTE-MILON";"Bâtiment"; 10.0;"Commune, communauté de commune"
652316;3.45972;49.99222;"03° 27' 35.00'' Est, 49° 59' 32.00'' Nord";"02095";"LE CHÊNE BRULÉ";"R. DU STDE";"02110";"BOHAIN-EN-VERMANDOIS";"Pylône tubulaire"; 25.0;"ORANGE"
661498;3.32111;49.05611;"03° 19' 16.00'' Est, 49° 03' 22.00'' Nord";"02290";;"AIRE DE REPOS DE LA TALMOUSE PYLÔNE SANEF";"02400";"ESSOMES-SUR-MARNE";"Pylône autostable"; 30.0;"Sociétés d'Autoroutes"
664300;3.61139;49.56472;"03° 36' 41.00'' Est, 49° 33' 53.00'' Nord";"02408";;"R DU 13 OCTOBRE CHÂTEAU D'EAU 1";"02000";"LAON";"Château d'eau - réservoir"; 42.0;"Syndicat des eaux, Adduction"
664321;4.04917;49.88861;"04° 02' 57.00'' Est, 49° 53' 19.00'' Nord";"02378";"LA TERRE SIMON MICHEL";"CHEM RURAL DIT DU FOND MOURA TERRAIN COMMUNAL";"02500";"LA HERIE";"Pylône tubulaire"; 30.0;"ORANGE"
667149;3.42389;49.53167;"03° 25' 26.00'' Est, 49° 31' 54.00'' Nord";"02834";"LA MONTAGNE";"SITE TDF DE PRÉMONTRÉ";"02320";"WISSIGNICOURT";"Pylône autostable"; 47.0;"TDF"
671902;3.62861;49.72528;"03° 37' 43.00'' Est, 49° 43' 31.00'' Nord";"02591";;"R DE BOIS CHÂTEAU D'EAU";"02270";"PARGNY-LES-BOIS";"Château d'eau - réservoir"; 22.0;"Syndicat des eaux, Adduction"
674218;3.33417;49.78750;"03° 20' 03.00'' Est, 49° 47' 15.00'' Nord";"02756";"DU BOIS MAILLARD";"AIRE DE REPOS DE URVILLERS";"02690";"URVILLERS";"Pylône autostable"; 25.0;"Sociétés d'Autoroutes"
674847;3.82972;49.96167;"03° 49' 47.00'' Est, 49° 57' 42.00'' Nord";"02135";;"10 T RTE RN 29";"02620";"BUIRONFOSSE";"Pylône tubulaire"; 30.0;"SFR"
674908;3.20028;49.03333;"03° 12' 01.00'' Est, 49° 01' 60.00'' Nord";"02521";"L'ENCLOS";"CHEM RURAL DE CROUY FERME DE L'HÔPITAL";"02310";"MONTREUIL-AUX-LIONS";"Pylône autostable"; 30.0;"SFR"
684687;3.50611;49.11361;"03° 30' 22.00'' Est, 49° 06' 49.00'' Nord";"02083";"LES 15 ARPENTS DU FONDS";;"02130";"BEUVARDES";"Pylône tubulaire"; 30.8;"SNCF Réseau"
684689;3.28806;49.54778;"03° 17' 17.00'' Est, 49° 32' 52.00'' Nord";"02318";"LE CHENIL";;"02670";"FOLEMBRAY";"Pylône autostable"; 30.0;"SFR"
685548;3.58778;50.02500;"03° 35' 16.00'' Est, 50° 01' 30.00'' Nord";"02830";"CHÂTEAU D'EAU";"R DU CATEAU";"02630";"WASSIGNY";"Château d'eau - réservoir"; 35.0;"Commune, communauté de commune"
686804;3.39583;49.04750;"03° 23' 45.00'' Est, 49° 02' 51.00'' Nord";"02168";;"48 R DE LA MADELEINE";"02400";"CHATEAU-THIERRY";"Pylône haubané"; 25.0;"Titulaire programme Radio/TV"
687809;3.36861;49.39194;"03° 22' 07.00'' Est, 49° 23' 31.00'' Nord";"02131";"LE PRÉ DES MORTIERS";"USINE SDA RD 925 SILO N° 2";"02880";"BUCY-LE-LONG";"Silo"; 19.0;"Société Privée SA"
688854;3.27250;49.67528;"03° 16' 21.00'' Est, 49° 40' 31.00'' Nord";"02738";"LE SART";"CITÉ QUESSY RÉSERVOIR COMMUNAL";"02700";"TERGNIER";"Pylône autostable"; 42.0;"ORANGE"
693917;4.13139;49.90611;"04° 07' 53.00'' Est, 49° 54' 22.00'' Nord";"02684";"LE POIRIER ROBIN";;"02830";"SAINT-MICHEL";"Pylône autostable"; 30.0;"SFR"
700769;3.18889;49.99222;"03° 11' 20.00'' Est, 49° 59' 32.00'' Nord";"02776";"LES CHAMPS DE BELLOY";"AIRE DE SERVICE AUTOROUTIÈRE A26 SANEFDE VENDHUILE";"02420";"VENDHUILE";"Pylône autostable"; 61.0;"Sociétés d'Autoroutes"
709228;3.25167;49.90250;"03° 15' 06.00'' Est, 49° 54' 09.00'' Nord";"02355";"BOIS DE BELLENGLISE";"CHEM DIT DE THONIGNY";"02100";"GRICOURT";"Pylône autostable"; 45.0;"FPS TOWERS"
711677;3.54861;49.95500;"03° 32' 55.00'' Est, 49° 57' 18.00'' Nord";"02358";"MARCHAVENNE";"R DU THIOLET VC 4";"02110";"GROUGIS";"Tour hertzienne"; 65.0;"TDF"
713094;3.95917;49.42722;"03° 57' 33.00'' Est, 49° 25' 38.00'' Nord";"02211";"LA SUCRERIE";"10 R DE GUIGNICOURT";"02190";"CONDE-SUR-SUIPPE";"Silo"; 54.4;"Coopérative Agricole, Vinicole"
714643;3.29472;49.91222;"03° 17' 41.00'' Est, 49° 54' 44.00'' Nord";"02420";"LE TRONQUOY";"CHEM RURAL DU TRONQUOY";"02100";"LESDINS";"Pylône autostable"; 45.0;"SFR"
715354;3.51111;49.39833;"03° 30' 40.00'' Est, 49° 23' 54.00'' Nord";"02620";;"CHEM DE CHASSEMY";"02370";"PRESLES-ET-BOVES";"Pylône autostable"; 42.0;"FPS TOWERS"
717576;3.54944;49.95417;"03° 32' 58.00'' Est, 49° 57' 15.00'' Nord";"02358";"MARCHAVENNE";"VOIE COMMUNALE N°4 TERRAIN MILITAIRE";"02110";"GROUGIS";"Pylône haubané"; 80.0;"Autres"
717956;3.77750;49.94778;"03° 46' 39.00'' Est, 49° 56' 52.00'' Nord";"02419";"LA TAILLETTE";"D.26";"02170";"LESCHELLES";"Château d'eau - réservoir"; 47.0;"Syndicat des eaux, Adduction"
720450;3.26167;48.99667;"03° 15' 42.00'' Est, 48° 59' 48.00'' Nord";"02818";"L'HÔPITAL";"LA RENAISSANCE SANITAIRE RUE VICTOR ET LOUISE MONTFORT";"02310";"VILLIERS-SAINT-DENIS";"Bâtiment"; 30.0;"Société Privée SA"
720575;3.28361;49.60194;"03° 17' 01.00'' Est, 49° 36' 07.00'' Nord";"02014";"LA GARENNE";"PRÈS D7";"02700";"AMIGNY-ROUY";"Pylône tubulaire"; 35.0;"ORANGE"
722485;3.49250;49.06500;"03° 29' 33.00'' Est, 49° 03' 54.00'' Nord";"02484";"LE BOUT DE LA JONCHÈRE";"CHEM RURAL N°27";"02650";"MEZY-MOULINS";"Pylône autostable"; 44.0;"Société Privée SA"
722512;3.78583;49.79500;"03° 47' 09.00'' Est, 49° 47' 42.00'' Nord";"02657";"BOIS DE ROUGERIES";"CHEM RURAL DIT DE MARLE PRÈS D37";"02140";"ROUGERIES";"Pylône autostable"; 28.0;"ORANGE"
724233;3.28833;49.04639;"03° 17' 18.00'' Est, 49° 02' 47.00'' Nord";"02443";"FOND DE LA CENSE";"PRÈS DE A4-LIGNE TGV EST  PK 90.173 SENS PARIS METZ";"02400";"LUCY-LE-BOCAGE";"Pylône autostable"; 35.0;"SNCF Réseau"
724249;3.41889;49.08639;"03° 25' 08.00'' Est, 49° 05' 11.00'' Nord";"02280";"LA GRANDE BORNE";"A 4 - SENS PARIS/METZ - LIGNE TGV E PK 66.377";"02400";"EPIEDS";"Pylône autostable"; 38.0;"SNCF Réseau"
725944;3.52583;49.08806;"03° 31' 33.00'' Est, 49° 05' 17.00'' Nord";"02389";"LES PATIS";;"02850";"JAULGONNE";"Pylône autostable"; 37.9;"FPS TOWERS"
728736;3.37333;49.39444;"03° 22' 24.00'' Est, 49° 23' 40.00'' Nord";"02131";"FERME DU PAVÉ";;"02880";"BUCY-LE-LONG";"Pylône haubané"; 20.0;"DDE"
730609;3.22722;49.60778;"03° 13' 38.00'' Est, 49° 36' 28.00'' Nord";"02173";;"1 R DES GRANDS NAVOIRS SARL AISNE PALETTES";"02300";"CHAUNY";"Pylône autostable"; 30.0;"Sociétés d'Autoroutes"
738004;3.46417;49.68750;"03° 27' 51.00'' Est, 49° 41' 15.00'' Nord";"02222";"LES BLANCS";"PÉAGE VERS ÉCHANGEUR DE COURBES N°12 - A.26";"02800";"COURBES";"Pylône autostable"; 56.0;"Sociétés d'Autoroutes"
742349;3.65222;49.85222;"03° 39' 08.00'' Est, 49° 51' 08.00'' Nord";"02629";;"HAMEAU DE CLANDIEU";"02120";"PUISIEUX-ET-CLANLIEU";"Bâtiment"; 16.0;"Particulier"
742351;3.88639;49.39806;"03° 53' 11.00'' Est, 49° 23' 53.00'' Nord";"02344";;"CHATEAU D EAU DE GERNICOURT";"02160";"GERNICOURT";"Château d'eau - réservoir"; 5.0;"Syndicat des eaux, Adduction"
742353;3.70833;49.44056;"03° 42' 30.00'' Est, 49° 26' 26.00'' Nord";"02582";;"FERME DU POTEAU D AILLE";"02160";"PAISSY";"Bâtiment"; 16.0;"Particulier"
742355;3.18917;49.93278;"03° 11' 21.00'' Est, 49° 55' 58.00'' Nord";"02614";;"12 HAMEAU DU GRAND PRIEL";"02490";"PONTRU";"Château d'eau - réservoir"; 14.0;"Syndicat des eaux, Adduction"
742357;3.60611;49.59083;"03° 36' 22.00'' Est, 49° 35' 27.00'' Nord";"02408";;"FERME DE COURDEAU BESNY ET LOIZY";"02000";"LAON";"Bâtiment"; 13.0;"Particulier"
742359;3.45306;49.89833;"03° 27' 11.00'' Est, 49° 53' 54.00'' Nord";"02310";;"7 R RAYMOND CARLIER";"02110";"FIEULAINE";"Bâtiment"; 11.0;"Particulier"
747291;3.62056;49.70111;"03° 37' 14.00'' Est, 49° 42' 04.00'' Nord";"02237";"BAUDIER";"CHEM RURAL DU CALVAIRE";"02270";"CRECY-SUR-SERRE";"Pylône autostable"; 30.4;"ORANGE Services Fixes"
749093;3.96806;49.58444;"03° 58' 05.00'' Est, 49° 35' 04.00'' Nord";"02409";;"CMP MIL DE SISSONNE VLGE DE COMBAT";"02150";"LAPPION";"Bâtiment"; 13.0;"Etat, Ministère"
751868;3.09361;49.24806;"03° 05' 37.00'' Est, 49° 14' 53.00'' Nord";"02810";;"R DE BELLIEUE GARAGE DEKRA";"02600";"VILLERS-COTTERETS";"Pylône tubulaire"; 18.0;"ORANGE"
753275;3.56000;49.86806;"03° 33' 36.00'' Est, 49° 52' 05.00'' Nord";"02450";"LA MAISON ROUGE(FERME)";"PRES RN 29";"02120";"MACQUIGNY";"Pylône autostable"; 43.0;"SFR"
753913;3.91944;49.98167;"03° 55' 10.00'' Est, 49° 58' 54.00'' Nord";"02141";"LE PRÉ LONDEAU";"PRÈS D.285";"02260";"LA CAPELLE";"Pylône autostable"; 35.0;"ORANGE Services Fixes"
753953;3.39194;49.66806;"03° 23' 31.00'' Est, 49° 40' 05.00'' Nord";"02260";"LE CLOS CARON";"PRÈS D.13 CHÂTEAU D'EAU";"02800";"DANIZY";"Château d'eau - réservoir"; 48.0;"Commune, communauté de commune"
753975;3.09472;49.28389;"03° 05' 41.00'' Est, 49° 17' 02.00'' Nord";"02822";;"ALLÉE DU ROY STATION HERTZIENNE";"02600";"VIVIERES";"Tour hertzienne"; 59.0;"TDF"
753981;3.23500;49.04000;"03° 14' 06.00'' Est, 49° 02' 24.00'' Nord";"02465";"BOIS DE LA FERME ISSONGE";"A A4";"02810";"MARIGNY-EN-ORXOIS";"Pylône autostable"; 56.0;"Sociétés d'Autoroutes"
753983;3.33278;49.37917;"03° 19' 58.00'' Est, 49° 22' 45.00'' Nord";"02722";;"16 BD GAMBETTA FT";"02200";"SOISSONS";"Bâtiment"; 31.0;"ORANGE Services Fixes"
753989;3.75611;49.52667;"03° 45' 22.00'' Est, 49° 31' 36.00'' Nord";"02309";"LE GRAND MARAIS";"CHEM DE LA PLAINE";"02840";"FESTIEUX";"Pylône autostable"; 24.0;"ORANGE"
753993;3.65389;49.59722;"03° 39' 14.00'' Est, 49° 35' 50.00'' Nord";"02157";"LE VIEUX MOULIN";"CHÂTEAU D'EAU";"02000";"CHAMBRY";"Château d'eau - réservoir"; 32.0;"Commune, communauté de commune"
753995;3.31667;49.38750;"03° 18' 60.00'' Est, 49° 23' 15.00'' Nord";"02722";"ODES";"9 R DU DR MARCOTTE";"02200";"SOISSONS";"Immeuble"; 25.0;"Société HLM"
753999;3.27583;49.84056;"03° 16' 33.00'' Est, 49° 50' 26.00'' Nord";"02691";;"73/75 R DE PARIS 2 RUE DE LA PRÉVOYANCE";"02100";"SAINT-QUENTIN";"Pylône autostable"; 30.0;"ORANGE"
754003;3.27833;49.85833;"03° 16' 42.00'' Est, 49° 51' 30.00'' Nord";"02691";;"194 R JOHN FITZGERALD KENNEDY";"02100";"SAINT-QUENTIN";"Bâtiment"; 28.0;"Société Privée SA"
754005;3.30556;49.83861;"03° 18' 20.00'' Est, 49° 50' 19.00'' Nord";"02691";;"19, R DE L'INDUSTRIE";"02100";"SAINT-QUENTIN";"Immeuble"; 15.0;"Société HLM"
754011;3.66306;49.99833;"03° 39' 47.00'' Est, 49° 59' 54.00'' Nord";"02298";"LA BOVE";"R DE LA GARE";"02510";"ETREUX";"Pylône autostable"; 30.0;"SFR"
754016;3.24528;49.59611;"03° 14' 43.00'' Est, 49° 35' 46.00'' Nord";"02719";;"PL DU 11 NOVEMBRE 1918 EGLISE ST-MÉDARD";"02300";"SINCENY";"Monument religieux"; 34.0;"Commune, communauté de commune"
754020;3.28333;49.84556;"03° 16' 60.00'' Est, 49° 50' 44.00'' Nord";"02691";;"83 R EMILE ZOLA";"02100";"SAINT-QUENTIN";"Immeuble"; 19.0;"Copropriété, Syndic, SCI"
754022;3.37306;49.64639;"03° 22' 23.00'' Est, 49° 38' 47.00'' Nord";"02016";;"R PRINCIPALE PRÈS D.13";"02800";"ANDELAIN";"Pylône autostable"; 30.0;"ORANGE"
754024;3.08917;49.25778;"03° 05' 21.00'' Est, 49° 15' 28.00'' Nord";"02810";"LE ROSSIGNOL";"R ALFRED JUNEAUX STADE MUNICIPAL";"02600";"VILLERS-COTTERETS";"Pylône autostable"; 31.0;"ORANGE"
754028;3.19861;49.61250;"03° 11' 55.00'' Est, 49° 36' 45.00'' Nord";"02566";;"R HENRI CATTE";"02300";"OGNES";"Pylône autostable"; 24.0;"Particulier"
754030;3.64361;49.57833;"03° 38' 37.00'' Est, 49° 34' 42.00'' Nord";"02408";;"CHEM DU POTEAU ATELIERS MUNICIPAUX LA HAUTE BORNE";"02000";"LAON";"Pylône tubulaire"; 25.0;"ORANGE"
754478;3.63083;49.89694;"03° 37' 51.00'' Est, 49° 53' 49.00'' Nord";"02361";;"429 R JEAN MOULIN";"02120";"GUISE";"Pylône tubulaire"; 20.0;"ORANGE"
754481;3.29167;49.81417;"03° 17' 30.00'' Est, 49° 48' 51.00'' Nord";"02340";"PÉAGE DE GAUCHY";"A A26 SENS REIMS/CALAIS  PK 175 STATION SANEF ST QUENTIN GAUCHY";"02430";"GAUCHY";"Pylône autostable"; 56.0;"Sociétés d'Autoroutes"
754509;3.30139;49.85139;"03° 18' 05.00'' Est, 49° 51' 05.00'' Nord";"02691";;"4 RUE DU COMMANDANT GUY BIELER";"02100";"SAINT-QUENTIN";"Immeuble"; 23.0;"Société HLM"
754513;3.21722;49.61500;"03° 13' 02.00'' Est, 49° 36' 54.00'' Nord";"02173";;"R. ST-MARTIN EGLISE ST-MARTIN";"02300";"CHAUNY";"Monument religieux"; 60.0;"Commune, communauté de commune"
754516;3.61111;49.13667;"03° 36' 40.00'' Est, 49° 08' 12.00'' Nord";"02655";"LA GARENNE";"PRÈS A4 - PK 81";"02130";"RONCHERES";"Pylône autostable"; 35.0;"SNCF Réseau"
754521;4.03722;49.79333;"04° 02' 14.00'' Est, 49° 47' 36.00'' Nord";"02044";"L'EPINE BRUYANTE";"CHEM DU CERISIER";"02140";"BANCIGNY";"Pylône autostable"; 30.0;"Conseil Général"
754530;3.33556;49.65083;"03° 20' 08.00'' Est, 49° 39' 03.00'' Nord";"02059";;"IMP DE LA CENTRALE";"02800";"BEAUTOR";"Pylône tubulaire"; 30.0;"Commune, communauté de commune"
754537;3.53917;49.12722;"03° 32' 21.00'' Est, 49° 07' 38.00'' Nord";"02332";;"A.4 - PK 97 - SENS STRASBOURG/PARIS PK 97";"02130";"FRESNES-EN-TARDENOIS";"Pylône autostable"; 45.0;"Sociétés d'Autoroutes"
754542;3.46389;49.83861;"03° 27' 50.00'' Est, 49° 50' 19.00'' Nord";"02741";"LA VOIE DU LANDIER";"CHEM RURAL N°5";"02390";"THENELLES";"Pylône autostable"; 42.0;"SFR"
754546;3.62056;49.56500;"03° 37' 14.00'' Est, 49° 33' 54.00'' Nord";"02408";;"PL. DU GÉNÉRAL LECLERC HOTEL DE VILLE";"02000";"LAON";"Bâtiment"; 25.0;"Commune, communauté de commune"
754550;3.28889;49.82889;"03° 17' 20.00'' Est, 49° 49' 44.00'' Nord";"02340";;"R DE PICARDIE COMPLEXE SPORTIF ROBERT BARRAN";"02430";"GAUCHY";"Pylône autostable"; 25.0;"Commune, communauté de commune"
754552;3.66694;49.47472;"03° 40' 01.00'' Est, 49° 28' 29.00'' Nord";"02158";;"R DE L'EGLISE";"02860";"CHAMOUILLE";"Monument religieux"; 26.0;"Commune, communauté de commune"
754557;3.69722;49.46639;"03° 41' 50.00'' Est, 49° 27' 59.00'' Nord";"02550";;"R. DE LA VALLÉE";"02860";"NEUVILLE-SUR-AILETTE";"Monument religieux"; 16.0;"Commune, communauté de commune"
754560;3.61583;49.90500;"03° 36' 57.00'' Est, 49° 54' 18.00'' Nord";"02361";;"570 R DE ROBBÉ SAMAS";"02120";"GUISE";"Pylône tubulaire"; 25.0;"ORANGE"
755207;3.63583;49.55917;"03° 38' 09.00'' Est, 49° 33' 33.00'' Nord";"02408";;"R MARCEL LEVINDREY STADE";"02000";"LAON";"Pylône tubulaire"; 34.0;"Commune, communauté de commune"
755223;3.60444;49.55778;"03° 36' 16.00'' Est, 49° 33' 28.00'' Nord";"02408";"QUARTIER FOCH";"AV MARÉCHAL FOCH BÂT 19";"02000";"LAON";"Bâtiment"; 23.0;"Conseil Général"
755244;3.40889;49.03861;"03° 24' 32.00'' Est, 49° 02' 19.00'' Nord";"02168";;"6 B  R DEVILLE PYL. SNCF";"02400";"CHATEAU-THIERRY";"Pylône autostable"; 34.0;"SNCF Réseau"
755253;3.29500;49.65833;"03° 17' 42.00'' Est, 49° 39' 30.00'' Nord";"02738";;"PL HERMENT CITÉ QUESSY GARE DE TRIAGE";"02700";"TERGNIER";"Pylône autostable"; 22.0;"ORANGE"
755258;3.36472;49.34389;"03° 21' 53.00'' Est, 49° 20' 38.00'' Nord";"02706";"LA NOUE DE BILLY";"RTE DE LA CARRIÈRE L'EVÊQUE";"02200";"SEPTMONTS";"Pylône autostable"; 32.0;"Conseil Général"
755260;3.42778;49.30278;"03° 25' 40.00'' Est, 49° 18' 10.00'' Nord";"02536";"LES CARRIÈRES";"CHEM RURAL";"02200";"NAMPTEUIL-SOUS-MURET";"Pylône tubulaire"; 20.0;"Conseil Général"
758511;3.09806;49.34750;"03° 05' 53.00'' Est, 49° 20' 51.00'' Nord";"02528";;"HAMEAU DE POUY";"02600";"MORTEFONTAINE";"Bâtiment"; 9.0;"Particulier"
760758;3.57444;49.33583;"03° 34' 28.00'' Est, 49° 20' 09.00'' Nord";"02224";"VIEUX VOYEU";"CHEM RURAL";"02220";"COURCELLES-SUR-VESLES";"Pylône autostable"; 35.0;"SFR"
765178;3.57389;49.04889;"03° 34' 26.00'' Est, 49° 02' 56.00'' Nord";"02645";"LES CLOTAIS";"RTE NAPOLÉON";"02850";"REUILLY-SAUVIGNY";"Pylône autostable"; 35.0;"SFR"
772127;3.91111;49.70639;"03° 54' 40.00'' Est, 49° 42' 23.00'' Nord";"02737";;"FERME DE L ESPERANCE HAMEAU";"02250";"TAVAUX-ET-PONTSERICOURT";"Bâtiment"; 11.0;"Société Privée SA"
772884;3.20306;49.70944;"03° 12' 11.00'' Est, 49° 42' 34.00'' Nord";"02315";"LES GRANDS FOSSÉS";;"02520";"FLAVY-LE-MARTEL";"Pylône autostable"; 43.0;"TDF"
773082;3.22139;49.39028;"03° 13' 17.00'' Est, 49° 23' 25.00'' Nord";"02011";;"R FOULEE RN 31";"02290";"AMBLENY";"Pylône autostable"; 50.0;"TDF"
776188;3.83972;50.00000;"03° 50' 23.00'' Est, 50° 00' 00.00'' Nord";"02558";;"ROND POINT DE GUISE";"02170";"LE NOUVION-EN-THIERACHE";"Pylône autostable"; 45.0;"SFR"
782657;3.91889;49.98444;"03° 55' 08.00'' Est, 49° 59' 04.00'' Nord";"02141";"LA HOSQUETTE";"NATIONALE 2 - CHATEAU D'EAU";"02260";"LA CAPELLE";"Château d'eau - réservoir"; 34.8;"Syndicat des eaux, Adduction"
787210;3.73944;49.89667;"03° 44' 22.00'' Est, 49° 53' 48.00'' Nord";"02624";"LA R DE ROMERY";;"02120";"PROISY";"Pylône autostable"; 29.0;"SFR"
790226;3.31083;49.82861;"03° 18' 39.00'' Est, 49° 49' 43.00'' Nord";"02691";;"50 CHEM D'ITANCOURT";"02100";"SAINT-QUENTIN";"Bâtiment"; 12.0;"Société Privée SA"
791343;3.35639;49.74944;"03° 21' 23.00'' Est, 49° 44' 58.00'' Nord";"02532";;"STATION DE RÉÉMISSION TDF CITÉ DU MAROC";"02610";"MOY-DE-L'AISNE";"Pylône autostable"; 23.0;"TDF"
794606;3.58167;49.92889;"03° 34' 54.00'' Est, 49° 55' 44.00'' Nord";"02757";;"R WASSELIN TERRAIN FOOT";"02120";"VADENCOURT";"Pylône tubulaire"; 22.0;"ORANGE"
798835;3.50611;49.04500;"03° 30' 22.00'' Est, 49° 02' 42.00'' Nord";"02239";"LE CRUCHERON";"CHEMIN DU RELAIS";"02650";"CREZANCY";"Pylône autostable"; 45.0;"TDF"
799055;3.61694;49.57333;"03° 37' 01.00'' Est, 49° 34' 24.00'' Nord";"02408";;"R VICTOR BASSELET GARE DE TRIAGE DE LAON";"02000";"LAON";"Pylône autostable"; 30.5;"SFR"
800172;3.37972;49.81944;"03° 22' 47.00'' Est, 49° 49' 10.00'' Nord";"02721";"CAMBRY";"D. 12 SILO SA HUBAU";"02240";"SISSY";"Silo"; 62.0;"Coopérative Agricole, Vinicole"
800429;3.39556;49.07972;"03° 23' 44.00'' Est, 49° 04' 47.00'' Nord";"02085";"BEZUET";"PEX SANEF - PELOTON AUTOROUTE A4";"02400";"BEZU-SAINT-GERMAIN";"Pylône autostable"; 48.0;"Sociétés d'Autoroutes"
805948;3.46611;49.73444;"03° 27' 58.00'' Est, 49° 44' 04.00'' Nord";"02640";;"13 R DE L EGLISE";"02240";"RENANSART";"Bâtiment"; 12.0;"Particulier"
806000;3.29722;49.82444;"03° 17' 50.00'' Est, 49° 49' 28.00'' Nord";"02340";;"42 ROUTE DE CHAUNY";"02430";"GAUCHY";"Bâtiment"; 10.0;"Société Privée SA"
813912;3.59694;49.55278;"03° 35' 49.00'' Est, 49° 33' 10.00'' Nord";"02408";;"38, R MARGUERITE CLERBOUT LES TUILERIES";"02000";"LAON";"Bâtiment"; 25.0;"Etablissement de soins"
815466;3.38806;49.04861;"03° 23' 17.00'' Est, 49° 02' 55.00'' Nord";"02168";"QUARTIER LES VAUCRISES";"4 AV OTMUS";"02400";"CHATEAU-THIERRY";"Immeuble"; 29.0;"Société Privée SA"
826210;3.65028;49.14972;"03° 39' 01.00'' Est, 49° 08' 59.00'' Nord";"02351";"BOIS BRILLON";"A4- LIGNE TGV EST  PK 84.775 SENS METZ-PARIS";"02130";"GOUSSANCOURT";"Pylône autostable"; 38.0;"SNCF Réseau"
826259;3.46917;49.10694;"03° 28' 09.00'' Est, 49° 06' 25.00'' Nord";"02280";"LES GRANDS SAVARTS";"A 4 - PK 91.5";"02400";"EPIEDS";"Pylône autostable"; 56.0;"Sociétés d'Autoroutes"
832526;3.24778;49.32500;"03° 14' 52.00'' Est, 49° 19' 30.00'' Nord";"02172";;"FERME DE CRAVANÇON";"02200";"CHAUDUN";"Pylône autostable"; 28.0;"SFR"
834170;3.61111;49.56389;"03° 36' 40.00'' Est, 49° 33' 50.00'' Nord";"02408";;"24 R MARCELIN BERTHELOT";"02000";"LAON";"Bâtiment"; 16.0;"Société Privée SA"
834740;3.18056;49.45778;"03° 10' 50.00'' Est, 49° 27' 28.00'' Nord";"02527";;"LA COTE DE L'ENSEIGNE";"02290";"MORSAIN";"Pylône autostable"; 30.0;"Conseil Général"
834779;3.24111;49.46472;"03° 14' 28.00'' Est, 49° 27' 53.00'' Nord";"02277";"LA SENTE DE ST LÉGER";;"02290";"EPAGNY";"Pylône autostable"; 30.0;"Conseil Général"
836025;3.30444;49.04722;"03° 18' 16.00'' Est, 49° 02' 50.00'' Nord";"02290";"FERME DE LA CENSE";"CHEM RURAL DIT DE LA CENSE";"02400";"ESSOMES-SUR-MARNE";"Silo"; 42.0;"Particulier"
836552;3.97167;49.54167;"03° 58' 18.00'' Est, 49° 32' 30.00'' Nord";"02720";"LES EPINETTES";"CAMP MILITAIRE BAT 071";"02150";"SISSONNE";"Pylône tubulaire"; 12.0;"ORANGE"
836835;3.69306;49.47139;"03° 41' 35.00'' Est, 49° 28' 17.00'' Nord";"02550";"LE CHEM DE LAON";"CHEM VICINAL N°1";"02860";"NEUVILLE-SUR-AILETTE";"Pylône tubulaire"; 30.0;"ORANGE"
836857;3.28806;49.77861;"03° 17' 17.00'' Est, 49° 46' 43.00'' Nord";"02287";;"CHEMIN RURAL DE L'ÉTANG DÉCHETTERIE";"02690";"ESSIGNY-LE-GRAND";"Pylône tubulaire"; 25.0;"ORANGE"
838861;3.61472;48.98167;"03° 36' 53.00'' Est, 48° 58' 54.00'' Nord";"02053";"LES PENTES DE FAET";"ROUTE DE MONTBAILLON CHEM COMMUNAL N°2 DE VERDON";"02330";"BAULNE-EN-BRIE";"Pylône autostable"; 20.0;"SFR"
838885;4.21694;49.74778;"04° 13' 01.00'' Est, 49° 44' 52.00'' Nord";"02642";;"15 GRATREUX";"02360";"RESIGNY";"Pylône autostable"; 30.0;"SFR"
842077;3.31694;49.83472;"03° 19' 01.00'' Est, 49° 50' 05.00'' Nord";"02691";;"12 RUE LÉON LEMAIRE";"02100";"SAINT-QUENTIN";"Immeuble"; 30.0;"Société HLM"
842082;3.63333;49.55917;"03° 38' 00.00'' Est, 49° 33' 33.00'' Nord";"02408";;"R MARCEL LEVINDREY PALAIS DES SPORTS";"02000";"LAON";"Pylône autostable"; 32.0;"Commune, communauté de commune"
842093;3.61194;49.56250;"03° 36' 43.00'' Est, 49° 33' 45.00'' Nord";"02408";;"60 R ST MARTIN EGLISE ST MARTIN";"02000";"LAON";"Monument religieux"; 39.3;"Commune, communauté de commune"
842139;3.38917;49.59778;"03° 23' 21.00'' Est, 49° 35' 52.00'' Nord";"02680";;"CIMETIÈRE DE ST GOBAIN";"02410";"SAINT-GOBAIN";"Pylône autostable"; 30.0;"SFR"
847638;3.37778;49.57306;"03° 22' 40.00'' Est, 49° 34' 23.00'' Nord";"02707";"LE VAL BLANC";"CHEM RURAL DIT DE LA CHÉNÉE";"02410";"SEPTVAUX";"Pylône autostable"; 30.0;"SFR"
849573;3.81333;49.46889;"03° 48' 48.00'' Est, 49° 28' 08.00'' Nord";"02215";"LE TROU D'ENFER";"MOULIN DES POTIERS";"02820";"CORBENY";"Pylône autostable"; 37.0;"TDF"
851273;3.66944;49.44528;"03° 40' 10.00'' Est, 49° 26' 43.00'' Nord";"02150";"LA GRENOUILLÈRE";"CHEM RURAL DE COURTEÇON";"02860";"CERNY-EN-LAONNOIS";"Pylône tubulaire"; 38.0;"ORANGE"
851827;3.18944;49.69667;"03° 11' 22.00'' Est, 49° 41' 48.00'' Nord";"02315";"LES PAVILLONS";"PRÈS D439";"02520";"FLAVY-LE-MARTEL";"Pylône tubulaire"; 30.0;"ORANGE"
851864;3.46472;48.97750;"03° 27' 53.00'' Est, 48° 58' 39.00'' Nord";"02540";"LA FOSSE AUX LARRONS";"CHEM RURAL DE LA FOSSE AUX LARRONS";"02400";"NESLES-LA-MONTAGNE";"Pylône autostable"; 45.0;"SFR"
852368;3.59667;49.55111;"03° 35' 48.00'' Est, 49° 33' 04.00'' Nord";"02408";;"39, R MARGUERITE CLERBOUT SAMU 02";"02000";"LAON";"Bâtiment"; 12.0;"Etablissement de soins"
853424;3.15306;49.80583;"03° 09' 11.00'' Est, 49° 48' 21.00'' Nord";"02317";;"R DE LA BIETTE VOIE COMMUNALE";"02590";"FLUQUIERES";"Pylône tubulaire"; 30.0;"ORANGE"
881970;3.61528;49.74639;"03° 36' 55.00'' Est, 49° 44' 47.00'' Nord";"02184";"LA SOLE DE BOIS";"CHEM N°2 B DE VALÉCOURT À LA RN";"02270";"CHEVRESIS-MONCEAU";"Pylône autostable"; 49.8;"TDF"
888580;3.18500;49.36667;"03° 11' 06.00'' Est, 49° 22' 00.00'' Nord";"02011";"LA CROIX DES PAS ST MARTIN";"R DES FOSSES";"02290";"AMBLENY";"Pylône autostable"; 35.0;"ORANGE"
888583;3.43667;49.04056;"03° 26' 12.00'' Est, 49° 02' 26.00'' Nord";"02094";;"2 ROUTE NATIONALE";"02400";"BLESMES";"Pylône tubulaire"; 25.0;"ORANGE"
888795;3.56167;49.12500;"03° 33' 42.00'' Est, 49° 07' 30.00'' Nord";"02227";"LA CAHUTE";"CHEMIN RURAL DE LA FOSSE / D14 PRÈS LGV PEX RFF";"02130";"COURMONT";"Pylône tubulaire"; 24.0;"ORANGE"
889058;3.46000;49.98417;"03° 27' 36.00'' Est, 49° 59' 03.00'' Nord";"02095";;"R HENRI MATISSE";"02110";"BOHAIN-EN-VERMANDOIS";"Pylône autostable"; 15.0;"ORANGE"
899884;4.21028;49.84667;"04° 12' 37.00'' Est, 49° 50' 48.00'' Nord";"02031";"LA CENDRIÉRE";"CHEM RURAL D'AUBENTON À LA CENDRIÈRE";"02500";"AUBENTON";"Château d'eau - réservoir"; 47.5;"Syndicat des eaux, Adduction"
916804;3.30306;49.85917;"03° 18' 11.00'' Est, 49° 51' 33.00'' Nord";"02691";;"11 R ARCHIMEDE";"02100";"SAINT-QUENTIN";"Immeuble"; 38.4;"Société HLM"
916806;3.30611;49.84944;"03° 18' 22.00'' Est, 49° 50' 58.00'' Nord";"02691";;"73 BD JEAN BOUIN";"02100";"SAINT-QUENTIN";"Immeuble"; 25.4;"Société HLM"
924479;3.90694;49.84194;"03° 54' 25.00'' Est, 49° 50' 31.00'' Nord";"02321";;"7 R LA GARENNE B SARD SICAE";"02140";"FONTAINE-LES-VERVINS";"Bâtiment"; 7.0;"Société Privée SA"
924485;3.09111;49.25472;"03° 05' 28.00'' Est, 49° 15' 17.00'' Nord";"02810";;"6 R DE L HOTEL DE VILLE POLICE MUNICIPALE";"02600";"VILLERS-COTTERETS";"Bâtiment"; 12.0;"Commune, communauté de commune"
926046;3.48028;49.83917;"03° 28' 49.00'' Est, 49° 50' 21.00'' Nord";"02575";;"11 R PASTEUR UNION SDA";"02390";"ORIGNY-SAINTE-BENOITE";"Immeuble"; 10.0;"Société Privée SA"
933124;3.28556;49.20333;"03° 17' 08.00'' Est, 49° 12' 12.00'' Nord";"02662";;"RTE DE BILLY SUR OURCQ D83";"02210";"ROZET-SAINT-ALBIN";"Silo"; 16.0;"Société Privée SA"
933135;3.77694;49.74778;"03° 46' 37.00'' Est, 49° 44' 52.00'' Nord";"02468";;"ZI R A LAURENT DE LAVOISIER";"02250";"MARLE";"Mât métallique"; 15.0;"Société Privée SA"
934128;3.28333;49.20278;"03° 16' 60.00'' Est, 49° 12' 10.00'' Nord";"02662";;"RTE DE BILLY SUR OURCQ D83";"02210";"ROZET-SAINT-ALBIN";"Bâtiment"; 3.0;"Société Privée SA"
948591;3.92333;49.96972;"03° 55' 24.00'' Est, 49° 58' 11.00'' Nord";"02141";;"LE CHEMIN VERT DE SOMMERON";"02260";"LA CAPELLE";"Pylône tubulaire"; 26.0;"BOUYGUES"
953321;3.86444;49.41111;"03° 51' 52.00'' Est, 49° 24' 40.00'' Nord";"02803";"LES TERRES DE LA MIETTE";"CH. DÉPART. 925 DE SOISSONS À NEUFCHATEL/AISNE";"02160";"LA VILLE-AUX-BOIS-LES-PONTAVERT";"Pylône autostable"; 38.7;"TDF"
953327;4.04194;49.44917;"04° 02' 31.00'' Est, 49° 26' 57.00'' Nord";"02299";"LA PETITE VARDE";"CHEM RURAL DIT DU MOULIN À VENT";"02190";"EVERGNICOURT";"Pylône tubulaire"; 19.0;"FPS TOWERS"
954237;3.56167;49.12528;"03° 33' 42.00'' Est, 49° 07' 31.00'' Nord";"02227";;"FERME LA FOSSE";"02130";"COURMONT";"Pylône autostable"; 9.0;"SNCF Réseau"
954806;3.44972;49.49944;"03° 26' 59.00'' Est, 49° 29' 58.00'' Nord";"02602";"LES HAUTES FRÉMIÈRES";"R DU 7EME B.C.A";"02320";"PINON";"Pylône autostable"; 24.0;"ORANGE"
970700;3.16472;49.34694;"03° 09' 53.00'' Est, 49° 20' 49.00'' Nord";"02415";;"ROUTE DE LA MONTAGNE DES QUINZE";"02600";"LAVERSINE";"Pylône autostable"; 35.0;"ORANGE"
990733;4.12250;49.87861;"04° 07' 21.00'' Est, 49° 52' 43.00'' Nord";"02470";;"RUE DE LA FOSSE";"02500";"MARTIGNY";"Pylône autostable"; 25.0;"SNCF Réseau"
990735;4.19611;49.83611;"04° 11' 46.00'' Est, 49° 50' 10.00'' Nord";"02031";;"LA GARE";"02600";"AUBENTON";"Pylône autostable"; 30.0;"SNCF Réseau"
991003;3.65639;49.99556;"03° 39' 23.00'' Est, 49° 59' 44.00'' Nord";"02298";;"RUELLE MÉGRET";"02510";"ETREUX";"Pylône autostable"; 20.0;"ORANGE Services Fixes"
992846;3.53083;49.28889;"03° 31' 51.00'' Est, 49° 17' 20.00'' Nord";"02393";"LES GRANDS LARRIS";"INTERSECTION D15-D483";"02220";"JOUAIGNES";"Pylône autostable"; 36.0;"BOUYGUES"
994329;3.62528;49.89750;"03° 37' 31.00'' Est, 49° 53' 51.00'' Nord";"02361";;"RUE DE CHANTRAINE";"02120";"GUISE";"Bâtiment"; 11.0;"Commune, communauté de commune"
997180;4.09500;49.96028;"04° 05' 42.00'' Est, 49° 57' 37.00'' Nord";"02381";;"RUE DE L'INDUSTRIE";"02500";"HIRSON";"Pylône autostable"; 30.0;"SNCF Réseau"
1001872;3.46556;49.20028;"03° 27' 56.00'' Est, 49° 12' 01.00'' Nord";"02127";;"R DE LA ROUGIERES TRUGNY";"02130";"BRUYERES-SUR-FERE";"Mât"; 14.0;"Société Privée SA"
1012592;3.45806;49.97972;"03° 27' 29.00'' Est, 49° 58' 47.00'' Nord";"02095";;"RTE DE SEBONCOURT D 13";"02110";"BOHAIN-EN-VERMANDOIS";"Mât béton"; 14.0;"EDF GDF"
1019034;3.93194;49.97417;"03° 55' 55.00'' Est, 49° 58' 27.00'' Nord";"02141";;"ROUTE D'HIRSON CANTON DE LA HAIE METTE";"02260";"LA CAPELLE";"Bâtiment"; 5.0;"EDF GDF"
1019036;3.69194;50.01889;"03° 41' 31.00'' Est, 50° 01' 08.00'' Nord";"02103";;"RUE D'OISY";"02450";"BOUE";"Bâtiment"; 9.0;"EDF GDF"
1019056;3.23083;49.59694;"03° 13' 51.00'' Est, 49° 35' 49.00'' Nord";"02719";;"15 CHEMIN DE LA SOUDE";"02300";"SINCENY";"Bâtiment"; 9.0;"EDF GDF"
1019059;3.96972;49.97056;"03° 58' 11.00'' Est, 49° 58' 14.00'' Nord";"02197";"LE CHEMIN NOIR";"RUE DU CHEMIN NOIR";"02260";"CLAIRFONTAINE";"Château d'eau - réservoir"; 58.0;"Syndicat des eaux, Adduction"
1019454;3.38389;49.59028;"03° 23' 02.00'' Est, 49° 35' 25.00'' Nord";"02680";;"29, RUE CHARLES FONTAINE D7";"02410";"SAINT-GOBAIN";"Pylône haubané"; 25.0;"EDF GDF"
1019456;3.46389;49.48083;"03° 27' 50.00'' Est, 49° 28' 51.00'' Nord";"02602";;"BOIS DU VIEUX PINON D 19";"02320";"PINON";"Bâtiment"; 6.0;"EDF GDF"
1019458;3.46556;49.34667;"03° 27' 56.00'' Est, 49° 20' 48.00'' Nord";"02195";"LE PETIT NOYER";"D 1250";"02220";"CIRY-SALSOGNE";"Château d'eau - réservoir"; 45.0;"Syndicat des eaux, Adduction"
1019475;3.31944;49.35583;"03° 19' 10.00'' Est, 49° 21' 21.00'' Nord";"02226";;"RUE JEAN RACINE";"02200";"COURMELLES";"Bâtiment"; 5.0;"EDF GDF"
1019477;3.11056;49.39389;"03° 06' 38.00'' Est, 49° 23' 38.00'' Nord";"02514";;"CHEMIN DES OSIERS";"02290";"MONTIGNY-LENGRAIN";"Mât béton"; 14.0;"EDF GDF"
1019479;3.08806;49.24417;"03° 05' 17.00'' Est, 49° 14' 39.00'' Nord";"02810";;"AV DE BOURSONNE";"02600";"VILLERS-COTTERETS";"Bâtiment"; 6.0;"EDF GDF"
1019481;3.24556;49.20389;"03° 14' 44.00'' Est, 49° 12' 14.00'' Nord";"02192";;"RUE STE ANNE";"02210";"CHOUY";"Pylône autostable"; 5.0;"EDF GDF"
1019484;3.40694;49.02444;"03° 24' 25.00'' Est, 49° 01' 28.00'' Nord";"02554";;"AV DE CHATEAU-THIERRY";"02400";"NOGENTEL";"Bâtiment"; 5.0;"EDF GDF"
1019486;3.45028;49.00972;"03° 27' 01.00'' Est, 49° 00' 35.00'' Nord";"02540";"LE GRAND BALLOIS";;"02400";"NESLES-LA-MONTAGNE";"Pylône autostable"; 28.0;"EDF GDF"
1019489;3.28889;49.86222;"03° 17' 20.00'' Est, 49° 51' 44.00'' Nord";"02691";;"6, CHEMIN DE LEHAUCOURT";"02100";"SAINT-QUENTIN";"Bâtiment"; 7.0;"EDF GDF"
1019496;3.28417;49.84111;"03° 17' 03.00'' Est, 49° 50' 28.00'' Nord";"02691";;"54 BD VICTOR HUGO";"02100";"SAINT-QUENTIN";"Bâtiment"; 22.0;"EDF GDF"
1019503;3.45889;49.77917;"03° 27' 32.00'' Est, 49° 46' 45.00'' Nord";"02648";"CLOS MATADOR";"D 692";"02240";"RIBEMONT";"Bâtiment"; 6.0;"EDF GDF"
1019645;3.32611;49.65389;"03° 19' 34.00'' Est, 49° 39' 14.00'' Nord";"02738";;"CHEMIN LATERAL";"02700";"TERGNIER";"Bâtiment"; 4.0;"EDF GDF"
1019701;3.34694;49.39500;"03° 20' 49.00'' Est, 49° 23' 42.00'' Nord";"02722";;"AVENUE DU GENERAL PATTON POSTE EDF SAINT-PAUL";"02200";"SOISSONS";"Bâtiment"; 5.0;"EDF GDF"
1019708;3.51250;49.19444;"03° 30' 45.00'' Est, 49° 11' 40.00'' Nord";"02305";"LE PONT";"TOURNECUL D 310";"02130";"FERE-EN-TARDENOIS";"Pylône tubulaire"; 18.0;"EDF GDF"
1019710;3.67056;49.58389;"03° 40' 14.00'' Est, 49° 35' 02.00'' Nord";"02157";"LA HAYETTE";"D 516";"02000";"CHAMBRY";"Bâtiment"; 5.0;"EDF GDF"
1019716;3.60861;49.58194;"03° 36' 31.00'' Est, 49° 34' 55.00'' Nord";"02408";;"CHE D'AULNOIS";"02000";"LAON";"Bâtiment"; 9.0;"EDF GDF"
1019721;3.28417;49.83167;"03° 17' 03.00'' Est, 49° 49' 54.00'' Nord";"02340";;"RUE VOLTAIRE";"02430";"GAUCHY";"Bâtiment"; 6.0;"EDF GDF"
1019725;4.01278;49.68333;"04° 00' 46.00'' Est, 49° 40' 60.00'' Nord";"02433";"LA BRIQUETTERIE";"D966  LISLET/POSTE EDF";"02340";"LISLET";"Bâtiment"; 7.0;"EDF GDF"
1019730;3.76778;49.75083;"03° 46' 04.00'' Est, 49° 45' 03.00'' Nord";"02468";;"RUE ALCIDE GILLET  MARLE/POSTE EDF";"02250";"MARLE";"Bâtiment"; 8.0;"EDF GDF"
1019734;3.55722;49.89861;"03° 33' 26.00'' Est, 49° 53' 55.00'' Nord";"02563";;"73 RUE JEAN FOURRIER";"02120";"NOYALES";"Bâtiment"; 9.0;"EDF GDF"
1035199;3.23472;49.61639;"03° 14' 05.00'' Est, 49° 36' 59.00'' Nord";"02173";;"LES BASSES SÉGUILLES";"02300";"CHAUNY";"Pylône autostable"; 20.0;"SNCF Réseau"
1036029;3.40083;49.92389;"03° 24' 03.00'' Est, 49° 55' 26.00'' Nord";"02240";;"LA PIÈCE DE LA CROIX";"02110";"CROIX-FONSOMMES";"Pylône autostable"; 25.0;"SNCF Réseau"
1036031;3.44333;49.99111;"03° 26' 36.00'' Est, 49° 59' 28.00'' Nord";"02095";;"PLACE EUGENE MALEZIEUX";"02110";"BOHAIN-EN-VERMANDOIS";"Pylône autostable"; 30.0;"SNCF Réseau"
1038451;3.20056;49.41139;"03° 12' 02.00'' Est, 49° 24' 41.00'' Nord";"02326";"CROISEMENT CHEMIN DU PUIT DE L";"RD 17 RÉSERVOIR SIVOM";"02290";"FONTENOY";"Pylône autostable"; 25.0;"SFR"
1040295;3.32056;49.87778;"03° 19' 14.00'' Est, 49° 52' 40.00'' Nord";"02525";;"1 RUE DU MOULIN PK 158.130";"02100";"MORCOURT";"Pylône autostable"; 22.0;"SNCF Réseau"
1040302;3.61139;49.56472;"03° 36' 41.00'' Est, 49° 33' 53.00'' Nord";"02408";;"43 R DU 13 OCTOBRE 1918";"02000";"LAON";"Château d'eau - réservoir"; 37.0;"Commune, communauté de commune"
1043934;3.66111;49.60722;"03° 39' 40.00'' Est, 49° 36' 26.00'' Nord";"02157";"PÉAGE";;"02000";"CHAMBRY";"Pylône autostable"; 56.0;"Sociétés d'Autoroutes"
1044680;3.61806;49.56444;"03° 37' 05.00'' Est, 49° 33' 52.00'' Nord";"02408";;"38 R ST JEAN";"02000";"LAON";"Immeuble"; 21.0;"Société Privée SA"
1045681;3.96611;49.54417;"03° 57' 58.00'' Est, 49° 32' 39.00'' Nord";"02720";"CENZUB";"CAMP MILITAIRE  BÂTIMENT 071";"02150";"SISSONNE";"Bâtiment"; 14.0;"Autres"
1048216;3.42556;48.96222;"03° 25' 32.00'' Est, 48° 57' 44.00'' Nord";"02289";"LE CIMETIERE";"D86";"02570";"ESSISES";"Pylône tubulaire"; 12.0;"SFR"
1052860;3.27861;48.97306;"03° 16' 43.00'' Est, 48° 58' 23.00'' Nord";"02163";"VAL DE CHARLY";"LE RU GOUSSET";"02310";"CHARLY";"Mât métallique"; 12.0;"EDF GDF"
1054011;3.48778;49.17667;"03° 29' 16.00'' Est, 49° 10' 36.00'' Nord";"02806";;"RUE DE LA CENSE D 79";"02130";"VILLENEUVE-SUR-FERE";"Château d'eau - réservoir"; 26.0;"Syndicat des eaux, Adduction"
1056361;4.17444;49.73500;"04° 10' 28.00'' Est, 49° 44' 06.00'' Nord";"02354";"LA GARDE DE DIEUX";"CHÂTEAU D'EAU D520";"02360";"GRANDRIEUX";"Château d'eau - réservoir"; 35.0;"Syndicat des eaux, Adduction"
1063404;3.32722;49.94583;"03° 19' 38.00'' Est, 49° 56' 45.00'' Nord";"02426";;"RUE DE PREZELLE SILO";"02420";"LEVERGIES";"Silo"; 30.0;"Société Privée SA"
1084206;3.29417;49.84833;"03° 17' 39.00'' Est, 49° 50' 54.00'' Nord";"02691";;"AVENUE DE REMICOURT PALAIS DES SPORTS";"02100";"SAINT-QUENTIN";"Pylône autostable"; 18.0;"ORANGE"
1174012;3.26167;49.78111;"03° 15' 42.00'' Est, 49° 46' 52.00'' Nord";"02287";"FOND DE CONTESCOURT";;"02690";"ESSIGNY-LE-GRAND";"Pylône autostable"; 12.0;"SNCF Réseau"
1174657;3.32306;49.83750;"03° 19' 23.00'' Est, 49° 50' 15.00'' Nord";"02371";;"AVENUE CHOQUART";"02100";"HARLY";"Château d'eau - réservoir"; 51.0;"Commune, communauté de commune"
1188457;3.41500;49.26111;"03° 24' 54.00'' Est, 49° 15' 40.00'' Nord";"02412";"LA CHAMBRE À VACHES";"L'HERMITAGE - D1210";"02210";"LAUNOY";"Pylône autostable"; 43.0;"ORANGE"
1189436;3.45167;49.49222;"03° 27' 06.00'' Est, 49° 29' 32.00'' Nord";"02602";;"CHEM RURAL DIT DE LA PORTE BLANCHE (R DE BIESME)";"02320";"PINON";"Pylône autostable"; 38.7;"TDF"
1193077;3.29583;49.83944;"03° 17' 45.00'' Est, 49° 50' 22.00'' Nord";"02691";"GARE DE ST QUENTIN";"PLACE ANDRÉ BAUDEZ GARE DE ST QUENTIN";"02100";"SAINT-QUENTIN";"Pylône autostable"; 30.0;"GLOBECAST"
1195578;3.27889;49.84389;"03° 16' 44.00'' Est, 49° 50' 38.00'' Nord";"02691";;"29 R BLANQUUI IMM";"02100";"SAINT-QUENTIN";"Immeuble"; 23.1;"Copropriété, Syndic, SCI"
1195904;4.00833;49.46556;"04° 00' 30.00'' Est, 49° 27' 56.00'' Nord";"02627";"PROVISEUX ET PLESNOY";"14 RUE DE PROUVAIS";"02190";"PROVISEUX-ET-PLESNOY";"Pylône autostable"; 16.0;"Titulaire programme Radio/TV"
1203179;3.21250;49.85917;"03° 12' 45.00'' Est, 49° 51' 33.00'' Nord";"02382";;"PL DE VOUVRAY";"02760";"HOLNON";"Bâtiment"; 15.0;"Commune, communauté de commune"
1207973;3.35333;49.26944;"03° 21' 12.00'' Est, 49° 16' 10.00'' Nord";"02372";"ENTRE DEUX ROUTES";;"02210";"HARTENNES-ET-TAUX";"Mât béton"; 12.0;"ORANGE Services Fixes"
1209093;3.47583;49.94778;"03° 28' 33.00'' Est, 49° 56' 52.00'' Nord";"02703";;"CHEMIN RURAL DIT LE VIEUX MOULIN TERRAIN COMMUNAL";"02110";"SEBONCOURT";"Pylône tubulaire"; 24.0;"ORANGE"
1211978;3.26861;49.33778;"03° 16' 07.00'' Est, 49° 20' 16.00'' Nord";"02226";;"ZAC PARC DU PLATEAU";"02200";"COURMELLES";"Bâtiment"; 10.0;"Société Privée SA"
1212294;3.15611;49.76028;"03° 09' 22.00'' Est, 49° 45' 37.00'' Nord";"02752";;"RUE D'EN BAS D 67";"02640";"TUGNY-ET-PONT";"Château d'eau - réservoir"; 37.0;"Syndicat des eaux, Adduction"
1212298;3.37639;49.84833;"03° 22' 35.00'' Est, 49° 50' 54.00'' Nord";"02383";"LE MOULIN FONDU";"CHEMIN RURAL DIT DE BERNOT PRÈS CHÂTEAU D'EAU";"02720";"HOMBLIERES";"Pylône autostable"; 20.0;"ORANGE"
1212580;3.49361;49.31528;"03° 29' 37.00'' Est, 49° 18' 55.00'' Nord";"02230";"LA SIÈGE";"D 227 CHEMIN DE COUVRELLES À CUIRY-HOUSSE";"02220";"COUVRELLES";"Pylône autostable"; 55.0;"ORANGE"
1213630;3.23250;49.47417;"03° 13' 57.00'' Est, 49° 28' 27.00'' Nord";"02277";;"FERME SAINT LEGER";"02290";"EPAGNY";"Bâtiment"; 10.0;"Particulier"
1213632;4.02139;49.62917;"04° 01' 17.00'' Est, 49° 37' 45.00'' Nord";"02264";;"RUE DE L ANCIEN TERRAGE";"02340";"DIZY-LE-GROS";"Bâtiment"; 8.0;"Particulier"
1213634;3.72889;49.79250;"03° 43' 44.00'' Est, 49° 47' 33.00'' Nord";"02547";;"5 RUE PRINCIPALE";"02250";"LA NEUVILLE-HOUSSET";"Bâtiment"; 8.0;"Particulier"
1281841;3.76361;49.42361;"03° 45' 49.00'' Est, 49° 25' 25.00'' Nord";"02235";"LA GROSSE MONTAGNE";"RUE DE BEAURIEUX CD 892";"02160";"CRAONNELLE";"Pylône tubulaire"; 30.0;"ORANGE"
1282357;3.79778;50.01917;"03° 47' 52.00'' Est, 50° 01' 09.00'' Nord";"02558";;"RUE DE LA CROIX ZONE D'ACTIVITÉS LA CHAUSSÉE DE LA CAPELLE";"02170";"LE NOUVION-EN-THIERACHE";"Pylône autostable"; 25.0;"SFR"
1288569;3.28889;49.60583;"03° 17' 20.00'' Est, 49° 36' 21.00'' Nord";"02014";"LE MOULIN";"CH. COM. AMIGNY ROUY";"02700";"AMIGNY-ROUY";"Pylône autostable"; 36.5;"BOUYGUES"
1290538;3.38278;49.12139;"03° 22' 58.00'' Est, 49° 07' 17.00'' Nord";"02356";;"CR12 VERS LA FERME DE PLAISANCE";"02210";"GRISOLLES";"Pylône autostable"; 28.0;"ORANGE"
1323116;3.64694;49.90778;"03° 38' 49.00'' Est, 49° 54' 28.00'' Nord";"02361";;"AV DE L'EUROPE HOTEL D'ENTREPRISES INTERCOMMUNAUTÉ";"02120";"GUISE";"Bâtiment"; 13.0;"Commune, communauté de commune"
1325821;3.13389;49.48472;"03° 08' 02.00'' Est, 49° 29' 05.00'' Nord";"02034";"LE FOND MANDERON";"TERRAIN COMMUNAL";"02300";"AUDIGNICOURT";"Pylône tubulaire"; 25.0;"SFR"
1326443;3.28222;49.85250;"03° 16' 56.00'' Est, 49° 51' 09.00'' Nord";"02691";;"38 BOULEVARD RICHELIEU";"02100";"SAINT-QUENTIN";"Pylône autostable"; 35.0;"ORANGE"
1339505;3.90556;49.49000;"03° 54' 20.00'' Est, 49° 29' 24.00'' Nord";"02013";;"ROUTE DE ST ERME SILE DE STOCKAGE DE CÉRÉALES";"02190";"AMIFONTAINE";"Silo"; 63.0;"Coopérative Agricole, Vinicole"
1342228;3.98139;49.41361;"03° 58' 53.00'' Est, 49° 24' 49.00'' Nord";"02761";"LA FOSSE À BILLOTS";"PRÈS CHATEAU D'EAU";"02190";"VARISCOURT";"Pylône autostable"; 41.0;"TDF"
1344201;3.36639;49.92167;"03° 21' 59.00'' Est, 49° 55' 18.00'' Nord";"02323";;"537 R DU TERTRE";"02110";"FONTAINE-UTERTE";"Pylône autostable"; 39.5;"TDF"
1345624;3.11611;49.38806;"03° 06' 58.00'' Est, 49° 23' 17.00'' Nord";"02514";;"RTE DE VILLERS COTTERET";"02290";"MONTIGNY-LENGRAIN";"Château d'eau - réservoir"; 3.0;"Syndicat des eaux, Adduction"
1347691;3.31639;49.79639;"03° 18' 59.00'' Est, 49° 47' 47.00'' Nord";"02756";"LE PONTCHU";"LA VOIE D'ITANCOURT D 576";"02690";"URVILLERS";"Pylône autostable"; 30.0;"SFR"
1355079;3.68306;49.75889;"03° 40' 59.00'' Est, 49° 45' 32.00'' Nord";"02169";;"1, RUE DE L'EGLISE CHÂTEAU D'EAU";"02270";"CHATILLON-LES-SONS";"Château d'eau - réservoir"; 27.2;"Syndicat des eaux, Adduction"
1355950;3.92139;49.45722;"03° 55' 17.00'' Est, 49° 27' 26.00'' Nord";"02399";;"CHEMIN RURAL DE L'EPINE LES NEUF JOURS";"02190";"JUVINCOURT-ET-DAMARY";"Pylône autostable"; 33.0;"TDF"
1366039;3.59722;49.44667;"03° 35' 50.00'' Est, 49° 26' 48.00'' Nord";"02115";"SAINT ALBERT";"CHEMIN DES DAMES";"02000";"BRAYE-EN-LAONNOIS";"Pylône autostable"; 30.0;"Voies navigables de France"
1376927;3.78694;49.65250;"03° 47' 13.00'' Est, 49° 39' 09.00'' Nord";"02600";;"RUE DU GÉNÉRAL DE GAULLE STADE MUNICIPAL";"02350";"PIERREPONT";"Pylône autostable"; 12.0;"Commune, communauté de commune"
1377659;3.55250;49.42333;"03° 33' 09.00'' Est, 49° 25' 24.00'' Nord";"02577";"FOLLE EN PRISE";;"02370";"OSTEL";"Pylône autostable"; 35.0;"Conseil Général"
1379956;3.45472;49.38139;"03° 27' 17.00'' Est, 49° 22' 53.00'' Nord";"02714";"MISSY SUR AISNE";"R DE REIMS LES NEIGES";"02220";"SERMOISE";"Pylône autostable"; 49.4;"TDF"
1385018;4.07028;49.92111;"04° 04' 13.00'' Est, 49° 55' 16.00'' Nord";"02381";;"RUE DE GUISE";"02500";"HIRSON";"Bâtiment"; 28.0;"EDF GDF"
1393839;3.41833;49.42278;"03° 25' 06.00'' Est, 49° 25' 22.00'' Nord";"02828";"LA BORNE TROUÉE";"CHEM RURAL DIT DES CHARBONNIERS";"02880";"VREGNY";"Pylône autostable"; 49.0;"TDF"
1395446;3.69194;50.01167;"03° 41' 31.00'' Est, 50° 00' 42.00'' Nord";"02103";;"CHEM DE LA MORTE EAU PROCHE STATION EPURATION";"02450";"BOUE";"Pylône autostable"; 44.6;"TDF"
1396449;3.21167;49.49222;"03° 12' 42.00'' Est, 49° 29' 32.00'' Nord";"02704";"AU-DESSUS DU MARAIS FONTAINE";;"02300";"SELENS";"Pylône autostable"; 30.0;"Conseil Général"
1399063;3.29722;49.25111;"03° 17' 50.00'' Est, 49° 15' 04.00'' Nord";"02693";"BLANZY";"D2";"02210";"SAINT-REMY-BLANZY";"Pylône haubané"; 36.0;"DDE"
1410845;3.38528;49.75083;"03° 23' 07.00'' Est, 49° 45' 03.00'' Nord";"02124";;"PÉAGE DE BRISSY HAMEGICOURT RUE SAINT MAIXENT";"02240";"BRISSY-HAMEGICOURT";"Pylône autostable"; 25.0;"Sociétés d'Autoroutes"
1410847;3.74222;49.56417;"03° 44' 32.00'' Est, 49° 33' 51.00'' Nord";"02697";"LA CROISETTE";"AIRE DE REPOS DES PÈLERINS";"02480";"SAMOUSSY";"Pylône autostable"; 25.0;"Sociétés d'Autoroutes"
1414361;3.50250;49.68250;"03° 30' 09.00'' Est, 49° 40' 57.00'' Nord";"02492";;"CHEMIN RURAL DIT DU GLOUART";"02270";"MONCEAU-LES-LEUPS";"Pylône autostable"; 35.0;"TDF"
1414378;3.81694;49.53611;"03° 49' 01.00'' Est, 49° 32' 10.00'' Nord";"02498";"LE HAUT DE LA GAYENNE";"CHEM RURAL DIT DU BOIS DU MOIREAU";"02820";"MONTAIGU";"Pylône autostable"; 37.4;"TDF"
1415046;3.63861;49.90972;"03° 38' 19.00'' Est, 49° 54' 35.00'' Nord";"02361";"AU DOS DU BOIS DE LA JUSTICE";"CR DIT DU BOIS DES FONDS";"02120";"GUISE";"Pylône tubulaire"; 30.0;"ORANGE"
1415742;3.51806;49.93167;"03° 31' 05.00'' Est, 49° 55' 54.00'' Nord";"02006";;"RUE DE LA COUTURELLE";"02110";"AISONVILLE-ET-BERNOVILLE";"Château d'eau - réservoir"; 23.8;"Syndicat des eaux, Adduction"
1415917;3.42528;49.95444;"03° 25' 31.00'' Est, 49° 57' 16.00'' Nord";"02334";;"RUE JEAN JAURÈS - STADE";"02230";"FRESNOY-LE-GRAND";"Pylône autostable"; 36.0;"ORANGE"
1416264;3.20639;49.43167;"03° 12' 23.00'' Est, 49° 25' 54.00'' Nord";"02562";"LES ORMELETS";;"02290";"NOUVRON-VINGRE";"Pylône tubulaire"; 18.0;"SFR"
1418144;3.28611;49.84750;"03° 17' 10.00'' Est, 49° 50' 51.00'' Nord";"02691";;"RUE DES HALLES MARCHÉ COUVERT";"02100";"SAINT-QUENTIN";"Bâtiment"; 18.0;"Commune, communauté de commune"
1422920;3.50056;49.82833;"03° 30' 02.00'' Est, 49° 49' 42.00'' Nord";"02575";;"LE CHAMPS A FEVES";"02390";"ORIGNY-SAINTE-BENOITE";"Pylône autostable"; 36.0;"TDF"
1424920;3.56472;49.89806;"03° 33' 53.00'' Est, 49° 53' 53.00'' Nord";"02625";;"CHEM RURAL DU FIEF";"02120";"PROIX";"Pylône autostable"; 30.0;"ORANGE"
1424979;3.36500;49.83139;"03° 21' 54.00'' Est, 49° 49' 53.00'' Nord";"02481";"LE PUITS";"R R DES CHATAIGNIERES";"02720";"MESNIL-SAINT-LAURENT";"Pylône autostable"; 31.3;"BOUYGUES"
1426554;3.62528;49.49528;"03° 37' 31.00'' Est, 49° 29' 43.00'' Nord";"02429";"LES EPINOIS";"LES EPINOIS";"02860";"LIERVAL";"Pylône autostable"; 37.0;"Conseil Général"
1429270;3.27861;49.76583;"03° 16' 43.00'' Est, 49° 45' 57.00'' Nord";"02287";"LA PLAINE DU BOIS DE REMIGNY";"CHEM RURAL - RTE DE CHAUNY";"02690";"ESSIGNY-LE-GRAND";"Pylône autostable"; 43.0;"TDF"
1437851;3.59250;49.54250;"03° 35' 33.00'' Est, 49° 32' 33.00'' Nord";"02408";"AU DESSUS DE LA JUSTICE";"RD 651";"02000";"LAON";"Pylône autostable"; 42.0;"TDF"
1441687;3.13250;49.42278;"03° 07' 57.00'' Est, 49° 25' 22.00'' Nord";"02673";"LA PIERRE SAINTE ANNE";"TERRAIN COMMUNAL";"02290";"SAINT-CHRISTOPHE-A-BERRY";"Pylône tubulaire"; 25.0;"SFR"
1443500;3.12417;49.65750;"03° 07' 27.00'' Est, 49° 39' 27.00'' Nord";"02362";"LES BRIVANDES";"CHEMIN DES BRIVANDES";"02300";"GUIVRY";"Pylône autostable"; 37.0;"BOUYGUES"
1444207;3.33167;49.87083;"03° 19' 54.00'' Est, 49° 52' 15.00'' Nord";"02525";;"ZI LES MUIDS SARL CARON";"02100";"MORCOURT";"Pylône tubulaire"; 25.0;"SFR"
1445320;3.38194;49.39500;"03° 22' 55.00'' Est, 49° 23' 42.00'' Nord";"02131";;"CHEM RURAL DIT DES MONTS FAUCONS";"02880";"BUCY-LE-LONG";"Pylône autostable"; 30.0;"SFR"
1446193;3.88722;49.88500;"03° 53' 14.00'' Est, 49° 53' 06.00'' Nord";"02728";"LA BRIQUETERIE";"ROUTE DÉPARTEMENTALE D318";"02580";"SORBAIS";"Château d'eau - réservoir"; 25.0;"Syndicat des eaux, Adduction"
1447893;3.29194;49.86000;"03° 17' 31.00'' Est, 49° 51' 36.00'' Nord";"02691";;"5 RUE MARCONI";"02100";"SAINT-QUENTIN";"Immeuble"; 39.0;"Société HLM"
1454299;3.89361;49.77694;"03° 53' 37.00'' Est, 49° 46' 37.00'' Nord";"02136";;"ROUTE DE BOSMONT  RD N°51";"02140";"BURELLES";"Pylône autostable"; 32.0;"ORANGE"
1468550;3.78806;49.80278;"03° 47' 17.00'' Est, 49° 48' 10.00'' Nord";"02657";;"R DE CHANTRAINE";"02140";"ROUGERIES";"Bâtiment"; 22.0;"Coopérative Agricole, Vinicole"
1505515;3.55917;49.50083;"03° 33' 33.00'' Est, 49° 30' 03.00'' Nord";"02755";"LA HAUTE CHAUSSÉE";"71 ROUTE DES ROIS";"02000";"URCEL";"Pylône autostable"; 45.0;"TDF"
1514283;3.78778;49.51472;"03° 47' 16.00'' Est, 49° 30' 53.00'' Nord";"02229";"LE PARADIS";;"02820";"COURTRIZY-ET-FUSSIGNY";"Pylône autostable"; 35.0;"BOUYGUES"
1517143;3.33389;48.96944;"03° 20' 02.00'' Est, 48° 58' 10.00'' Nord";"02555";;"13 R DU CROCHET";"02310";"NOGENT-L'ARTAUD";"Bâtiment"; 5.0;"Société Privée SA"
1517144;3.33333;48.96917;"03° 20' 00.00'' Est, 48° 58' 09.00'' Nord";"02555";;"13 R DU CROCHET";"02310";"NOGENT-L'ARTAUD";"Bâtiment"; 9.0;"Société Privée SA"
1530693;3.22750;49.72111;"03° 13' 39.00'' Est, 49° 43' 16.00'' Nord";"02397";;"RUE DU MARAIS ZA LES LOUVRETS";"02480";"JUSSY";"Bâtiment"; 27.0;"Coopérative Agricole, Vinicole"
1531580;3.63528;49.55972;"03° 38' 07.00'' Est, 49° 33' 35.00'' Nord";"02408";;"9 RUE LEO LAGRANGE";"02000";"LAON";"Pylône tubulaire"; 28.0;"Commune, communauté de commune"
1538530;4.09778;49.85306;"04° 05' 52.00'' Est, 49° 51' 11.00'' Nord";"02130";"LE JARDINET";;"02500";"BUCILLY";"Pylône autostable"; 42.0;"Conseil Général"
1539436;3.26361;49.25889;"03° 15' 49.00'' Est, 49° 15' 32.00'' Nord";"02812";;"19 GRANDE RUE PARCELLE CADASTRALE C78";"02600";"VILLERS-HELON";"Bâtiment"; 14.0;"Société Privée SA"
1540723;3.25556;49.13583;"03° 15' 20.00'' Est, 49° 08' 09.00'' Nord";"02622";"MOREAU";"ROUTE DE MONTMANGEON VOIE COMMUNALE N°3";"02470";"PRIEZ";"Pylône autostable"; 30.0;"SFR"
1552036;3.84444;49.85500;"03° 50' 40.00'' Est, 49° 51' 18.00'' Nord";"02401";"DERRIÈRE LES HAYES";"RUE DE VOULPAIX";"02140";"LAIGNY";"Pylône autostable"; 35.0;"Conseil Général"
1559283;3.39056;49.06361;"03° 23' 26.00'' Est, 49° 03' 49.00'' Nord";"02168";;"LA MOISERIE";"02400";"CHATEAU-THIERRY";"Pylône autostable"; 50.0;"Towercast"
1562324;3.22833;49.84028;"03° 13' 42.00'' Est, 49° 50' 25.00'' Nord";"02257";;"62 RTE DE DALLON";"02680";"DALLON";"Bâtiment"; 20.0;"Société Privée SA"
1562356;3.26639;49.69667;"03° 15' 59.00'' Est, 49° 41' 48.00'' Nord";"02474";"LE PANIER À MOUCHES";"CR DIT ANCIEN CHEMIN DE HAM CHÂTEAU D'EAU";"02700";"MENNESSIS";"Château d'eau - réservoir"; 29.0;"Commune, communauté de commune"
1562371;3.30722;49.65833;"03° 18' 26.00'' Est, 49° 39' 30.00'' Nord";"02738";;"IMPASSE DU MARAIS CENTRAL TÉLÉPHONIQUE";"02700";"TERGNIER";"Pylône tubulaire"; 30.0;"ORANGE"
1565366;3.28444;49.77806;"03° 17' 04.00'' Est, 49° 46' 41.00'' Nord";"02287";;"VOIE D'URVILLERS";"02690";"ESSIGNY-LE-GRAND";"Château d'eau - réservoir"; 32.0;"Syndicat des eaux, Adduction"
1569252;4.05194;49.84306;"04° 03' 07.00'' Est, 49° 50' 35.00'' Nord";"02405";"LE PINACLE";;"02140";"LANDOUZY-LA-VILLE";"Pylône autostable"; 201.0;"Itas Tim"
1570094;3.61306;49.44306;"03° 36' 47.00'' Est, 49° 26' 35.00'' Nord";"02115";"LA SAUCELLE";"CR DIT DU MONT DE LA CREUTE TERRAIN COMMUNAL";"02000";"BRAYE-EN-LAONNOIS";"Pylône autostable"; 27.0;"Conseil Général"
1594781;3.70472;49.36694;"03° 42' 17.00'' Est, 49° 22' 01.00'' Nord";"02646";"LE MONT DE CRAIE";;"02160";"REVILLON";"Pylône tubulaire"; 20.0;"Conseil Général"
