Numéro du support;Longitude;Latitude;"Position";"Insee";"Lieu dit";"Adresse";"Code postal";"Commune";"Nature du support";Hauteur en m;"Propriétaire"
3828;7.31056;43.97444;"07° 18' 38.00'' Est, 43° 58' 28.00'' Nord";"06074";;"PL DE RIO CENTRAL TÉLÉPHONIQUE";"06450";"LANTOSQUE";"Bâtiment"; 9.0;"ORANGE Services Fixes"
3832;6.89722;43.95722;"06° 53' 50.00'' Est, 43° 57' 26.00'' Nord";"06099";;"RTE DE LEOUVE AUTOCOMMUTATEUR CD 16";"06260";"PUGET-THENIERS";"Pylône autostable"; 61.0;"ORANGE Services Fixes"
3834;6.84167;44.00861;"06° 50' 30.00'' Est, 44° 00' 31.00'' Nord";"06051";"TÊTE DE PIBOSSAN";"CRETE DE LA LARA";"06260";"LA CROIX-SUR-ROUDOULE";"Pylône autostable"; 15.0;"ORANGE Services Fixes"
3842;7.35972;43.91972;"07° 21' 35.00'' Est, 43° 55' 11.00'' Nord";"06077";"PEIRA CAVA";;"06440";"LUCERAM";"Pylône autostable"; 30.0;"ORANGE Services Fixes"
3844;7.15000;43.65611;"07° 09' 00.00'' Est, 43° 39' 22.00'' Nord";"06027";;"R THOMAS EDISON CENTRAL TÉLÉPHONIQUE";"06800";"CAGNES-SUR-MER";"Bâtiment"; 19.0;"ORANGE Services Fixes"
3846;7.04167;43.80194;"07° 02' 30.00'' Est, 43° 48' 07.00'' Nord";"06050";"COL DE COURSEGOULES";;"06140";"COURSEGOULES";"Pylône autostable"; 6.0;"ORANGE Services Fixes"
3848;7.44528;43.87806;"07° 26' 43.00'' Est, 43° 52' 41.00'' Nord";"06136";;"AV FRANCOIS IMBERTI CENTRAL TÉLÉPHONIQUE";"06380";"SOSPEL";"Bâtiment"; 12.0;"ORANGE Services Fixes"
3850;7.52111;43.89139;"07° 31' 16.00'' Est, 43° 53' 29.00'' Nord";"06023";"CIME DU TRON";;"06540";"BREIL-SUR-ROYA";"Pylône autostable"; 6.0;"ORANGE Services Fixes"
3858;7.52139;44.07139;"07° 31' 17.00'' Est, 44° 04' 17.00'' Nord";"06163";;"ROUTE DU LAC DES MESCHES D 91";"06430";"TENDE";"Pylône autostable"; 12.0;"ORANGE Services Fixes"
3860;7.55278;43.94833;"07° 33' 10.00'' Est, 43° 56' 54.00'' Nord";"06023";"L'ARPETTE";;"06540";"BREIL-SUR-ROYA";"Pylône autostable"; 13.0;"ORANGE Services Fixes"
3864;7.08167;44.21361;"07° 04' 54.00'' Est, 44° 12' 49.00'' Nord";"06073";"CIME DE SESPOUL";;"06420";"ISOLA";"Pylône autostable"; 21.0;
3866;7.05000;44.18556;"07° 02' 60.00'' Est, 44° 11' 08.00'' Nord";"06073";;"11 R SAINT ANTOINE D 2205";"06420";"ISOLA";"Bâtiment"; 11.0;"ORANGE Services Fixes"
3868;7.15833;44.18583;"07° 09' 30.00'' Est, 44° 11' 09.00'' Nord";"06073";"ISOLA 2000";"CHASTILLON IMM LE CHASTELLAR";"06420";"ISOLA";"Bâtiment"; 7.0;"ORANGE Services Fixes"
3872;7.11389;44.07722;"07° 06' 50.00'' Est, 44° 04' 38.00'' Nord";"06129";"LE SEUILLET";"PASSIF";"06420";"SAINT-SAUVEUR-SUR-TINEE";"Pylône autostable"; 32.0;"ORANGE Services Fixes"
3882;6.93111;44.22556;"06° 55' 52.00'' Est, 44° 13' 32.00'' Nord";"06120";"AURON";;"06660";"SAINT-ETIENNE-DE-TINEE";"Pylône autostable"; 10.0;"ORANGE Services Fixes"
3884;6.95000;43.64389;"06° 57' 00.00'' Est, 43° 38' 38.00'' Nord";"06069";"ST MARGUERITE";"CARREFOUR DES 4 CHEMS";"06130";"GRASSE";"Pylône autostable"; 23.0;"ORANGE Services Fixes"
3890;6.81194;43.79972;"06° 48' 43.00'' Est, 43° 47' 59.00'' Nord";"06003";"THORENC";"ROUTE DE CASTELLANE AUTOCOMMUTATEUR";"06750";"ANDON";"Pylône autostable"; 9.0;"ORANGE Services Fixes"
3892;6.81194;43.81417;"06° 48' 43.00'' Est, 43° 48' 51.00'' Nord";"06081";"LE COLLET REDON";;"06910";"LE MAS";"Pylône autostable"; 12.0;"ORANGE Services Fixes"
3894;6.72639;43.84694;"06° 43' 35.00'' Est, 43° 50' 49.00'' Nord";"06116";"BUREAU DE POSTE";;"06850";"SAINT-AUBAN";"Bâtiment"; 9.0;"ORANGE Services Fixes"
3896;6.84194;44.08889;"06° 50' 31.00'' Est, 44° 05' 20.00'' Nord";"06133";;"RTE DE SAUZE";"06470";"SAUZE";"Pylône autostable"; 9.0;"ORANGE Services Fixes"
3898;6.93306;44.09778;"06° 55' 59.00'' Est, 44° 05' 52.00'' Nord";"06094";"VALBERG";"CHEM VICINAL 7";"06470";"PEONE";"Pylône autostable"; 18.0;"ORANGE Services Fixes"
3900;7.29500;43.83556;"07° 17' 42.00'' Est, 43° 50' 08.00'' Nord";"06014";;"AV DU 8 MAI 45 PROXIMITÉ MAIRIE";"06390";"BENDEJUN";"Pylône tubulaire"; 12.0;"ORANGE Services Fixes"
3902;7.27444;43.83111;"07° 16' 28.00'' Est, 43° 49' 52.00'' Nord";"06075";"CHAINE DE FÉRION BAS";;"06670";"LEVENS";"Pylône autostable"; 12.0;"ORANGE Services Fixes"
3912;7.38583;43.93500;"07° 23' 09.00'' Est, 43° 56' 06.00'' Nord";"06086";"BAISSE DE BECCAS";;"06380";"MOULINET";"Pylône autostable"; 18.0;"ORANGE Services Fixes"
3914;7.41556;43.94278;"07° 24' 56.00'' Est, 43° 56' 34.00'' Nord";"06086";"PRATI";"AUTOCOMMUTATEUR";"06380";"MOULINET";"Pylône tubulaire"; 9.0;"ORANGE Services Fixes"
3916;7.00667;43.87444;"07° 00' 24.00'' Est, 43° 52' 28.00'' Nord";"06106";;"BUREAU DE POSTE PRÈS D17";"06910";"ROQUESTERON";"Bâtiment"; 12.0;"ORANGE Services Fixes"
3926;6.69028;43.77194;"06° 41' 25.00'' Est, 43° 46' 19.00'' Nord";"06134";"LA GRANGE DE VERDET";"AUTOCOMMUTATEUR";"06750";"SERANON";"Pylône autostable"; 7.0;"ORANGE Services Fixes"
3930;7.28222;43.94306;"07° 16' 56.00'' Est, 43° 56' 35.00'' Nord";"06074";"LE SUQUET";;"06450";"LANTOSQUE";"Pylône tubulaire"; 9.0;"ORANGE Services Fixes"
3936;7.18861;43.79361;"07° 11' 19.00'' Est, 43° 47' 37.00'' Nord";"06033";;"PL ANTOINE COLMARS PL DOU PUE";"06510";"CARROS";"Mât métallique"; 10.0;"ORANGE Services Fixes"
3938;7.16389;43.85222;"07° 09' 50.00'' Est, 43° 51' 08.00'' Nord";"06066";"CHAPELLE ST PANCRACE";"CD 17 VILLAGE";"06830";"GILETTE";"Pylône autostable"; 9.0;"ORANGE Services Fixes"
3958;6.97944;43.69778;"06° 58' 46.00'' Est, 43° 41' 52.00'' Nord";"06010";"BOUSCARLE";"CHEMIN DE CHATEAUNEUF";"06620";"LE BAR-SUR-LOUP";"Pylône tubulaire"; 10.0;"ORANGE Services Fixes"
3968;7.48472;43.76639;"07° 29' 05.00'' Est, 43° 45' 59.00'' Nord";"06083";;"LA MADONE 23B RUE PAUL MORILLOT";"06500";"MENTON";"Bâtiment"; 17.0;"ORANGE Services Fixes"
3970;7.09139;43.86389;"07° 05' 29.00'' Est, 43° 51' 50.00'' Nord";"06097";"LE VILLARS";;"06910";"PIERREFEU";"Bâtiment"; 4.0;"ORANGE Services Fixes"
3984;7.02250;43.55583;"07° 01' 21.00'' Est, 43° 33' 21.00'' Nord";"06029";"ST NICOLAS";"11 IMP DENANS";"06150";"CANNES";"Bâtiment"; 20.0;"ORANGE Services Fixes"
3988;7.44250;43.78639;"07° 26' 33.00'' Est, 43° 47' 11.00'' Nord";"06067";"ST ROCH CHAPELLE";"BD  DE VERDUN";"06500";"GORBIO";"Pylône tubulaire"; 8.0;"ORANGE Services Fixes"
23726;7.02694;43.55806;"07° 01' 37.00'' Est, 43° 33' 29.00'' Nord";"06029";;"RÉSIDENCE FOYER LES ALIZÉS 32,AV DE VALLAURIS";"06150";"CANNES";"Immeuble"; 28.0;"SFR"
23738;7.35028;43.71528;"07° 21' 01.00'' Est, 43° 42' 55.00'' Nord";"06059";"CAP ROUX";"CARRIERE DU CAP ROUX RN 559 /BASSE CORNICHE";"06360";"EZE";"Mât"; 4.0;"SFR"
23778;7.11639;43.57472;"07° 06' 59.00'' Est, 43° 34' 29.00'' Nord";"06004";;"RES LE SYLVANA TRAVERSE MARTELLI";"06160";"ANTIBES";"Immeuble"; 31.0;"Copropriété, Syndic, SCI"
23820;7.26861;43.70222;"07° 16' 07.00'' Est, 43° 42' 08.00'' Nord";"06088";;"17 R LAMARTINE MEDIATHEQUE";"06000";"NICE";"Immeuble"; 22.0;"Commune, communauté de commune"
23822;7.25028;43.69917;"07° 15' 01.00'' Est, 43° 41' 57.00'' Nord";"06088";;"82 R DES BAUMETTES";"06000";"NICE";"Immeuble"; 14.0;"Copropriété, Syndic, SCI"
23874;7.21333;43.66778;"07° 12' 48.00'' Est, 43° 40' 04.00'' Nord";"06088";;"AVENUE LINDBERG 445 PROMENADE DES ANGLAIS IMM COMMUNICA ZA ARENAS";"06000";"NICE";"Immeuble"; 29.0;"Copropriété, Syndic, SCI"
23882;6.98028;43.55083;"06° 58' 49.00'' Est, 43° 33' 03.00'' Nord";"06029";;"20 R DU BOSQUET";"06150";"CANNES";"Immeuble"; 19.2;"Société HLM"
23896;7.25056;43.71778;"07° 15' 02.00'' Est, 43° 43' 04.00'' Nord";"06088";;"73 AV DE CYRNOS";"06000";"NICE";"Immeuble"; 15.0;"Particulier"
23922;7.07389;43.56417;"07° 04' 26.00'' Est, 43° 33' 51.00'' Nord";"06155";;"CAPITAINERIE DU PORT AVENUE DES FRÈRES ROUSTAN";"06220";"VALLAURIS";"Pylône tubulaire"; 22.0;"SFR"
23924;7.09194;43.60167;"07° 05' 31.00'' Est, 43° 36' 06.00'' Nord";"06004";;"2317 CHEMIN DE ST CLAUDE HÔTEL CLIMAT";"06160";"ANTIBES";"Bâtiment"; 20.0;"Société Privée SA"
24030;7.01306;43.55306;"07° 00' 47.00'' Est, 43° 33' 11.00'' Nord";"06029";;"31 BD  DE LA FERRAGE";"06150";"CANNES";"Immeuble"; 20.0;"Commune, communauté de commune"
24046;7.18917;43.88833;"07° 11' 21.00'' Est, 43° 53' 18.00'' Nord";"06151";"LE CHAUDAN";"GARE DE LA TINÉE";"06450";"UTELLE";"Château d'eau - réservoir"; 14.0;"SNCF"
24054;6.97333;43.55056;"06° 58' 24.00'' Est, 43° 33' 02.00'' Nord";"06029";;"10 R DE LA LIBERATION 10 R DE LA LIBÉRATION";"06150";"CANNES";"Immeuble"; 26.0;"Copropriété, Syndic, SCI"
24100;6.95694;43.78417;"06° 57' 25.00'' Est, 43° 47' 03.00'' Nord";"06041";;"PARKING LE COULET";"06620";"CIPIERES";"Pylône tubulaire"; 8.0;"Commune, communauté de commune"
24124;7.00000;43.57333;"07° 00' 00.00'' Est, 43° 34' 24.00'' Nord";"06030";;"RÉSIDENCE LE FRANKLIN 1 R JULES FERRY";"06110";"LE CANNET";"Immeuble"; 24.0;"Copropriété, Syndic, SCI"
24164;7.08611;43.57111;"07° 05' 10.00'' Est, 43° 34' 16.00'' Nord";"06155";"GOLFE JUAN";"294 AV DE LA MER MAISON DE RETRAITE AU BEL AGE";"06220";"VALLAURIS";"Immeuble"; 16.0;"Etablissement de soins"
24297;7.12778;43.66139;"07° 07' 40.00'' Est, 43° 39' 41.00'' Nord";"06027";;"13-15 AV DE LA COLLE";"06800";"CAGNES-SUR-MER";"Immeuble"; 11.0;"SFR"
24347;7.01583;43.55389;"07° 00' 57.00'' Est, 43° 33' 14.00'' Nord";"06029";;"7 R EDITH CAVELL";"06150";"CANNES";"Immeuble"; 18.0;"Société Privée SA"
24425;7.31389;43.76444;"07° 18' 50.00'' Est, 43° 45' 52.00'' Nord";"06104";;"TUNNEL DE COUPIÈRE A A 8";"06190";"ROQUEBRUNE-CAP-MARTIN";"Intérieur sous-terrain"; 6.0;
24439;7.26417;43.70306;"07° 15' 51.00'' Est, 43° 42' 11.00'' Nord";"06088";;"3 R DE SUISSE";"06000";"NICE";"Immeuble"; 16.0;"Copropriété, Syndic, SCI"
24447;7.12722;43.58278;"07° 07' 38.00'' Est, 43° 34' 58.00'' Nord";"06004";;"38 BD D'AGUILLON";"06160";"ANTIBES";"Immeuble"; 10.0;"Société HLM"
24463;7.22139;43.67278;"07° 13' 17.00'' Est, 43° 40' 22.00'' Nord";"06088";;"IMP NEPTUNE LE FERBER";"06000";"NICE";"Immeuble"; 28.0;"Société HLM"
24465;7.25222;43.72500;"07° 15' 08.00'' Est, 43° 43' 30.00'' Nord";"06088";;"RÉSIDENCE LES GÉMEAUX 1 AV ST SYLVESTRE";"06000";"NICE";"Immeuble"; 25.0;"SFR"
24477;7.28944;43.72250;"07° 17' 22.00'' Est, 43° 43' 21.00'' Nord";"06088";;"153, RTE DE TURIN IMM BON VOYAGE - BÂTIMENT 22";"06000";"NICE";"Immeuble"; 34.0;"Société HLM"
24479;7.12444;43.61972;"07° 07' 28.00'' Est, 43° 37' 11.00'' Nord";"06004";;"2 AV ROSE DES VENTS";"06160";"ANTIBES";"Bâtiment"; 13.0;"Syndicat des eaux, Adduction"
24483;7.01639;43.57333;"07° 00' 59.00'' Est, 43° 34' 24.00'' Nord";"06030";;"67 BD  SADI CARNOT";"06110";"LE CANNET";"Immeuble"; 28.0;"Copropriété, Syndic, SCI"
24485;7.28111;43.71444;"07° 16' 52.00'' Est, 43° 42' 52.00'' Nord";"06088";;"61B AV MARÉCHAL LYAUTEY RÉSIDENCE LE TATIANA";"06000";"NICE";"Immeuble"; 22.0;"SFR"
24491;7.10361;43.58389;"07° 06' 13.00'' Est, 43° 35' 02.00'' Nord";"06004";;"IMM LE VAL D'OR 433 RTE DE ST JEAN";"06160";"ANTIBES";"Immeuble"; 20.0;"Association"
47024;7.19972;43.67167;"07° 11' 59.00'' Est, 43° 40' 18.00'' Nord";"06088";;"IMMEUBLE CHEIRON CTRE ADMINISTRATIF";"06000";"NICE";"Bâtiment"; 35.0;"Conseil Départemental"
47117;7.21472;43.66889;"07° 12' 53.00'' Est, 43° 40' 08.00'' Nord";"06088";;"455 PROMENADE DES ANGLAIS IMM AÉROPÔLE-ZAC DE L'ARENAS";"06200";"NICE";"Bâtiment"; 35.0;"Copropriété, Syndic, SCI"
47267;7.21917;43.67250;"07° 13' 09.00'' Est, 43° 40' 21.00'' Nord";"06088";;"22 AV EDOUARD GRINDA IMM APAVE";"06000";"NICE";"Immeuble"; 20.3;"Société Privée SA"
48651;7.01333;43.55583;"07° 00' 48.00'' Est, 43° 33' 21.00'' Nord";"06029";;"22 R BORNIOL CTRE COMMUNAL D'ACTION SOCIALE";"06150";"CANNES";"Immeuble"; 19.0;"Commune, communauté de commune"
69303;7.03000;43.60000;"07° 01' 48.00'' Est, 43° 36' 00.00'' Nord";"06085";;"RTE DE LA VALMASQUE  PRES INTERSEC D35 ET D135";"06250";"MOUGINS";"Pylône autostable"; 13.0;"FPS TOWERS"
69315;7.14278;43.73028;"07° 08' 34.00'' Est, 43° 43' 49.00'' Nord";"06065";"VAL ESTRECH";"TACON PYLÔNE EDF N°10 225KV";"06610";"LA GAUDE";"Pylône autostable"; 28.4;"EDF ou GDF"
69327;7.21389;43.69000;"07° 12' 50.00'' Est, 43° 41' 24.00'' Nord";"06088";;"BD MONTRÉAL DÉBUT AVENUE DE FABRON";"06000";"NICE";"Pylône tubulaire"; 11.0;"BOUYGUES"
69413;7.26028;43.70333;"07° 15' 37.00'' Est, 43° 42' 12.00'' Nord";"06088";;"14 AV THIERS";"06000";"NICE";"Immeuble"; 31.0;"Société Privée SA"
69427;7.01778;43.56194;"07° 01' 04.00'' Est, 43° 33' 43.00'' Nord";"06029";;"6 AV DES ANGLAIS";"06150";"CANNES";"Immeuble"; 27.2;"Copropriété, Syndic, SCI"
72021;7.24000;43.68944;"07° 14' 24.00'' Est, 43° 41' 22.00'' Nord";"06088";;"60 AVENUE DE LA CALIFORNIE";"06000";"NICE";"Immeuble"; 35.0;"Commune, communauté de commune"
72187;7.09556;43.93583;"07° 05' 44.00'' Est, 43° 56' 09.00'' Nord";"06158";;"AV BISCHOFFSHEIM D 26";"06710";"VILLARS-SUR-VAR";"Pylône tubulaire"; 15.0;"ORANGE"
72197;7.16056;43.92028;"07° 09' 38.00'' Est, 43° 55' 13.00'' Nord";"06078";"COURBAISSE";"CARRIÈRE BERMONT RN 202";"06710";"MALAUSSENE";"Pylône autostable"; 32.0;"ORANGE"
72205;7.50333;43.78528;"07° 30' 12.00'' Est, 43° 47' 07.00'' Nord";"06083";"LA COLLE";"LE FOSSAN - 63 BD DU FOSSAN";"06500";"MENTON";"Immeuble"; 21.0;"Société HLM"
72217;7.17917;44.06806;"07° 10' 45.00'' Est, 44° 04' 05.00'' Nord";"06153";"COLLET DE TARDIVE";"DÉCHARGE PUBLIQUE RD2565";"06420";"VALDEBLORE";"Pylône autostable"; 18.0;"ORANGE Services Fixes"
72219;6.98861;43.70139;"06° 59' 19.00'' Est, 43° 42' 05.00'' Nord";"06010";"LA POSTE";"1 R DU GÉNÉRAL DE GAULLE SQ SEYTRE";"06620";"LE BAR-SUR-LOUP";"Bâtiment"; 11.0;"Commune, communauté de commune"
72235;7.22806;43.69278;"07° 13' 41.00'' Est, 43° 41' 34.00'' Nord";"06088";"RÉSIDENCE ABBAYE DE ROSELAND";"44 BD  NAPOLÉON III";"06000";"NICE";"Immeuble"; 30.0;"Copropriété, Syndic, SCI"
72267;7.39167;43.97694;"07° 23' 30.00'' Est, 43° 58' 37.00'' Nord";"06020";"COL DE TURINI";"CHEM DE LA FRACHA";"06450";"LA BOLLENE-VESUBIE";"Pylône autostable"; 24.0;"ORANGE"
72275;7.14806;43.95889;"07° 08' 53.00'' Est, 43° 57' 32.00'' Nord";"06146";"LA VALORETTE";"RTE DE PONT DE CLANS-D 26";"06420";"TOURNEFORT";"Pylône autostable"; 24.0;"ORANGE"
72281;7.03972;44.08944;"07° 02' 23.00'' Est, 44° 05' 22.00'' Nord";"06110";"LES VAUTES";"LE VILLARS - PARKING";"06420";"ROUBION";"Pylône autostable"; 12.0;"ORANGE Services Fixes"
72283;7.22500;44.07333;"07° 13' 30.00'' Est, 44° 04' 24.00'' Nord";"06153";"L'ADRECHAS LA COLMIANE";"RÉSERVOIR DE LA COLMIANE";"06420";"VALDEBLORE";"Pylône autostable"; 24.0;"ORANGE"
72285;7.04944;44.09222;"07° 02' 58.00'' Est, 44° 05' 32.00'' Nord";"06110";;"PL ADOLPHE RAMIN MUR DE SOUTÈNEMENT SOUS LA PLACE";"06420";"ROUBION";"Ouvrage d'art (pont, viaduc)"; 10.0;"Commune, communauté de commune"
72307;7.58083;44.10278;"07° 34' 51.00'' Est, 44° 06' 10.00'' Nord";"06163";;"RN 204 - TERRAIN COMMUNAL";"06430";"TENDE";"Mât béton"; 12.0;"ORANGE Services Fixes"
72319;7.23472;43.68417;"07° 14' 05.00'' Est, 43° 41' 03.00'' Nord";"06088";;"233 PROMENADE DES ANGLAIS";"06000";"NICE";"Immeuble"; 35.0;"Société Privée SA"
72379;7.01000;43.55944;"07° 00' 36.00'' Est, 43° 33' 34.00'' Nord";"06029";"LE MONTEBELLO";"75, AV. DE LATTRE DE TASSIGNY";"06150";"CANNES";"Immeuble"; 16.0;"Copropriété, Syndic, SCI"
94950;7.09056;44.09056;"07° 05' 26.00'' Est, 44° 05' 26.00'' Nord";"06111";"VILLAGE";;"06420";"ROURE";"Pylône autostable"; 27.0;
95733;6.94556;43.79528;"06° 56' 44.00'' Est, 43° 47' 43.00'' Nord";"06070";;"CHEM NOTRE DAME AUTOCOMMUTATEUR";"06620";"GREOLIERES";"Pylône tubulaire"; 9.0;"ORANGE Services Fixes"
95801;6.92889;43.48444;"06° 55' 44.00'' Est, 43° 29' 04.00'' Nord";"06138";"MIRAMAR";"AV FRÉDERIC MISTRAL";"06590";"THEOULE-SUR-MER";"Pylône autostable"; 12.0;"ORANGE Services Fixes"
95846;7.37306;43.78667;"07° 22' 23.00'' Est, 43° 47' 12.00'' Nord";"06092";"LES NOVAINES";;"06440";"PEILLON";"Pylône autostable"; 9.0;"ORANGE Services Fixes"
95885;7.14278;43.86444;"07° 08' 34.00'' Est, 43° 51' 52.00'' Nord";"06145";"MONT-LION";;"06830";"TOURETTE-DU-CHATEAU";"Pylône autostable"; 15.0;"ORANGE Services Fixes"
95919;7.12306;43.82556;"07° 07' 23.00'' Est, 43° 49' 32.00'' Nord";"06022";"LE SEUILLET";"CD 8";"06510";"BOUYON";"Bâtiment"; 7.0;"ORANGE Services Fixes"
95926;7.04917;43.84194;"07° 02' 57.00'' Est, 43° 50' 31.00'' Nord";"06047";"LE BRUSQUET";"STADE MUNICIPAL CD 1";"06510";"CONSEGUDES";"Mât"; 8.0;"ORANGE Services Fixes"
95939;7.28722;43.94778;"07° 17' 14.00'' Est, 43° 56' 52.00'' Nord";"06074";"MERLOU";"CD 2565 PK 15";"06450";"LANTOSQUE";"Pylône tubulaire"; 6.0;"ORANGE Services Fixes"
95944;7.24833;43.91639;"07° 14' 54.00'' Est, 43° 54' 59.00'' Nord";"06151";"R RENÉ MILLO";"POINT HAUT A COTE DU CIMETIERE";"06450";"UTELLE";"Pylône tubulaire"; 6.0;"ORANGE Services Fixes"
95953;6.74944;44.18833;"06° 44' 58.00'' Est, 44° 11' 18.00'' Nord";"06056";;"PL CESAR PAYAN";"06470";"ENTRAUNES";"Bâtiment"; 10.0;"Commune, communauté de commune"
97811;7.15500;43.88194;"07° 09' 18.00'' Est, 43° 52' 55.00'' Nord";"06100";;"BD GASPARD VIVALDI AUTOCOMMUTATEUR";"06830";"REVEST-LES-ROCHES";"Mât béton"; 5.0;"ORANGE Services Fixes"
97844;7.19250;43.82139;"07° 11' 33.00'' Est, 43° 49' 17.00'' Nord";"06126";"L'UBAC";;"06670";"SAINT-MARTIN-DU-VAR";"Bâtiment"; 5.0;"ORANGE Services Fixes"
97948;7.33000;43.98917;"07° 19' 48.00'' Est, 43° 59' 21.00'' Nord";"06020";"VILLAGE";"D 70 - VILLAGE";"06450";"LA BOLLENE-VESUBIE";"Mât métallique"; 3.0;"ORANGE Services Fixes"
98037;6.76333;44.14111;"06° 45' 48.00'' Est, 44° 08' 28.00'' Nord";"06125";;"COLONIE LES MOUETTES";"06470";"SAINT-MARTIN-D'ENTRAUNES";"Mât béton"; 6.0;"ORANGE Services Fixes"
98820;6.80944;43.88222;"06° 48' 34.00'' Est, 43° 52' 56.00'' Nord";"06002";"ST JEANNET";"CARREFOUR D 2211A ET D 83";"06910";"AMIRAT";"Pylône autostable"; 12.0;"ORANGE Services Fixes"
100144;7.31972;44.01722;"07° 19' 11.00'' Est, 44° 01' 02.00'' Nord";"06013";;"VILLAGE CD 71 QUARTIER ST ANTOINE";"06450";"BELVEDERE";"Pylône autostable"; 9.0;"ORANGE Services Fixes"
100154;7.30944;44.01833;"07° 18' 34.00'' Est, 44° 01' 06.00'' Nord";"06103";;"PONT DE RUINAS CD 69 AUTOCOMMUTATEUR";"06450";"ROQUEBILLIERE";"Bâtiment"; 6.0;"ORANGE Services Fixes"
100162;7.25361;44.07139;"07° 15' 13.00'' Est, 44° 04' 17.00'' Nord";"06127";;"ALL L.FULCONIS AUTOCOMMUTATEUR";"06450";"SAINT-MARTIN-VESUBIE";"Mât"; 5.0;"ORANGE Services Fixes"
100217;7.14694;43.99500;"07° 08' 49.00'' Est, 43° 59' 42.00'' Nord";"06042";;"AV.ALVAREZ CORMEVOIS";"06420";"CLANS";"Intérieur sous-terrain"; 2.0;"ORANGE Services Fixes"
100235;7.04472;43.52417;"07° 02' 41.00'' Est, 43° 31' 27.00'' Nord";"06029";"FORT STE MARGUERITE";;"06150";"CANNES";"Mât"; 4.0;
100295;7.02972;43.97889;"07° 01' 47.00'' Est, 43° 58' 44.00'' Nord";"06139";"LA MADONE";;"06710";"THIERY";"Mât métallique"; 3.0;"ORANGE Services Fixes"
100308;6.90667;44.11583;"06° 54' 24.00'' Est, 44° 06' 57.00'' Nord";"06094";"MAIRIE";;"06470";"PEONE";"Bâtiment"; 15.0;"Commune, communauté de commune"
100314;6.95250;44.11528;"06° 57' 09.00'' Est, 44° 06' 55.00'' Nord";"06094";"TETE DE CHARNAJA";"RTE DU COL DE L ESPAUL A VALBERG";"06470";"PEONE";"Pylône autostable"; 8.0;"ORANGE Services Fixes"
101617;7.45083;43.79333;"07° 27' 03.00'' Est, 43° 47' 36.00'' Nord";"06067";"ST LAZARE SUPERIEUR";"CD 22";"06500";"GORBIO";"Pylône autostable"; 8.0;"ORANGE Services Fixes"
101630;7.39361;43.80333;"07° 23' 37.00'' Est, 43° 48' 12.00'' Nord";"06091";"COLLETTA SOUBRAN";"RTE COL DES BANQUETTES";"06440";"PEILLE";"Pylône tubulaire"; 9.0;"ORANGE Services Fixes"
102751;6.95500;43.83528;"06° 57' 18.00'' Est, 43° 50' 07.00'' Nord";"06001";;"CHATEAU D'EAU DE GREOLIERES-LES-NEIGES RESERVOIR";"06910";"AIGLUN";"Pylône autostable"; 12.0;"ORANGE Services Fixes"
104203;6.93917;43.86222;"06° 56' 21.00'' Est, 43° 51' 44.00'' Nord";"06001";"VASCOGNES";"CD 10";"06910";"AIGLUN";"Pylône autostable"; 6.0;"ORANGE Services Fixes"
105357;7.12750;44.06056;"07° 07' 39.00'' Est, 44° 03' 38.00'' Nord";"06102";;"FORT LA MADELEINE";"06420";"RIMPLAS";"Bâtiment"; 5.0;"Commune, communauté de commune"
105369;6.99972;43.94639;"06° 59' 59.00'' Est, 43° 56' 47.00'' Nord";"06143";"RN 202";"AV DU GÉNÉRAL DE GAULLE AUTOCOMMUTATEUR";"06710";"TOUET-SUR-VAR";"Bâtiment"; 4.0;"ORANGE Services Fixes"
107040;7.22889;43.85972;"07° 13' 44.00'' Est, 43° 51' 35.00'' Nord";"06075";"ST ROCH";"R ROBERT PREAU";"06670";"LEVENS";"Bâtiment"; 7.0;"ORANGE Services Fixes"
108747;6.75861;43.86639;"06° 45' 31.00'' Est, 43° 51' 59.00'' Nord";"06024";"VILLAGE";"CHEM DE BRIANCONNET A GARS";"06850";"BRIANCONNET";"Bâtiment"; 5.0;"ORANGE Services Fixes"
108749;6.72778;43.84583;"06° 43' 40.00'' Est, 43° 50' 45.00'' Nord";"06116";"LA BASTIDE";"RUE DES HÔTELS";"06850";"SAINT-AUBAN";"Bâtiment"; 5.0;"ORANGE Services Fixes"
119037;7.44222;43.83750;"07° 26' 32.00'' Est, 43° 50' 15.00'' Nord";"06091";;"COL DE SEGRA";"06440";"PEILLE";"Pylône autostable"; 20.0;"SFR"
127523;7.11889;43.70056;"07° 07' 08.00'' Est, 43° 42' 02.00'' Nord";"06128";"AU PASSE PREST";;"06570";"SAINT-PAUL";"Bâtiment"; 8.0;"Association"
136414;7.50750;43.78694;"07° 30' 27.00'' Est, 43° 47' 13.00'' Nord";"06083";;"638 CH DE LA COLLE SUPÉRIEURE";"06500";"MENTON";"Pylône autostable"; 9.0;"ORANGE"
148555;6.93750;43.52944;"06° 56' 15.00'' Est, 43° 31' 46.00'' Nord";"06138";;"BASSIN COTE 206 THEOULE SUPERI";"06590";"THEOULE-SUR-MER";"Support non décrit"; 15.0;
148565;7.28500;43.70556;"07° 17' 06.00'' Est, 43° 42' 20.00'' Nord";"06088";;"15 BD DELFINO";"06000";"NICE";"Bâtiment"; 25.0;"Copropriété, Syndic, SCI"
148583;6.88056;44.30694;"06° 52' 50.00'' Est, 44° 18' 25.00'' Nord";"06119";;"TETE DE VINAIGRE";"06660";"SAINT-DALMAS-LE-SELVAGE";"Support non décrit"; 5.0;
148589;7.41861;44.04444;"07° 25' 07.00'' Est, 44° 02' 40.00'' Nord";"06013";;"CAPELET SUPERIEUR";"06450";"BELVEDERE";"Support non décrit"; 5.0;
148593;7.12194;43.69778;"07° 07' 19.00'' Est, 43° 41' 52.00'' Nord";"06128";;"PL DE LA MAIRIE";"06570";"SAINT-PAUL";"Monument religieux"; 15.0;"Commune, communauté de commune"
148607;7.12556;43.64333;"07° 07' 32.00'' Est, 43° 38' 36.00'' Nord";"06161";"FLORY";"RESIDENCE RIVIERA CHATEAU D'EAU BEL AIR";"06270";"VILLENEUVE-LOUBET";"Château d'eau - réservoir"; 20.0;"Commune, communauté de commune"
148669;6.96639;43.57361;"06° 57' 59.00'' Est, 43° 34' 25.00'' Nord";"06029";;"GROUPE SCOLAIRE RANGUIN";"06150";"CANNES";"Support non décrit"; 15.0;
148683;7.01806;43.55083;"07° 01' 05.00'' Est, 43° 33' 03.00'' Nord";"06029";;"ESPLANADE GEORGES POMPIDOU PALAIS DES FESTIVALS";"06150";"CANNES";"Bâtiment"; 30.0;"Commune, communauté de commune"
148709;7.60722;44.03889;"07° 36' 26.00'' Est, 44° 02' 20.00'' Nord";"06162";;"CIME DE DURASCA";"06430";"LA BRIGUE";"Support non décrit"; 10.0;
148717;6.73500;44.14944;"06° 44' 06.00'' Est, 44° 08' 58.00'' Nord";"06125";;"VAL PELENS";"06470";"SAINT-MARTIN-D'ENTRAUNES";"Support non décrit"; 10.0;
148861;7.18583;43.67194;"07° 11' 09.00'' Est, 43° 40' 19.00'' Nord";"06123";;"ALLÉE DES CIGALES LE CALAO";"06700";"SAINT-LAURENT-DU-VAR";"Bâtiment"; 10.0;"Copropriété, Syndic, SCI"
148935;7.11694;43.57556;"07° 07' 01.00'' Est, 43° 34' 32.00'' Nord";"06004";;"64 BD WILSON";"06160";"ANTIBES";"Bâtiment"; 30.0;"Copropriété, Syndic, SCI"
161375;7.00778;43.87500;"07° 00' 28.00'' Est, 43° 52' 30.00'' Nord";"06106";"ONF SAPEURS FORESTIERS";"RTE DE GUEBRIS ONF SAPEURS FORESTIERS";"06910";"ROQUESTERON";"Support non décrit";;
161377;6.72417;43.84972;"06° 43' 27.00'' Est, 43° 50' 59.00'' Nord";"06116";"ONF SAPEURS FORESTIERS";"LE COLLET DU MOULIN ONF SAPEURS FORESTIERS";"06850";"SAINT-AUBAN";"Support non décrit"; 10.0;
161379;7.31278;43.97389;"07° 18' 46.00'' Est, 43° 58' 26.00'' Nord";"06074";"ONF SAPEURS FORESTIERS";"RTE DE PELLASQUE ONF SAPEURS FORESTIERS";"06450";"LANTOSQUE";"Support non décrit"; 10.0;
161381;7.09694;43.93722;"07° 05' 49.00'' Est, 43° 56' 14.00'' Nord";"06158";;"ONF SAPEURS FORESTIERS";"06710";"VILLARS-SUR-VAR";"Support non décrit"; 10.0;
161383;6.85306;44.08917;"06° 51' 11.00'' Est, 44° 05' 21.00'' Nord";"06071";"ONF SAPEURS FORESTIERS";"R DES PLANS ONF SAPEURS FORESTIERS";"06470";"GUILLAUMES";"Support non décrit"; 10.0;
161385;7.22833;43.85889;"07° 13' 42.00'' Est, 43° 51' 32.00'' Nord";"06075";"ONF SAPEURS FORESTIERS";"RTE DE LA MOLLE FANGA ONF SAPEURS FORESTIERS";"06670";"LEVENS";"Support non décrit"; 10.0;
161388;7.38306;43.79389;"07° 22' 59.00'' Est, 43° 47' 38.00'' Nord";"06091";;"ONF SAPEURS FORESTIERS";"06440";"PEILLE";"Support non décrit"; 10.0;
161390;7.45417;43.87861;"07° 27' 15.00'' Est, 43° 52' 43.00'' Nord";"06136";;"AV DE LA 1 DFL ONF SAPEURS FORESTIERS";"06380";"SOSPEL";"Support non décrit"; 10.0;
161392;7.59639;44.08917;"07° 35' 47.00'' Est, 44° 05' 21.00'' Nord";"06163";;"ONF SAPEURS FORESTIERS";"06430";"TENDE";"Support non décrit"; 10.0;
161394;7.51639;43.93806;"07° 30' 59.00'' Est, 43° 56' 17.00'' Nord";"06023";;"ONF SAPEURS FORESTIERS";"06540";"BREIL-SUR-ROYA";"Support non décrit"; 10.0;
161404;6.73500;44.14972;"06° 44' 06.00'' Est, 44° 08' 59.00'' Nord";"06125";;"VAL PELENS";"06470";"SAINT-MARTIN-D'ENTRAUNES";"Support non décrit"; 10.0;
161838;7.25667;44.07028;"07° 15' 24.00'' Est, 44° 04' 13.00'' Nord";"06127";"LES IRIS";"R KELLERMAN SERRURIER LES IRIS";"06450";"SAINT-MARTIN-VESUBIE";"Support non décrit"; 8.0;
161844;6.74889;44.18778;"06° 44' 56.00'' Est, 44° 11' 16.00'' Nord";"06056";"VALBERG";"MAISON VALBERGANE VALBERG";"06470";"ENTRAUNES";"Support non décrit"; 8.0;
167842;6.94556;43.52417;"06° 56' 44.00'' Est, 43° 31' 27.00'' Nord";"06079";"LA NAPOULE";"CAPITAINERIE DU PORT";"06210";"MANDELIEU-LA-NAPOULE";"Bâtiment"; 10.0;"Commune, communauté de commune"
169062;7.01250;43.55139;"07° 00' 45.00'' Est, 43° 33' 05.00'' Nord";"06029";;"1 R FELIX FAURE HOTEL DE VILLE POLICE MUNICIPALE";"06150";"CANNES";"Bâtiment"; 15.0;"Commune, communauté de commune"
175528;7.52111;44.07167;"07° 31' 16.00'' Est, 44° 04' 18.00'' Nord";"06163";"LES MESCHES";"CATEX DES MESCHES RD 91";"06430";"TENDE";"Bâtiment"; 10.0;"Commune, communauté de commune"
208200;7.27667;43.70917;"07° 16' 36.00'' Est, 43° 42' 33.00'' Nord";"06088";;"RST ROYA SOUTERRAIN PK 001.800";"06000";"NICE";"Mât"; 6.0;"SNCF Réseau"
208202;7.28472;43.72806;"07° 17' 05.00'' Est, 43° 43' 41.00'' Nord";"06088";;"RST SOUTERRAIN DE BON VOYAGE PK 004.295";"06000";"NICE";"Mât"; 8.0;"SNCF Réseau"
208204;6.93194;43.48694;"06° 55' 55.00'' Est, 43° 29' 13.00'' Nord";"06138";;"RST SOUTERRAIN DES SAOUMES PK 181.380";"06590";"THEOULE-SUR-MER";"Mât"; 7.0;"SNCF Réseau"
208206;6.97694;43.54722;"06° 58' 37.00'' Est, 43° 32' 50.00'' Nord";"06029";;"RST BOCCA FLOOD PK 189.635";"06150";"CANNES";"Mât"; 40.0;"SNCF Réseau"
208208;7.02194;43.55361;"07° 01' 19.00'' Est, 43° 33' 13.00'' Nord";"06029";;"RST CANNES BV PK 193.454";"06150";"CANNES";"Tunnel"; 6.0;"SNCF Réseau"
208210;7.03639;43.54361;"07° 02' 11.00'' Est, 43° 32' 37.00'' Nord";"06029";;"RST LA CROISETTE EX PN51 PK 195.170";"06150";"CANNES";"Mât"; 15.0;"SNCF Réseau"
208212;7.11111;43.57056;"07° 06' 40.00'' Est, 43° 34' 14.00'' Nord";"06004";;"RST JUAN LES PINS PK 202.355";"06160";"ANTIBES";"Mât"; 22.0;"SNCF Réseau"
208214;7.16861;43.66056;"07° 10' 07.00'' Est, 43° 39' 38.00'' Nord";"06027";;"RST CROS DE CAGNES PK 214.360";"06800";"CAGNES-SUR-MER";"Mât"; 15.0;"SNCF Réseau"
208220;7.26056;43.70389;"07° 15' 38.00'' Est, 43° 42' 14.00'' Nord";"06088";;"RST NICE PRS PK 224.150";"06000";"NICE";"Mât"; 10.0;"SNCF Réseau"
208224;7.31278;43.70667;"07° 18' 46.00'' Est, 43° 42' 24.00'' Nord";"06159";;"RST SOUTERRAIN DE VILLEVRANCHE PK 228.726";"06230";"VILLEFRANCHE-SUR-MER";"Tunnel"; 6.0;"SNCF Réseau"
208226;7.34417;43.71389;"07° 20' 39.00'' Est, 43° 42' 50.00'' Nord";"06159";;"RST SOUTERRAIN CAP ROUX PK 232.233";"06230";"VILLEFRANCHE-SUR-MER";"Mât"; 5.0;"SNCF Réseau"
208228;7.38028;43.72194;"07° 22' 49.00'' Est, 43° 43' 19.00'' Nord";"06059";;"RST SOUTERRAIN DE PIASTRE PK 235.689";"06360";"EZE";"Mât"; 10.0;"SNCF Réseau"
208230;7.39361;43.72000;"07° 23' 37.00'' Est, 43° 43' 12.00'' Nord";"06032";;"RST CAP D'AIL BV PK 236.928";"06320";"CAP-D'AIL";"Tunnel"; 6.0;"SNCF Réseau"
208232;7.41167;43.72917;"07° 24' 42.00'' Est, 43° 43' 45.00'' Nord";"06032";;"RST GALERIE DE LA DOUANE PK 238.828";"06320";"CAP-D'AIL";"Mât"; 6.0;"SNCF Réseau"
208234;7.41889;43.73528;"07° 25' 08.00'' Est, 43° 44' 07.00'' Nord";"06012";;"RST SOUTERRAIN STE DEVOTE PK 239.870";"06240";"BEAUSOLEIL";"Tunnel"; 6.0;"SNCF Réseau"
208236;7.44778;43.75417;"07° 26' 52.00'' Est, 43° 45' 15.00'' Nord";"06104";;"RST SOUTERRAIN MONTECARLO PK 243.432";"06190";"ROQUEBRUNE-CAP-MARTIN";"Mât"; 15.0;"SNCF Réseau"
208238;7.47750;43.75778;"07° 28' 39.00'' Est, 43° 45' 28.00'' Nord";"06104";;"RST SOUTERRAIN CAP MARTIN PK 246.336";"06190";"ROQUEBRUNE-CAP-MARTIN";"Tunnel"; 6.0;"SNCF Réseau"
208240;7.50889;43.78139;"07° 30' 32.00'' Est, 43° 46' 53.00'' Nord";"06083";;"RST SOUTERRAIN DE MENTON PK 250.152";"06500";"MENTON";"Mât"; 10.0;"SNCF Réseau"
223391;6.79389;43.67944;"06° 47' 38.00'' Est, 43° 40' 46.00'' Nord";"06118";;"ANCIENNE RTE DE ST VALLIER";"06530";"SAINT-CEZAIRE-SUR-SIAGNE";"Mât métallique"; 5.0;"ORANGE"
224332;7.25528;43.77111;"07° 15' 19.00'' Est, 43° 46' 16.00'' Nord";"06006";"MONT CHAUVE";;"06790";"ASPREMONT";"Pylône autostable"; 10.0;"ORANGE Services Fixes"
239369;7.20278;43.66639;"07° 12' 10.00'' Est, 43° 39' 59.00'' Nord";"06088";;"BD  GEORGES POMPIDOU MIN";"06000";"NICE";"Immeuble"; 25.0;"Commune, communauté de commune"
241442;7.16611;43.66278;"07° 09' 58.00'' Est, 43° 39' 46.00'' Nord";"06027";;"20 AV DES BRÉGUIÈRES";"06800";"CAGNES-SUR-MER";"Immeuble"; 15.0;"Copropriété, Syndic, SCI"
244402;7.07500;43.61528;"07° 04' 30.00'' Est, 43° 36' 55.00'' Nord";"06018";;"950 RTE DES COLLES";"06410";"BIOT";"Immeuble"; 18.0;"Société Privée SA"
246946;7.26667;43.70389;"07° 15' 60.00'' Est, 43° 42' 14.00'' Nord";"06088";;"28 AV NOTRE-DAME HÔTEL MERCURE";"06000";"NICE";"Immeuble"; 33.6;"Commune, communauté de commune"
246950;7.24056;43.68944;"07° 14' 26.00'' Est, 43° 41' 22.00'' Nord";"06088";;"56, AV DE LA CALIFORNIE  HÔTEL MERCURE";"06000";"NICE";"Immeuble"; 35.0;"Particulier"
256708;6.99806;43.66417;"06° 59' 53.00'' Est, 43° 39' 51.00'' Nord";"06089";;"22 CHEM DU MOULIN QUARTIER DE LA CARRIÈRE";"06650";"OPIO";"Mât"; 10.0;"SFR"
258558;7.01889;43.55306;"07° 01' 08.00'' Est, 43° 33' 11.00'' Nord";"06029";;"6, R MARÉCHAL FOCH GALERIE LAFAYETTE";"06150";"CANNES";"Bâtiment"; 12.0;"Société Privée SA"
259301;7.20333;43.68389;"07° 12' 12.00'' Est, 43° 41' 02.00'' Nord";"06088";;"227 AV STE MARGUERITE SWITCH COMPLETEL";"06000";"NICE";"Bâtiment"; 13.0;"Copropriété, Syndic, SCI"
259425;6.91722;43.64917;"06° 55' 02.00'' Est, 43° 38' 57.00'' Nord";"06069";;"78 BD VICTOR HUGO HOP";"06130";"GRASSE";"Mât béton"; 7.0;"Etablissement de soins"
260118;7.25444;43.69611;"07° 15' 16.00'' Est, 43° 41' 46.00'' Nord";"06088";;"8 R JOSEPH FRICERO";"06000";"NICE";"Immeuble"; 29.1;"Copropriété, Syndic, SCI"
265767;7.01028;43.55167;"07° 00' 37.00'' Est, 43° 33' 06.00'' Nord";"06029";;"6-8 R SUQUET";"06150";"CANNES";"Immeuble"; 10.0;"Particulier"
266620;7.28639;43.72444;"07° 17' 11.00'' Est, 43° 43' 28.00'' Nord";"06088";;"AV JOSEPH RAYBAUD BÂTIMENT LE MASSENA";"06000";"NICE";"Immeuble"; 29.0;"Société HLM"
270109;7.12083;43.61472;"07° 07' 15.00'' Est, 43° 36' 53.00'' Nord";"06004";;"306 AV DE MOZART";"06160";"ANTIBES";"Pylône autostable"; 18.0;"ORANGE"
272534;7.01583;43.55111;"07° 00' 57.00'' Est, 43° 33' 04.00'' Nord";"06029";;"PROMENADE DE LA PANTIERO GARE MARITIME DE CANNES";"06150";"CANNES";"Bâtiment"; 8.2;"CCI,Ch Metiers,Port Aut,Aérop"
278519;7.26806;43.70111;"07° 16' 05.00'' Est, 43° 42' 04.00'' Nord";"06088";;"30 AV JEAN MEDECIN CCAL";"06000";"NICE";"Local technique"; 4.0;"SFR"
278611;7.23556;43.73944;"07° 14' 08.00'' Est, 43° 44' 22.00'' Nord";"06088";"ST PANCRACE";"MONTÉE DES CIGALES";"06000";"NICE";"Bâtiment"; 10.0;"ORANGE Services Fixes"
279199;7.01389;43.55750;"07° 00' 50.00'' Est, 43° 33' 27.00'' Nord";"06029";;"27 AV ST JEAN";"06150";"CANNES";"Immeuble"; 26.0;"Copropriété, Syndic, SCI"
286503;7.35667;43.83389;"07° 21' 24.00'' Est, 43° 50' 02.00'' Nord";"06057";;"BD DR ROUX AUTOCOMMUTATEUR";"06440";"L'ESCARENE";"Bâtiment"; 5.0;"ORANGE Services Fixes"
287369;7.28917;43.72194;"07° 17' 21.00'' Est, 43° 43' 19.00'' Nord";"06088";;"151 B , RTE DE TURIN LE MERCANTOUR - BÂT 21";"06000";"NICE";"Immeuble"; 54.9;"Société HLM"
292735;7.27694;43.69861;"07° 16' 37.00'' Est, 43° 41' 55.00'' Nord";"06088";;"TUNNEL DU PAILLON";"06000";"NICE";"Tunnel"; 7.0;"Etat, Ministère"
293852;7.11111;43.72250;"07° 06' 40.00'' Est, 43° 43' 21.00'' Nord";"06157";;"6 R DE LA RESISTANCE";"06140";"VENCE";"Immeuble"; 9.0;"Société Privée SA"
295242;7.15722;43.85944;"07° 09' 26.00'' Est, 43° 51' 34.00'' Nord";"06066";"LE VILLARS";"PRÈS D17 LE DOUX";"06830";"GILETTE";"Dalle en béton"; 12.0;"ORANGE"
298115;7.25500;43.69500;"07° 15' 18.00'' Est, 43° 41' 42.00'' Nord";"06088";;"70 R DE FRANCE";"06000";"NICE";"Bâtiment"; 16.0;"Copropriété, Syndic, SCI"
298298;7.28306;43.70167;"07° 16' 59.00'' Est, 43° 42' 06.00'' Nord";"06088";;"11, R PAPON";"06000";"NICE";"Immeuble"; 28.0;"Copropriété, Syndic, SCI"
299463;7.18889;43.72833;"07° 11' 20.00'' Est, 43° 43' 42.00'' Nord";"06088";;"RTE DE GRENOBLE CCAL LINGOSTIÈRE";"06000";"NICE";"Bâtiment"; 18.0;"Copropriété, Syndic, SCI"
301294;7.33500;43.78278;"07° 20' 06.00'' Est, 43° 46' 58.00'' Nord";"06048";;"CHEMIN DE LA ROSEYRE";"06390";"CONTES";"Bâtiment"; 8.0;"EDF ou GDF"
301296;7.10167;43.58444;"07° 06' 06.00'' Est, 43° 35' 04.00'' Nord";"06004";;"CHEM DU CHÂTAIGNER FONT-MERLE";"06160";"ANTIBES";"Bâtiment"; 5.0;"EDF ou GDF"
301298;7.18806;43.71889;"07° 11' 17.00'' Est, 43° 43' 08.00'' Nord";"06088";;"RTE LINGOSTIERE ROUTE DE DIGNE";"06000";"NICE";"Bâtiment"; 30.0;"EDF ou GDF"
301308;7.43639;43.75111;"07° 26' 11.00'' Est, 43° 45' 04.00'' Nord";"06012";;"2 AV ST ROMAN SITE IMPRIMERIE";"06240";"BEAUSOLEIL";"Bâtiment"; 12.0;"Société Privée SA"
301346;7.19556;43.85361;"07° 11' 44.00'' Est, 43° 51' 13.00'' Nord";"06021";;"PLAN DU VAR POSTE 63 KV";"06830";"BONSON";"Bâtiment"; 6.0;"EDF ou GDF"
304900;7.01778;43.54500;"07° 01' 04.00'' Est, 43° 32' 42.00'' Nord";"06029";;"VIEUX  PHARE DU PORT DE CANNES PROLONGEMENT DE LA JETÉE OUEST";"06150";"CANNES";"Phare"; 13.0;"SFR"
310457;7.14694;43.65444;"07° 08' 49.00'' Est, 43° 39' 16.00'' Nord";"06027";"LA GRANDE BASTIDE";"CHEM DE LA MINOTERIE ET AV DE CANNES  N7  COPROPRIETE LA GRANDE BASTIDE";"06800";"CAGNES-SUR-MER";"Immeuble"; 19.0;
314600;7.23472;43.88333;"07° 14' 05.00'' Est, 43° 52' 60.00'' Nord";"06151";"LE CROS D'UTELLE";"SERRE DE LA TRINITÉ";"06450";"UTELLE";"Mât béton"; 6.0;"ORANGE Services Fixes"
314611;7.25528;43.86917;"07° 15' 19.00'' Est, 43° 52' 09.00'' Nord";"06075";"LE CASTELLAR";;"06670";"LEVENS";"Pylône autostable"; 10.0;"ORANGE Services Fixes"
317970;7.26194;43.71889;"07° 15' 43.00'' Est, 43° 43' 08.00'' Nord";"06088";;"76 AV BORRIGLIONE";"06000";"NICE";"Bâtiment"; 29.5;"Copropriété, Syndic, SCI"
320477;6.91778;43.94667;"06° 55' 04.00'' Est, 43° 56' 48.00'' Nord";"06099";"LA RIBA DI GIARRI";"RD 2211A COL ST RAPHAEL";"06260";"PUGET-THENIERS";"Bâtiment"; 3.0;"TDF"
320481;7.23944;43.82167;"07° 14' 22.00'' Est, 43° 49' 18.00'' Nord";"06117";"EGLISE DE ST BLAISE";"AUTOCOMMUTATEUR";"06670";"SAINT-BLAISE";"Monument religieux"; 16.0;"Commune, communauté de commune"
321067;6.96611;43.56278;"06° 57' 58.00'' Est, 43° 33' 46.00'' Nord";"06030";;"18 BD  JEAN MOULIN CAMPING LES PALMIERS";"06110";"LE CANNET";"Pylône autostable"; 20.0;"ORANGE"
323996;6.93028;43.71583;"06° 55' 49.00'' Est, 43° 42' 57.00'' Nord";"06068";"HAUT MONTET";"RADAR";"06620";"GOURDON";"Bâtiment"; 23.0;"Aviation Civile"
326087;6.87833;43.64361;"06° 52' 42.00'' Est, 43° 38' 37.00'' Nord";"06095";;"5 BD JEAN GIRAUD 5 BD JEAN GIRAUD";"06530";"PEYMEINADE";"Immeuble"; 19.0;"Société HLM"
330449;7.13778;44.00250;"07° 08' 16.00'' Est, 44° 00' 09.00'' Nord";"06042";;"BANCAIRON";"06420";"CLANS";"Bâtiment"; 12.0;"EDF ou GDF"
330537;7.50667;43.78250;"07° 30' 24.00'' Est, 43° 46' 57.00'' Nord";"06083";;"CHEM DE LA COLLE";"06500";"MENTON";"Mât"; 4.0;"ORANGE"
330931;7.19444;43.72306;"07° 11' 40.00'' Est, 43° 43' 23.00'' Nord";"06088";;"95 CHEM DE SAQUIER";"06000";"NICE";"Pylône autostable"; 8.0;"ORANGE"
333550;7.03333;43.55528;"07° 01' 60.00'' Est, 43° 33' 19.00'' Nord";"06029";;"25 AV BEAUSÉJOUR HÔTEL NOVOTEL";"06150";"CANNES";"Immeuble"; 27.0;"Société Privée SA"
333921;7.27417;43.72889;"07° 16' 27.00'' Est, 43° 43' 44.00'' Nord";"06088";"CAP DE CROIX";"17 AV. SCUDÉRI";"06000";"NICE";"Immeuble"; 23.0;"Copropriété, Syndic, SCI"
338309;7.17889;43.68139;"07° 10' 44.00'' Est, 43° 40' 53.00'' Nord";"06123";;"CORNICHE D AGRIMONT";"06700";"SAINT-LAURENT-DU-VAR";"Mât"; 5.0;"Société Privée SA"
341205;6.93111;44.09528;"06° 55' 52.00'' Est, 44° 05' 43.00'' Nord";"06094";;"LES MYRTILLES VALBERG";"06470";"PEONE";"Bâtiment"; 20.0;
343433;7.52583;43.78917;"07° 31' 33.00'' Est, 43° 47' 21.00'' Nord";"06083";"GARAVAN";"RTE DE SUPER GARAVAN TUNNEL DE LA LGIRAUDE";"06500";"MENTON";"Mât"; 4.0;"ORANGE"
344588;7.26667;43.72639;"07° 15' 60.00'' Est, 43° 43' 35.00'' Nord";"06088";;"5 B  AV JEAN DE LA FONTAINE RÉSIDENCE LA TERRASSE";"06000";"NICE";"Immeuble"; 14.9;"Copropriété, Syndic, SCI"
344703;7.00139;43.57111;"07° 00' 05.00'' Est, 43° 34' 16.00'' Nord";"06030";;"51 AV FRANKLIN ROOSEVELT";"06110";"LE CANNET";"Immeuble"; 24.0;"Copropriété, Syndic, SCI"
347478;7.04111;43.79556;"07° 02' 28.00'' Est, 43° 47' 44.00'' Nord";"06050";"ST ELOI";"LE VILLAGE";"06140";"COURSEGOULES";"Pylône autostable"; 6.0;"ORANGE Services Fixes"
348977;7.37972;43.74611;"07° 22' 47.00'' Est, 43° 44' 46.00'' Nord";"06149";"ST PIERRE DE L'ESPERAYE";"ENTRÉE TUNNEL DE MONACOA8 PK1.2SORTIE ESCOTA AVANT TUNNEL";"06340";"LA TRINITE";"Mât"; 6.0;"Sociétés d'Autoroutes"
355266;7.02611;43.55333;"07° 01' 34.00'' Est, 43° 33' 12.00'' Nord";"06029";"RÉSIDENCE 16 RÉPUBLIQUE";"R DES MIMOSAS RÉS 16 RÉPUBLIQUE";"06150";"CANNES";"Bâtiment"; 24.0;"Titulaire programme Radio/TV"
365866;7.25389;43.73000;"07° 15' 14.00'' Est, 43° 43' 48.00'' Nord";"06088";;"29, BLD COMTE DE FALICON";"06000";"NICE";"Bâtiment"; 8.0;"EDF ou GDF"
366817;7.46083;43.84472;"07° 27' 39.00'' Est, 43° 50' 41.00'' Nord";"06036";"BIATONÉA";;"06500";"CASTILLON";"Pylône autostable"; 14.0;"ORANGE"
368145;7.07556;44.20111;"07° 04' 32.00'' Est, 44° 12' 04.00'' Nord";"06073";"SOURCE CAPTÉE";"D97  USINE HYDROÉLECTRIQUE";"06420";"ISOLA";"Bâtiment"; 11.0;"Copropriété, Syndic, SCI"
368252;7.01028;43.58167;"07° 00' 37.00'' Est, 43° 34' 54.00'' Nord";"06030";"L'EUROPÉEN";"1390, AV DU CAMPON";"06110";"LE CANNET";"Bâtiment"; 15.0;"Société Privée SA"
371812;7.27861;43.70278;"07° 16' 43.00'' Est, 43° 42' 10.00'' Nord";"06088";;"1-3 BD CARABACEL";"06000";"NICE";"Bâtiment"; 30.0;"Copropriété, Syndic, SCI"
381309;7.21972;43.71694;"07° 13' 11.00'' Est, 43° 43' 01.00'' Nord";"06088";"LA MADELEINE SUPÉRIEURE";"336 CHEM DE BELLET PYLÔNE TDF";"06000";"NICE";"Bâtiment"; 5.0;"SFR"
381988;6.96444;43.83333;"06° 57' 52.00'' Est, 43° 50' 00.00'' Nord";"06070";"ROUTE PRINCIPALE";"GRÉPLIÈRES LES NEIGES  GREOLIERES";"06620";"GREOLIERES";"Pylône autostable"; 9.0;"ORANGE Services Fixes"
392176;7.23056;43.68139;"07° 13' 50.00'' Est, 43° 40' 53.00'' Nord";"06088";;"3, AV DE CARRAS IMM LE NEVADA";"06000";"NICE";"Immeuble"; 31.8;"Copropriété, Syndic, SCI"
397099;7.26056;43.69611;"07° 15' 38.00'' Est, 43° 41' 46.00'' Nord";"06088";"BUFFA";"11 R. MEYERBEER";"06000";"NICE";"Immeuble"; 29.0;"Copropriété, Syndic, SCI"
403649;7.01250;43.54750;"07° 00' 45.00'' Est, 43° 32' 51.00'' Nord";"06029";;"QUAI LAUBEUF";"06400";"CANNES";"Bâtiment"; 3.0;
411510;7.10417;43.57639;"07° 06' 15.00'' Est, 43° 34' 35.00'' Nord";"06004";;"7, AV DE LERINS VILLA CAMPOYETTE";"06160";"ANTIBES";"Bâtiment"; 8.5;"Particulier"
418677;7.25500;43.73083;"07° 15' 18.00'' Est, 43° 43' 51.00'' Nord";"06088";;"2 BD HENRI SAPPIA PARKING-RELAIS PARCAZUR";"06000";"NICE";"Bâtiment"; 20.0;"Société Privée SA"
421180;7.60361;44.05278;"07° 36' 13.00'' Est, 44° 03' 10.00'' Nord";"06162";"RIODORE";"CIME DE RIODORE";"06430";"LA BRIGUE";"Pylône autostable"; 12.0;"ORANGE Services Fixes"
421201;6.75139;44.23306;"06° 45' 05.00'' Est, 44° 13' 59.00'' Nord";"06056";"ESTENC";;"06470";"ENTRAUNES";"Pylône tubulaire"; 6.0;"ORANGE Services Fixes"
421578;7.11250;43.90139;"07° 06' 45.00'' Est, 43° 54' 05.00'' Nord";"06141";;"ALLÉE ST JEAN MAIRIE";"06830";"TOUDON";"Bâtiment"; 3.0;"Commune, communauté de commune"
428083;7.04472;43.55917;"07° 02' 41.00'' Est, 43° 33' 33.00'' Nord";"06029";"SUPER CANNES";"2,AV DES FLEURS SUPER CANNES";"06400";"CANNES";"Bâtiment"; 9.0;"Particulier"
430705;7.51194;43.94028;"07° 30' 43.00'' Est, 43° 56' 25.00'' Nord";"06023";;"142 ROUTE DE CIAUS";"06540";"BREIL-SUR-ROYA";"Mât"; 6.0;"Particulier"
430745;6.93778;43.54361;"06° 56' 16.00'' Est, 43° 32' 37.00'' Nord";"06079";;"432 AV DE CANNES CENTRE AUTOROUTIER ESCOTA";"06211";"MANDELIEU-LA-NAPOULE";"Bâtiment"; 20.0;"Sociétés d'Autoroutes"
431161;7.29250;43.69194;"07° 17' 33.00'' Est, 43° 41' 31.00'' Nord";"06088";"MAISON DU SÉMINAIRE";"29 BD FRANCK PILATTE";"06300";"NICE";"Monument religieux"; 20.0;"Commune, communauté de commune"
431163;7.26528;43.69944;"07° 15' 55.00'' Est, 43° 41' 58.00'' Nord";"06088";;"15 BD  VICTOR HUGO";"06000";"NICE";"Bâtiment"; 20.0;"Société Privée SA"
431362;7.17528;43.79361;"07° 10' 31.00'' Est, 43° 47' 37.00'' Nord";"06033";"SOMMET DU BROC";;"06510";"CARROS";"Pylône haubané"; 12.0;"Titulaire programme Radio/TV"
436075;7.04250;43.58444;"07° 02' 33.00'' Est, 43° 35' 04.00'' Nord";"06155";;"294 AV HENRI BARBUSSE RÉS LES IMPINIERS - BÂT. LES CHÊNES";"06220";"VALLAURIS";"Immeuble"; 18.0;"Particulier"
436466;7.26361;43.70944;"07° 15' 49.00'' Est, 43° 42' 34.00'' Nord";"06088";;"7/9/11 AV GÉNÉRAL HOCHE RÉSIDENCE OPAM VILLA THIOLE";"06000";"NICE";"Immeuble"; 33.0;"Copropriété, Syndic, SCI"
437913;7.01056;43.63417;"07° 00' 38.00'' Est, 43° 38' 03.00'' Nord";"06152";;"395 CHEM DE LA COLLE ET DU DEVINSON";"06560";"VALBONNE";"Pylône autostable"; 19.3;"TDF"
437997;7.15417;44.17333;"07° 09' 15.00'' Est, 44° 10' 24.00'' Nord";"06073";"TÊTE DE PELEVOS";"UBAC DE CHASTILLON";"06420";"ISOLA";"Pylône autostable"; 27.8;"TDF"
438693;7.13861;43.63556;"07° 08' 19.00'' Est, 43° 38' 08.00'' Nord";"06161";;"PORT MARINA BAIE DES ANGES CAPITAINERIE DU PORT";"06270";"VILLENEUVE-LOUBET";"Immeuble"; 15.0;"Société Privée SA"
439050;7.21028;43.78167;"07° 12' 37.00'' Est, 43° 46' 54.00'' Nord";"06033";"ZA DE LA GRAVE";"RTE DE LA ZONE ARTISANALE DE LA GRAVE ZONE INDUST. LOT 23";"06510";"CARROS";"Pylône autostable"; 39.0;"FPS TOWERS"
439122;6.91389;44.20806;"06° 54' 50.00'' Est, 44° 12' 29.00'' Nord";"06120";"AURON/LAS DONNAS";;"06660";"SAINT-ETIENNE-DE-TINEE";"Pylône autostable"; 54.0;"TDF"
440240;7.09694;43.59722;"07° 05' 49.00'' Est, 43° 35' 50.00'' Nord";"06004";;"378 CHEM DES COMBES RES HTES TERRES";"06160";"ANTIBES";"Immeuble"; 19.0;"Copropriété, Syndic, SCI"
440506;7.28833;43.72167;"07° 17' 18.00'' Est, 43° 43' 18.00'' Nord";"06088";;"151 RTE DE TURIN RÉSIDENCE BON VOYAGE LE PAILLON";"06000";"NICE";"Immeuble"; 56.0;"Société HLM"
440686;7.02361;43.55222;"07° 01' 25.00'' Est, 43° 33' 08.00'' Nord";"06029";;"83 R D'ANTIBES - FNAC LES AMBASSADES";"06400";"CANNES";"Bâtiment"; 22.0;"Société Privée SA"
440788;6.97667;43.55028;"06° 58' 36.00'' Est, 43° 33' 01.00'' Nord";"06029";;"11, R DR PAUL BALOUX 33 R ROQUEBILIÈRE LES MIMOSAS";"06150";"CANNES";"Immeuble"; 22.0;"Particulier"
442050;7.04056;43.62028;"07° 02' 26.00'' Est, 43° 37' 13.00'' Nord";"06152";"LE HAUT SARTOUX";"CHEM DES PINS SOPHIA ANTIPOLIS - PYLÔNE LES PINS";"06560";"VALBONNE";"Pylône autostable"; 20.0;"Commune, communauté de commune"
442066;7.34778;43.72417;"07° 20' 52.00'' Est, 43° 43' 27.00'' Nord";"06059";;"AV DE VERDUN RTE MOYENNE CORNICHE PRES RN7";"06360";"EZE";"Pylône autostable"; 12.0;"Commune, communauté de commune"
442680;7.39917;43.79278;"07° 23' 57.00'' Est, 43° 47' 34.00'' Nord";"06091";"LE RASTEL";"COL ST PANCRACE";"06440";"PEILLE";"Pylône autostable"; 16.0;"FPS TOWERS"
443381;7.48111;43.75222;"07° 28' 52.00'' Est, 43° 45' 08.00'' Nord";"06104";;"222 AV DU SEMAPHORE STATION TDF DU SÉMAPHORE DE CAP MARTIN";"06190";"ROQUEBRUNE-CAP-MARTIN";"Sémaphore"; 41.0;"Etat, Ministère"
443669;7.07556;43.58778;"07° 04' 32.00'' Est, 43° 35' 16.00'' Nord";"06004";;"744 CHEM DES BRUSQUETS";"06160";"ANTIBES";"Pylône autostable"; 11.8;"SFR"
446512;6.97167;44.09111;"06° 58' 18.00'' Est, 44° 05' 28.00'' Nord";"06016";"LE DEVENS HAUT";"RD 28 RTE DE GUILLAUME À BEUIL";"06470";"BEUIL";"Pylône autostable"; 13.0;"TDF"
446557;7.31944;43.73500;"07° 19' 10.00'' Est, 43° 44' 06.00'' Nord";"06149";"ROSTIT";"BD DE L'AVENIR";"06340";"LA TRINITE";"Mât"; 6.0;"Sociétés d'Autoroutes"
447044;7.37250;43.76806;"07° 22' 21.00'' Est, 43° 46' 05.00'' Nord";"06092";"LES LARAS";"RTE DES PREISSES TERRAIN DE TENNIS";"06440";"PEILLON";"Pylône autostable"; 15.0;"ORANGE"
447607;7.19417;43.77194;"07° 11' 39.00'' Est, 43° 46' 19.00'' Nord";"06033";;"4 BD DE LA COLLE BELLE";"06510";"CARROS";"Bâtiment"; 7.0;"Association"
451306;7.22972;43.71556;"07° 13' 47.00'' Est, 43° 42' 56.00'' Nord";"06088";;"178, CH DE LA COSTIÈRE";"06000";"NICE";"Pylône tubulaire"; 15.0;"ORANGE"
451587;7.18583;43.86222;"07° 11' 09.00'' Est, 43° 51' 44.00'' Nord";"06021";"BD  MARTINY";"CD 27";"06830";"BONSON";"Mât"; 6.0;"ORANGE Services Fixes"
453279;7.59917;44.06583;"07° 35' 57.00'' Est, 44° 03' 57.00'' Nord";"06162";"LE LOUBAIRA";"PISTE ONF(PYLONE TDF) PRES DE LA BRIGUE DE TENDE";"06430";"LA BRIGUE";"Pylône autostable"; 48.0;"TDF"
453756;7.33889;44.00750;"07° 20' 20.00'' Est, 44° 00' 27.00'' Nord";"06020";"FORT DE FLAUT";;"06450";"LA BOLLENE-VESUBIE";"Pylône autostable"; 42.0;"TDF"
453860;7.49222;43.77222;"07° 29' 32.00'' Est, 43° 46' 20.00'' Nord";"06083";;"24B AV COCHRANE HOTEL ST GEORGES";"06500";"MENTON";"Immeuble"; 31.0;"Copropriété, Syndic, SCI"
454308;7.00556;43.57889;"07° 00' 20.00'' Est, 43° 34' 44.00'' Nord";"06030";;"49 AV MAURICE JEANPIERRE RÉSIDENCE LE GIRAGLIA";"06110";"LE CANNET";"Immeuble"; 22.0;"Copropriété, Syndic, SCI"
455312;7.16278;44.18556;"07° 09' 46.00'' Est, 44° 11' 08.00'' Nord";"06073";"ISOLA 2000";;"06420";"ISOLA";"Pylône autostable"; 12.0;"ORANGE"
456280;6.92139;43.66583;"06° 55' 17.00'' Est, 43° 39' 57.00'' Nord";"06069";"ROQUEVIGNON";"PRES N85 STATION TDF GRASSE 2";"06130";"GRASSE";"Pylône autostable"; 28.0;"TDF"
456281;7.19111;43.77333;"07° 11' 28.00'' Est, 43° 46' 24.00'' Nord";"06033";;"CHEM DU ROURE PRES ECOLE PRIMAIRE PAUL ELUARD BAT 15";"06510";"CARROS";"Immeuble"; 28.0;"Société HLM"
456300;7.18750;43.80889;"07° 11' 15.00'' Est, 43° 48' 32.00'' Nord";"06025";;"5600 - 1ÈRE AV - 2È RUE BROC CENTER - ZI CARROS/LE BROC";"06510";"LE BROC";"Immeuble"; 21.0;"Société Privée SA"
456433;7.26556;43.70611;"07° 15' 56.00'' Est, 43° 42' 22.00'' Nord";"06088";;"38 BD RAIMBALDI";"06000";"NICE";"Immeuble"; 52.0;"Commune, communauté de commune"
456771;6.95250;43.56861;"06° 57' 09.00'' Est, 43° 34' 07.00'' Nord";"06029";"LE PONT D AVRIL";"DOMAINE DE L'ABADIE";"06150";"CANNES";"Pylône tubulaire"; 12.0;"SFR"
457196;7.37417;43.75194;"07° 22' 27.00'' Est, 43° 45' 07.00'' Nord";"06149";;"691 CHEM DES SOANNES LAGHET";"06340";"LA TRINITE";"Pylône autostable"; 10.0;"SFR"
457358;7.08861;43.68778;"07° 05' 19.00'' Est, 43° 41' 16.00'' Nord";"06044";"LES DURANS";"CHEM DE VAULLONGUE  TERRAIN NOMMÉ LES SERRES";"06480";"LA COLLE-SUR-LOUP";"Pylône autostable"; 18.0;"BOUYGUES"
457868;6.94278;43.48861;"06° 56' 34.00'' Est, 43° 29' 19.00'' Nord";"06138";"MIRAMAR";"28 BD  ESTÉREL RÉSIDENCE ESTÉREL ST LOUIS";"06590";"THEOULE-SUR-MER";"Immeuble"; 21.5;"Société Privée SA"
458143;7.48333;43.78167;"07° 29' 00.00'' Est, 43° 46' 54.00'' Nord";"06083";;"767, AVENUE DE PRADES RÉSIDENCE LES EGLANTINES";"06500";"MENTON";"Immeuble"; 33.0;"Copropriété, Syndic, SCI"
458575;6.92000;43.54000;"06° 55' 12.00'' Est, 43° 32' 24.00'' Nord";"06079";"LA VIGNASSE";"AV ROBERT SCHUMAN";"06210";"MANDELIEU-LA-NAPOULE";"Pylône autostable"; 25.0;"ORANGE"
459098;6.91639;43.65417;"06° 54' 59.00'' Est, 43° 39' 15.00'' Nord";"06069";;"RUE DES 3 PORTES";"06130";"GRASSE";"Pylône autostable"; 45.0;"TDF"
459509;7.15028;43.73611;"07° 09' 01.00'' Est, 43° 44' 10.00'' Nord";"06065";"LES COLLES";"D.18 - RTE DE ST JEANNET";"06610";"LA GAUDE";"Pylône tubulaire"; 14.0;"ORANGE"
459533;7.14333;43.73028;"07° 08' 36.00'' Est, 43° 43' 49.00'' Nord";"06065";;"CHEM DU TACON RÉSERVOIR LES CONDOMINES";"06610";"LA GAUDE";"Pylône tubulaire"; 14.0;"ORANGE"
459542;7.15222;43.71778;"07° 09' 08.00'' Est, 43° 43' 04.00'' Nord";"06065";"LES CANEBIERS";"D.18 - RTE DE CAGNES STÉ BOÏS";"06610";"LA GAUDE";"Immeuble"; 13.0;"Société Privée SA"
459554;7.23167;43.73556;"07° 13' 54.00'' Est, 43° 44' 08.00'' Nord";"06088";;"149 CORNICHE DES OLIVIERS";"06000";"NICE";"Pylône autostable"; 15.0;"TDF"
459561;7.15639;43.71083;"07° 09' 23.00'' Est, 43° 42' 39.00'' Nord";"06065";"LE PLANTIER";"CR 78";"06610";"LA GAUDE";"Pylône tubulaire"; 12.0;"SFR"
459585;7.16639;43.72361;"07° 09' 59.00'' Est, 43° 43' 25.00'' Nord";"06065";;"CHEM DES AMBONNETS CIMETIERE MONT GROS";"06610";"LA GAUDE";"Pylône autostable"; 22.0;"CELLNEX"
459601;7.17806;43.73000;"07° 10' 41.00'' Est, 43° 43' 48.00'' Nord";"06065";;"1336 R DE GATTIÈRES LE HAMEAU DE ST ROCH/LE LIT DU VAR";"06610";"LA GAUDE";"Pylône autostable"; 12.0;"SFR"
459679;7.14861;43.73528;"07° 08' 55.00'' Est, 43° 44' 07.00'' Nord";"06065";;"181, CH DU SEREN";"06610";"LA GAUDE";"Pylône autostable"; 15.0;"SFR"
460154;6.95778;43.54278;"06° 57' 28.00'' Est, 43° 32' 34.00'' Nord";"06029";;"8 ALLÉE DES GABIENS Z.I LA FRAYÈRE";"06150";"CANNES";"Pylône tubulaire"; 20.0;"SFR"
460306;6.79500;43.64972;"06° 47' 42.00'' Est, 43° 38' 59.00'' Nord";"06118";"R CYPRIEN ISSAURAT";"AUTOCOM";"06530";"SAINT-CEZAIRE-SUR-SIAGNE";"Bâtiment"; 5.0;"ORANGE Services Fixes"
461508;7.13083;43.68861;"07° 07' 51.00'' Est, 43° 41' 19.00'' Nord";"06128";;"379 CHEM DES ESPINETS  VILLA";"06570";"SAINT-PAUL";"Pylône autostable"; 15.0;"FPS TOWERS"
461755;7.09139;43.71250;"07° 05' 29.00'' Est, 43° 42' 45.00'' Nord";"06157";"ST VALLIER";"CHEM DE SINE QUARTIER LE MALVAN";"06140";"VENCE";"Pylône autostable"; 27.0;"FPS TOWERS"
462429;6.99750;43.65167;"06° 59' 51.00'' Est, 43° 39' 06.00'' Nord";"06089";"TOURREVISTE";"DOMAINE DE LA TOUR CLUB MED";"06650";"OPIO";"Immeuble"; 23.8;"Société Privée SA"
464058;6.99722;43.62444;"06° 59' 50.00'' Est, 43° 37' 28.00'' Nord";"06084";;"30 CHEM DE PINCHINADE";"06370";"MOUANS-SARTOUX";"Immeuble"; 10.1;"Particulier"
465184;7.49194;43.92611;"07° 29' 31.00'' Est, 43° 55' 34.00'' Nord";"06023";"CIME DU BOSC";"STATION TDF DE BREIL SUR ROYA";"06540";"BREIL-SUR-ROYA";"Pylône autostable"; 49.0;"TDF"
465774;7.37972;43.74639;"07° 22' 47.00'' Est, 43° 44' 47.00'' Nord";"06149";"ST PIERRE DE L'ESPERAYE";"ENTRÉE TUNNEL DE MONACOA8 PK1.2SORTIE ESCOTA AVANT TUNNEL";"06340";"LA TRINITE";"Tunnel"; 19.0;"Sociétés d'Autoroutes"
465784;7.21694;43.68500;"07° 13' 01.00'' Est, 43° 41' 06.00'' Nord";"06088";;"174 AV DE LA LANTERNE";"06000";"NICE";"Immeuble"; 16.1;"Copropriété, Syndic, SCI"
465824;7.36722;43.80556;"07° 22' 02.00'' Est, 43° 48' 20.00'' Nord";"06019";"LOU PLAN";"RTE DU PLAN";"06440";"BLAUSASC";"Pylône autostable"; 19.0;"TDF"
466776;7.21333;43.66500;"07° 12' 48.00'' Est, 43° 39' 54.00'' Nord";"06088";;"AÉROPORT INTERNATIONAL TERMINAL 1 OPERATEURS";"06000";"NICE";"Bâtiment"; 28.0;"CCI,Ch Metiers,Port Aut,Aérop"
467066;7.45333;43.79972;"07° 27' 12.00'' Est, 43° 47' 59.00'' Nord";"06113";;"CHEM DE FONT DE BAOU";"06500";"SAINTE-AGNES";"Mât"; 6.0;"SFR"
467115;7.26139;43.69722;"07° 15' 41.00'' Est, 43° 41' 50.00'' Nord";"06088";;"22 R DE LA BUFFA IMM LE PALAIS DE LA BUFFA";"06000";"NICE";"Immeuble"; 30.0;"Copropriété, Syndic, SCI"
467140;7.26222;43.70000;"07° 15' 44.00'' Est, 43° 42' 00.00'' Nord";"06088";;"25-27 R ROSSINI RÉSIDENCE LE PARNASSE";"06000";"NICE";"Immeuble"; 34.0;"Copropriété, Syndic, SCI"
467154;7.25056;43.70028;"07° 15' 02.00'' Est, 43° 42' 01.00'' Nord";"06088";;"LE PALAIS MINERVE 30 AV ESTIENNE D'ORVES";"06000";"NICE";"Immeuble"; 22.0;"Copropriété, Syndic, SCI"
467166;7.24750;43.71750;"07° 14' 51.00'' Est, 43° 43' 03.00'' Nord";"06088";;"266 AV DE PESSICART";"06000";"NICE";"Bâtiment"; 11.0;"Particulier"
468784;7.21639;43.66972;"07° 12' 59.00'' Est, 43° 40' 11.00'' Nord";"06088";;"BD RENE CASSIN PARKING ARENAS";"06000";"NICE";"Mât"; 3.0;"Société Privée SA"
469006;7.42528;43.77139;"07° 25' 31.00'' Est, 43° 46' 17.00'' Nord";"06091";"MONT AGEL";"STATION TDF DU MONT AGEL";"06440";"PEILLE";"Tour hertzienne"; 25.0;"TDF"
469394;7.23944;43.85694;"07° 14' 22.00'' Est, 43° 51' 25.00'' Nord";"06075";"LA VÉAOU";"PYLÔNET M6";"06670";"LEVENS";"Pylône autostable"; 8.5;"SFR"
469646;7.04417;43.57861;"07° 02' 39.00'' Est, 43° 34' 43.00'' Nord";"06155";"LES ISSARTS";"CHEM DES DARBOUSSIÉRES";"06220";"VALLAURIS";"pylône arbre"; 10.0;"ORANGE"
469966;7.20556;43.66139;"07° 12' 20.00'' Est, 43° 39' 41.00'' Nord";"06088";;"AÉROPORT NICE COTE D'AZUR TERMINAL 2 PIGNON NORD";"06000";"NICE";"Bâtiment"; 25.0;"CCI,Ch Metiers,Port Aut,Aérop"
470669;7.05250;43.57833;"07° 03' 09.00'' Est, 43° 34' 42.00'' Nord";"06155";;"12 AV GEORGES CLÉMENCEAU COOPÉRATIVE NEROLIUM";"06220";"VALLAURIS";"Bâtiment"; 33.0;"Coopérative Agricole, Vinicole"
470903;7.22278;43.67472;"07° 13' 22.00'' Est, 43° 40' 29.00'' Nord";"06088";;"58 AV ST AUGUSTIN IMM LE GIBRALTAR";"06000";"NICE";"Immeuble"; 27.0;"Société Privée SA"
470928;7.05278;43.62806;"07° 03' 10.00'' Est, 43° 37' 41.00'' Nord";"06152";;"2881 RTE DES CRÊTES ZI LES BOUILLIDES SOPHIA ANTIPOLIS";"06560";"VALBONNE";"Immeuble"; 18.4;"Copropriété, Syndic, SCI"
471026;7.10972;43.72917;"07° 06' 35.00'' Est, 43° 43' 45.00'' Nord";"06157";;"RÉSERVOIR ST MARTIN CHEM DU RIOU";"06140";"VENCE";"Pylône tubulaire"; 12.5;"ORANGE"
471217;6.96417;43.64444;"06° 57' 51.00'' Est, 43° 38' 40.00'' Nord";"06069";;"D4 - CH DE PLASCASSIER QUARTIER BRASSAURIS";"06130";"GRASSE";"pylône arbre"; 12.0;"SFR"
471381;7.27111;43.72556;"07° 16' 16.00'' Est, 43° 43' 32.00'' Nord";"06088";;"47 AV DE LA MARNE C.A.F.";"06000";"NICE";"Immeuble"; 30.0;"Etat, Ministère"
471387;7.22389;43.69889;"07° 13' 26.00'' Est, 43° 41' 56.00'' Nord";"06088";;"181 RTE DE ST ANTOINE MAISON DE RETRAITE LA COLLINE";"06000";"NICE";"Immeuble"; 14.2;"Association"
471862;6.93972;43.56333;"06° 56' 23.00'' Est, 43° 33' 48.00'' Nord";"06079";;"1016 AV GÉNÉRAL GARBAY";"06210";"MANDELIEU-LA-NAPOULE";"Immeuble"; 12.0;"Particulier"
471879;7.42500;43.77139;"07° 25' 30.00'' Est, 43° 46' 17.00'' Nord";"06091";"MONT AGEL";"STATION TDF DU MONT AGEL";"06440";"PEILLE";"Pylône autostable"; 31.0;"BOUYGUES"
471972;7.11417;43.71861;"07° 06' 51.00'' Est, 43° 43' 07.00'' Nord";"06157";;"236, AV EMILE HUGUES CENTRAL TÉLÉPHONIQUE FT";"06140";"VENCE";"Pylône autostable"; 41.0;"ORANGE"
472028;7.22417;43.69250;"07° 13' 27.00'' Est, 43° 41' 33.00'' Nord";"06088";;"196 CHEM DE TERRON";"06000";"NICE";"Pylône tubulaire"; 12.0;"ORANGE"
472124;7.11333;43.58806;"07° 06' 48.00'' Est, 43° 35' 17.00'' Nord";"06004";;"513 CHEM DU PUY";"06160";"ANTIBES";"Immeuble"; 40.8;"Copropriété, Syndic, SCI"
472305;7.26444;43.77667;"07° 15' 52.00'' Est, 43° 46' 36.00'' Nord";"06147";"MONT CHAUVE DE TOURETTE";"PISTE DU MONT CHAUVE";"06690";"TOURRETTE-LEVENS";"Pylône autostable"; 43.0;"TDF"
472691;7.49556;43.77333;"07° 29' 44.00'' Est, 43° 46' 24.00'' Nord";"06083";;"1 COURS GEORGES V HOTEL MODERNE";"06500";"MENTON";"Immeuble"; 32.0;"Société Privée SA"
472830;6.93556;43.53389;"06° 56' 08.00'' Est, 43° 32' 02.00'' Nord";"06079";;"AV DE LA MARINE ROYALE  CANNES MARINA-IMM LE SURCOUF";"06210";"MANDELIEU-LA-NAPOULE";"Immeuble"; 54.2;"Copropriété, Syndic, SCI"
472852;7.49444;43.80917;"07° 29' 40.00'' Est, 43° 48' 33.00'' Nord";"06035";"COLETTA";"ROUTE DE LA CONDAMINE PRÈS CHEM GR51";"06500";"CASTELLAR";"Pylône autostable"; 23.0;"TDF"
473681;6.99917;43.68694;"06° 59' 57.00'' Est, 43° 41' 13.00'' Nord";"06112";"CAMP ROMAIN";"L'HUBAC";"06650";"LE ROURET";"Pylône autostable"; 33.0;"TDF"
473810;6.93778;44.06389;"06° 56' 16.00'' Est, 44° 03' 50.00'' Nord";"06016";"DRECCIA DE FORCIA";"STATION TDF DE BEUIL 1 CIME DU RATON DE VALBERG VALBERG";"06470";"BEUIL";"Pylône autostable"; 60.0;"TDF"
474083;6.96806;43.55472;"06° 58' 05.00'' Est, 43° 33' 17.00'' Nord";"06029";;"20 R TROUBADOUR - ENTRÉE G2 RÉSIDENCE LES MURIERS";"06150";"CANNES";"Immeuble"; 20.9;"Société HLM"
474259;7.13306;43.56472;"07° 07' 59.00'' Est, 43° 33' 53.00'' Nord";"06004";"LA GAROUPE";"RTE DU PHARE DE LA GAROUPE";"06160";"ANTIBES";"Pylône autostable"; 38.5;"TDF"
474485;7.01389;43.54722;"07° 00' 50.00'' Est, 43° 32' 50.00'' Nord";"06029";"PORT DE CANNES";"BD J. HIBERT - N98 JETÉE BRISE LAME";"06150";"CANNES";"Mât"; 13.6;"Commune, communauté de commune"
474495;7.09639;43.59056;"07° 05' 47.00'' Est, 43° 35' 26.00'' Nord";"06004";"RES LOU PARADOU";"530 CHEM DES AMES DU PURGATOIRE";"06160";"ANTIBES";"Immeuble"; 20.0;"Copropriété, Syndic, SCI"
476210;7.14917;43.73500;"07° 08' 57.00'' Est, 43° 44' 06.00'' Nord";"06065";;"CHEMIN DES SERENS RÉSERVOIR";"06610";"LA GAUDE";"Château d'eau - réservoir"; 8.0;"Commune, communauté de commune"
476219;7.05889;43.71583;"07° 03' 32.00'' Est, 43° 42' 57.00'' Nord";"06148";;"PLACE MAXIMIN ESCALIER CHATEAU HOTEL DE VILLE";"06140";"TOURRETTES-SUR-LOUP";"Bâtiment"; 26.0;"Etat, Ministère"
477497;6.94139;43.51694;"06° 56' 29.00'' Est, 43° 31' 01.00'' Nord";"06079";;"AV DU CAPITAINE DE CORVETTE MARCHE PORT DE LA RAGUE";"06210";"MANDELIEU-LA-NAPOULE";"Bâtiment"; 10.0;"Société Privée SA"
478146;6.97472;43.58694;"06° 58' 29.00'' Est, 43° 35' 13.00'' Nord";"06085";;"348 CHEMIN DU MIRACLE TERRAIN PELLEGRIN";"06250";"MOUGINS";"Pylône autostable"; 24.0;"FPS TOWERS"
478191;7.26611;43.69528;"07° 15' 58.00'' Est, 43° 41' 43.00'' Nord";"06088";;"2 RUE HALEVY HOTEL";"06000";"NICE";"Immeuble"; 44.6;"Copropriété, Syndic, SCI"
478647;7.09917;43.62722;"07° 05' 57.00'' Est, 43° 37' 38.00'' Nord";"06018";;"22 PL DES ARCADES";"06410";"BIOT";"Immeuble"; 16.0;"Particulier"
479661;6.96306;43.56111;"06° 57' 47.00'' Est, 43° 33' 40.00'' Nord";"06029";;"100 AV MAURICE CHEVALIER RES DES CHENES LES OLIVIERS";"06150";"CANNES";"Immeuble"; 23.7;"Société HLM"
479932;7.51556;43.93778;"07° 30' 56.00'' Est, 43° 56' 16.00'' Nord";"06023";;"9 R CIAPPERA";"06540";"BREIL-SUR-ROYA";"Bâtiment"; 6.0;"Particulier"
481194;7.29972;43.72639;"07° 17' 59.00'' Est, 43° 43' 35.00'' Nord";"06149";"MONT GROS";"RTE DE L'OBSERVATOIRE OBSERVATOIRE";"06340";"LA TRINITE";"Pylône autostable"; 18.0;"Société Privée SA"
482565;7.07750;43.60000;"07° 04' 39.00'' Est, 43° 36' 00.00'' Nord";"06004";"LES TERRIERS";"ALLÉE BELLEVUE";"06160";"ANTIBES";"Pylône autostable"; 21.2;"SFR"
483201;7.34333;43.90889;"07° 20' 36.00'' Est, 43° 54' 32.00'' Nord";"06077";"CRUOZ";"RTE DE PEIRA CAVA";"06440";"LUCERAM";"Pylône autostable"; 25.2;"SFR"
483367;7.16306;43.66889;"07° 09' 47.00'' Est, 43° 40' 08.00'' Nord";"06027";"LES HAUTS DE BRÉGUIÈRES";"R PAUL GAUGUIN RÉS LE SERENA BAT A";"06800";"CAGNES-SUR-MER";"Immeuble"; 18.0;"Copropriété, Syndic, SCI"
484183;7.12194;43.65389;"07° 07' 19.00'' Est, 43° 39' 14.00'' Nord";"06161";"LES FENOUILLÈRES";"AV DES PLANS STATION TDF DE VILLENEUVE LOUBET";"06270";"VILLENEUVE-LOUBET";"Pylône autostable"; 46.0;"TDF"
484206;7.27056;43.70028;"07° 16' 14.00'' Est, 43° 42' 01.00'' Nord";"06088";;"35 R PASTORELLI";"06000";"NICE";"Immeuble"; 29.0;"Copropriété, Syndic, SCI"
484267;7.25361;43.77028;"07° 15' 13.00'' Est, 43° 46' 13.00'' Nord";"06006";"MONT CHAUVE";"FORT D'ASPREMONT";"06790";"ASPREMONT";"Pylône autostable"; 26.0;"TDF"
484341;7.50000;43.79361;"07° 30' 00.00'' Est, 43° 47' 37.00'' Nord";"06083";"SORGIO";"RTE DE CASTELLAR TUNNEL DE SORGIO A8";"06500";"MENTON";"Mât"; 5.0;"BOUYGUES"
484548;7.31556;43.84667;"07° 18' 56.00'' Est, 43° 50' 48.00'' Nord";"06015";;"2150 AV DE LA COLLE D'AMPUONS TERRAIN BONNETON";"06390";"BERRE-LES-ALPES";"Pylône autostable"; 25.0;"SFR"
485008;6.99806;43.55056;"06° 59' 53.00'' Est, 43° 33' 02.00'' Nord";"06029";;"39 AV DU DR PICAUD LE ROC";"06150";"CANNES";"Immeuble"; 23.0;"Copropriété, Syndic, SCI"
485018;7.45000;43.77167;"07° 27' 00.00'' Est, 43° 46' 18.00'' Nord";"06104";;"CHEM DES VALLIÈRES A8 TUNNEL DE LA COUPIÈRE";"06190";"ROQUEBRUNE-CAP-MARTIN";"Tunnel"; 8.0;"Sociétés d'Autoroutes"
485509;6.99583;43.55778;"06° 59' 45.00'' Est, 43° 33' 28.00'' Nord";"06029";;"AV JEAN DE NOAILLES PRÈS RÉSERVOIR INTERCOMMUNAL DE PUIT FONTAN";"06150";"CANNES";"pylône arbre"; 10.0;"ORANGE"
485940;7.32444;43.79667;"07° 19' 28.00'' Est, 43° 47' 48.00'' Nord";"06048";"LES MOUCHETTES";"CIMENTERIE-LAFARGE CIMENTS";"06390";"CONTES";"Bâtiment"; 50.2;"Société Privée SA"
486079;6.93583;43.54083;"06° 56' 09.00'' Est, 43° 32' 27.00'' Nord";"06079";;"73 AV DE CANNES";"06210";"MANDELIEU-LA-NAPOULE";"Immeuble"; 22.0;"Copropriété, Syndic, SCI"
486094;7.50361;43.77528;"07° 30' 13.00'' Est, 43° 46' 31.00'' Nord";"06083";;"4 R DE LA MARNE RES LE WELCOME";"06500";"MENTON";"Immeuble"; 24.0;"Copropriété, Syndic, SCI"
486444;6.98528;43.98222;"06° 59' 07.00'' Est, 43° 58' 56.00'' Nord";"06101";"BARRE DE LABAUT";;"06260";"RIGAUD";"Pylône autostable"; 9.0;"ORANGE Services Fixes"
487715;7.13250;43.54806;"07° 07' 57.00'' Est, 43° 32' 53.00'' Nord";"06004";;"DOMAINE DE LA CROÉ CAP D'ANTIBES";"06160";"ANTIBES";"Immeuble"; 12.0;"Particulier"
492154;7.02833;43.62333;"07° 01' 42.00'' Est, 43° 37' 24.00'' Nord";"06152";;"750 CHEM DE LA ROBERTE ONF DFCI   PC VERT";"06560";"VALBONNE";"Pylône autostable"; 22.0;"ORANGE"
492170;7.22222;43.90833;"07° 13' 20.00'' Est, 43° 54' 30.00'' Nord";"06151";"CRETE DE LA MADONE";"RTE DU SANCTUAIRE DE LA MADONE D'UTELLE";"06450";"UTELLE";"Pylône autostable"; 45.0;"TDF"
492616;6.93028;44.09944;"06° 55' 49.00'' Est, 44° 05' 58.00'' Nord";"06094";"LE HAUT DE L'ENTASSE";"RTE DU CHASTELLAN PYLONE TDF";"06470";"PEONE";"Pylône autostable"; 35.0;"TDF"
492835;7.29583;43.68806;"07° 17' 45.00'' Est, 43° 41' 17.00'' Nord";"06088";;"2 BD MAETERLINK";"06000";"NICE";"Bâtiment"; 8.0;"Copropriété, Syndic, SCI"
492912;7.35056;43.83417;"07° 21' 02.00'' Est, 43° 50' 03.00'' Nord";"06057";"MONT PISSANDROUS";;"06440";"L'ESCARENE";"Pylône autostable"; 24.5;"TDF"
493336;7.19167;43.86250;"07° 11' 30.00'' Est, 43° 51' 45.00'' Nord";"06021";;"EGLISE ST BENOIT";"06830";"BONSON";"Monument religieux"; 16.0;"Commune, communauté de commune"
494781;7.20000;43.68778;"07° 12' 00.00'' Est, 43° 41' 16.00'' Nord";"06088";;"277 AVE STE MARGUERITE BÂTIMENT G RN 202";"06000";"NICE";"Immeuble"; 13.0;"Copropriété, Syndic, SCI"
495079;7.16861;43.66306;"07° 10' 07.00'' Est, 43° 39' 47.00'' Nord";"06027";;"10 AV DES FAUVETTES IMM BEL AIR";"06800";"CAGNES-SUR-MER";"Immeuble"; 20.0;"Copropriété, Syndic, SCI"
495134;7.13333;43.66944;"07° 08' 00.00'' Est, 43° 40' 10.00'' Nord";"06027";"LES VALLIÈRES";"55, CH DES VALLIÈRES";"06800";"CAGNES-SUR-MER";"pylône arbre"; 12.0;"ORANGE"
497198;7.13278;43.56444;"07° 07' 58.00'' Est, 43° 33' 52.00'' Nord";"06004";"PHARE DE LA GAROUPE";;"06160";"ANTIBES";"Phare"; 29.0;"Phares et balises"
497228;6.84528;43.64833;"06° 50' 43.00'' Est, 43° 38' 54.00'' Nord";"06118";"LES LAURENS";"RÉSERVOIR COLLE BASSE";"06530";"SAINT-CEZAIRE-SUR-SIAGNE";"Pylône autostable"; 9.0;"CELLNEX"
497396;7.34056;43.85889;"07° 20' 26.00'' Est, 43° 51' 32.00'' Nord";"06077";"LES MOUNTS";"RTE DES MOUNTS CAPORAL";"06440";"LUCERAM";"Pylône autostable"; 20.0;"TDF"
498325;7.40083;43.75389;"07° 24' 03.00'' Est, 43° 45' 14.00'' Nord";"06150";;"TUNNEL DU COL DE GUERRE";"06320";"LA TURBIE";"Tunnel"; 11.0;"Sociétés d'Autoroutes"
500119;7.03972;43.56694;"07° 02' 23.00'' Est, 43° 34' 01.00'' Nord";"06155";"RIQUEBONNE";"VOIE JULIA";"06220";"VALLAURIS";"Pylône autostable"; 23.0;"ORANGE Services Fixes"
500436;7.21972;43.71694;"07° 13' 11.00'' Est, 43° 43' 01.00'' Nord";"06088";"LA MADELEINE SUPÉRIEURE";"336 CHEM DE BELLET PYLÔNE TDF";"06000";"NICE";"Pylône autostable"; 35.0;"TDF"
500446;7.19972;43.68083;"07° 11' 59.00'' Est, 43° 40' 51.00'' Nord";"06088";;"232 RTE DE GRENOBLE ETAP HOTEL";"06000";"NICE";"Immeuble"; 28.4;"Société Privée SA"
502085;7.44889;43.75833;"07° 26' 56.00'' Est, 43° 45' 30.00'' Nord";"06104";;"40 AV. DU RAMINGAO";"06190";"ROQUEBRUNE-CAP-MARTIN";"Immeuble"; 15.0;"Copropriété, Syndic, SCI"
502705;7.04750;43.56167;"07° 02' 51.00'' Est, 43° 33' 42.00'' Nord";"06029";"SUPER CANNES";"AV DU CH D'EAU";"06150";"CANNES";"Château d'eau - réservoir"; 33.0;"Commune, communauté de commune"
505524;7.03500;43.56944;"07° 02' 06.00'' Est, 43° 34' 10.00'' Nord";"06030";"CANNES-LE-PÉZOU";"CH. DES COLLINES - VOIE JULIA SITE SFR/CEGETEL";"06110";"LE CANNET";"Pylône autostable"; 45.0;"SFR"
507082;7.13278;43.66944;"07° 07' 58.00'' Est, 43° 40' 10.00'' Nord";"06027";;"10 IMP DES VALLIÈRES";"06800";"CAGNES-SUR-MER";"Bâtiment"; 12.4;"Particulier"
507655;7.01667;43.55889;"07° 00' 60.00'' Est, 43° 33' 32.00'' Nord";"06029";;"57, BD  CARNOT LE CONSTELLATION";"06150";"CANNES";"Immeuble"; 31.2;"Copropriété, Syndic, SCI"
507661;7.02472;43.55472;"07° 01' 29.00'' Est, 43° 33' 17.00'' Nord";"06029";;"27 BD DE LA RÉPUBLIQUE";"06150";"CANNES";"Immeuble"; 19.0;"Association"
507671;7.01639;43.57667;"07° 00' 59.00'' Est, 43° 34' 36.00'' Nord";"06030";"LES ESCARASSES";"22 R DU COMMANDANT LAMY LES PARAMIDEAUX";"06110";"LE CANNET";"Immeuble"; 27.0;"Copropriété, Syndic, SCI"
507675;7.30500;43.68611;"07° 18' 18.00'' Est, 43° 41' 10.00'' Nord";"06088";;"AV PRINCESSE GRACE DE MONACO PYLONE DE LA MARINE";"06000";"NICE";"Pylône autostable"; 15.0;"Etat, Ministère"
509353;7.35722;43.74083;"07° 21' 26.00'' Est, 43° 44' 27.00'' Nord";"06149";"MT CAMPS DE L ALLEE";;"06340";"LA TRINITE";"Pylône autostable"; 44.0;"TDF"
510066;7.01667;43.57056;"07° 00' 60.00'' Est, 43° 34' 14.00'' Nord";"06030";;"87/89, BD  CARNOT RÉSIDENCE LES ROCHES BLANCHES";"06110";"LE CANNET";"Immeuble"; 23.0;"Société Privée SA"
510073;7.02639;43.55083;"07° 01' 35.00'' Est, 43° 33' 03.00'' Nord";"06029";;"6 R JEAN-BAPTISTE DUMAS IMM LE LUTÈCE";"06150";"CANNES";"Immeuble"; 31.8;"Copropriété, Syndic, SCI"
510077;7.26806;43.72972;"07° 16' 05.00'' Est, 43° 43' 47.00'' Nord";"06088";;"103 AV HENRI DUNANT HLM VALLON DES FLEURS BÂT. 8 - ESC. 1";"06000";"NICE";"Immeuble"; 41.0;"Société HLM"
510235;7.30944;43.95333;"07° 18' 34.00'' Est, 43° 57' 12.00'' Nord";"06074";"CRETE DES MARTOURINS";"LES CROTTES DE LODA";"06450";"LANTOSQUE";"Pylône autostable"; 43.8;"TDF"
511060;6.91778;43.94667;"06° 55' 04.00'' Est, 43° 56' 48.00'' Nord";"06099";"LA RIBA DI GIARRI";"RD 2211A COL ST RAPHAEL";"06260";"PUGET-THENIERS";"Pylône autostable"; 41.0;"TDF"
511444;6.93667;43.89611;"06° 56' 12.00'' Est, 43° 53' 46.00'' Nord";"06131";"LA FANGE";"SALLAGRIFFON";"06910";"SALLAGRIFFON";"Pylône autostable"; 9.0;"ORANGE Services Fixes"
512216;7.04750;43.50667;"07° 02' 51.00'' Est, 43° 30' 24.00'' Nord";"06029";"ILE DE ST HONORAT";"ABBAYE NOTRE DAME DE LÉRINS";"06150";"CANNES";"Monument religieux"; 44.0;"Commune, communauté de commune"
514294;7.51333;43.79500;"07° 30' 48.00'' Est, 43° 47' 42.00'' Nord";"06083";;"RTE DE SUPER GARAVAN RÉSERVOIR CGE LE BAOUSSET";"06500";"MENTON";"Château d'eau - réservoir"; 22.0;"Syndicat des eaux, Adduction"
514834;7.32111;43.72167;"07° 19' 16.00'' Est, 43° 43' 18.00'' Nord";"06159";"MONT LEUZE";;"06230";"VILLEFRANCHE-SUR-MER";"Tour hertzienne"; 60.0;"ORANGE Services Fixes"
515145;7.27667;43.72833;"07° 16' 36.00'' Est, 43° 43' 42.00'' Nord";"06088";;"26  AV CAP DE CROIX RÉSIDENCE LA FRANCISCAINE";"06000";"NICE";"Bâtiment"; 17.0;"Copropriété, Syndic, SCI"
517632;7.19333;43.71028;"07° 11' 36.00'' Est, 43° 42' 37.00'' Nord";"06088";;"17 AV AUGUSTE VEROLA";"06000";"NICE";"Immeuble"; 22.5;"Société Privée SA"
517931;7.05639;43.67250;"07° 03' 23.00'' Est, 43° 40' 21.00'' Nord";"06105";"PIBOU HAUT";"CH DU DEBRAM";"06330";"ROQUEFORT-LES-PINS";"pylône arbre"; 31.0;"SFR"
518742;7.40917;43.87694;"07° 24' 33.00'' Est, 43° 52' 37.00'' Nord";"06136";"CIME DE VENTABREN";"STATION TDF DE SOSPEL-VENTABREN";"06380";"SOSPEL";"Pylône autostable"; 20.0;"TDF"
519850;7.31889;43.76500;"07° 19' 08.00'' Est, 43° 45' 54.00'' Nord";"06031";"LE BESTAGNIER";"RTE DE COGNAS PRES D515";"06340";"CANTARON";"Pylône autostable"; 16.0;"TDF"
521860;7.32694;43.68333;"07° 19' 37.00'' Est, 43° 40' 60.00'' Nord";"06121";"ENTREE DU PORT";"ROUTE DU SÉMAPHORE";"06230";"SAINT-JEAN-CAP-FERRAT";"Pylône autostable"; 29.0;"TDF"
522475;7.49917;43.92667;"07° 29' 57.00'' Est, 43° 55' 36.00'' Nord";"06023";"CIME DE LA COUGOULE";"EXTREMITE PISTE FORESTIERE EN VENANT DU COL DE BRO";"06540";"BREIL-SUR-ROYA";"Pylône autostable"; 13.0;"ORANGE Services Fixes"
523508;6.89611;43.69222;"06° 53' 46.00'' Est, 43° 41' 32.00'' Nord";"06130";"MONTAGNE DU DOUBLIER";"CHEM DU DOUBLIER";"06460";"SAINT-VALLIER-DE-THIEY";"Pylône autostable"; 33.6;"BOUYGUES"
524469;7.43694;43.75861;"07° 26' 13.00'' Est, 43° 45' 31.00'' Nord";"06104";"TUNNEL DE L'ARME";"GRANDE CORNICHE - D2564";"06190";"ROQUEBRUNE-CAP-MARTIN";"Tunnel"; 14.0;"Sociétés d'Autoroutes"
525806;7.28083;43.70472;"07° 16' 51.00'' Est, 43° 42' 17.00'' Nord";"06088";;"1 ESPLANADE J.F. KENNEDY ACROPOLIS";"06000";"NICE";"Immeuble"; 22.5;"Commune, communauté de commune"
526109;7.11972;43.59361;"07° 07' 11.00'' Est, 43° 35' 37.00'' Nord";"06004";;"39 ET 39 B  AV DE NICE";"06160";"ANTIBES";"Immeuble"; 20.7;"SFR"
527227;7.24861;43.71250;"07° 14' 55.00'' Est, 43° 42' 45.00'' Nord";"06088";;"93 BD MANTEGA-RIGHI";"06000";"NICE";"Immeuble"; 20.0;"Société HLM"
527239;7.05167;43.61722;"07° 03' 06.00'' Est, 43° 37' 02.00'' Nord";"06152";"SOPHIA ANTIPOLIS";"650 RTE DES LUCIOLES ESPACE ENTREPRISE";"06560";"VALBONNE";"Pylône autostable"; 30.0;"ORANGE Services Fixes"
527889;7.11667;43.56833;"07° 06' 60.00'' Est, 43° 34' 06.00'' Nord";"06004";;"50-52 CHEM SABLES HOTEL AMBASSADEUR";"06160";"ANTIBES";"Immeuble"; 28.0;"Société Privée SA"
527903;7.25556;43.72944;"07° 15' 20.00'' Est, 43° 43' 46.00'' Nord";"06088";;"22 BD DU COMTE DE FALICON";"06000";"NICE";"Immeuble"; 45.0;"Société HLM"
528013;7.30722;43.71444;"07° 18' 26.00'' Est, 43° 42' 52.00'' Nord";"06088";"LE MONT VINAIGRIER";"CHEM DU CONTEO";"06000";"NICE";"Pylône autostable"; 37.2;"Towercast"
530053;7.03389;43.55306;"07° 02' 02.00'' Est, 43° 33' 11.00'' Nord";"06029";;"6 AV MARECHAL KOENIG";"06150";"CANNES";"Immeuble"; 27.0;"Copropriété, Syndic, SCI"
531576;7.26472;43.69972;"07° 15' 53.00'' Est, 43° 41' 59.00'' Nord";"06088";;"20 BD VICTOR HUGO HOLIDAY INN";"06000";"NICE";"Immeuble"; 37.0;"Société Privée SA"
533419;7.18889;43.66889;"07° 11' 20.00'' Est, 43° 40' 08.00'' Nord";"06123";;"39 AV DE PROVENCE LE GRAND VIGNE";"06700";"SAINT-LAURENT-DU-VAR";"Immeuble"; 16.0;"Copropriété, Syndic, SCI"
533474;7.12472;43.60806;"07° 07' 29.00'' Est, 43° 36' 29.00'' Nord";"06004";;"960 RTE DE NICE RÉS. DE LA BRAGUE";"06160";"ANTIBES";"Immeuble"; 16.0;"Copropriété, Syndic, SCI"
533517;7.20444;43.67361;"07° 12' 16.00'' Est, 43° 40' 25.00'' Nord";"06088";"LES MOULINS";"R DES MAHONIAS RÉS. ST-AUGUSTIN";"06000";"NICE";"Immeuble"; 55.0;"Société HLM"
533550;7.21972;43.68722;"07° 13' 11.00'' Est, 43° 41' 14.00'' Nord";"06088";;"1B BD MONTRÉAL";"06000";"NICE";"Immeuble"; 19.5;"Copropriété, Syndic, SCI"
534490;7.24722;43.74278;"07° 14' 50.00'' Est, 43° 44' 34.00'' Nord";"06088";;"75 RTE D'ASPREMONT";"06000";"NICE";"Immeuble"; 13.0;"Particulier"
534534;6.87639;43.65528;"06° 52' 35.00'' Est, 43° 39' 19.00'' Nord";"06026";;"PL MIRABEAU - EGLISE";"06530";"CABRIS";"Monument religieux"; 20.0;"Commune, communauté de commune"
535028;6.94361;43.59611;"06° 56' 37.00'' Est, 43° 35' 46.00'' Nord";"06090";"LES MITRES";"STATION TDF";"06580";"PEGOMAS";"Pylône autostable"; 23.0;"TDF"
536868;6.80583;43.83944;"06° 48' 21.00'' Est, 43° 50' 22.00'' Nord";"06116";"MONT ARPILLE";;"06850";"SAINT-AUBAN";"Pylône autostable"; 13.0;"ORANGE Services Fixes"
536924;7.05806;43.55444;"07° 03' 29.00'' Est, 43° 33' 16.00'' Nord";"06155";;"3117 BD DES HORIZONS";"06220";"VALLAURIS";"pylône arbre"; 16.0;"CELLNEX"
537887;7.19500;43.74056;"07° 11' 42.00'' Est, 43° 44' 26.00'' Nord";"06088";"ST SALVADOR";"CHEMIN DE ST ROMAN DE BELLET";"06000";"NICE";"Pylône autostable"; 28.0;"TDF"
538423;7.14722;43.65500;"07° 08' 50.00'' Est, 43° 39' 18.00'' Nord";"06027";;"2 CHEM DE LA MINOTERIE";"06800";"CAGNES-SUR-MER";"Bâtiment"; 22.0;"BOUYGUES"
540396;6.69083;43.88000;"06° 41' 27.00'' Est, 43° 52' 48.00'' Nord";"06024";"LA SAGNE";"HAMEAU DE LA SAGNE";"06850";"BRIANCONNET";"Bâtiment"; 7.0;"ORANGE Services Fixes"
540398;6.70972;43.86722;"06° 42' 35.00'' Est, 43° 52' 02.00'' Nord";"06024";"LE PRIGNOLET";"HAMEAU DU PRIGNOLET CHEM RURAL DU COLLET";"06850";"BRIANCONNET";"Mât"; 6.0;"ORANGE Services Fixes"
540400;6.82306;43.82722;"06° 49' 23.00'' Est, 43° 49' 38.00'' Nord";"06081";"LA SERRE";"LES SAUSSES";"06910";"LE MAS";"Mât"; 5.0;"ORANGE Services Fixes"
540402;6.85806;43.84333;"06° 51' 29.00'' Est, 43° 50' 36.00'' Nord";"06081";"LES AIRES";"VILLAGE";"06910";"LE MAS";"Bâtiment"; 4.5;"ORANGE Services Fixes"
540725;6.98889;43.70139;"06° 59' 20.00'' Est, 43° 42' 05.00'' Nord";"06010";;"PL DE LA TOUR";"06620";"LE BAR-SUR-LOUP";"Immeuble"; 22.0;"Commune, communauté de commune"
540756;7.26806;43.70111;"07° 16' 05.00'' Est, 43° 42' 04.00'' Nord";"06088";;"24-38, AV JEAN MÉDECIN";"06000";"NICE";"Immeuble"; 28.1;"Société Privée SA"
541301;7.45556;43.79056;"07° 27' 20.00'' Est, 43° 47' 26.00'' Nord";"06067";"AURIBEL";"RTE DE L'ARMÉE DES ALPES GR 51";"06500";"GORBIO";"Pylône autostable"; 34.0;"TDF"
541317;6.91639;43.75056;"06° 54' 59.00'' Est, 43° 45' 02.00'' Nord";"06037";"GRÊLE";"PRÈS DU RÉSERVOIR";"06460";"CAUSSOLS";"Mât"; 3.0;"ORANGE"
543896;6.91722;43.65556;"06° 55' 02.00'' Est, 43° 39' 20.00'' Nord";"06069";;"1 BD ANTOINE MAURE";"06130";"GRASSE";"Immeuble"; 20.0;"Particulier"
546280;7.18333;43.66194;"07° 11' 00.00'' Est, 43° 39' 43.00'' Nord";"06123";;"156 AV PIERRE ZILLER CENTRAL TÉLÉPHONIQUE";"06700";"SAINT-LAURENT-DU-VAR";"Bâtiment"; 26.0;"ORANGE Services Fixes"
547816;7.19722;43.82750;"07° 11' 50.00'' Est, 43° 49' 39.00'' Nord";"06109";"CD 20";"PL DU PORTALET CD 20";"06670";"LA ROQUETTE-SUR-VAR";"Bâtiment"; 4.0;"ORANGE Services Fixes"
548226;6.95194;43.61222;"06° 57' 07.00'' Est, 43° 36' 44.00'' Nord";"06084";;"955 CHEM FORESTIER LE DEFENDS-ZI DE L'ARGILE";"06370";"MOUANS-SARTOUX";"Tour de contrôle"; 27.2;"Commune, communauté de commune"
549100;7.25139;44.05444;"07° 15' 05.00'' Est, 44° 03' 16.00'' Nord";"06156";"CHAPELLE STE-CLAIRE";"PRÈS D.31";"06450";"VENANSON";"Pylône autostable"; 21.0;"TDF"
549192;7.51694;43.94806;"07° 31' 01.00'' Est, 43° 56' 53.00'' Nord";"06023";;"R COMMANDANT HARDY QUARTIER DE LA VEUNE";"06540";"BREIL-SUR-ROYA";"Pylône autostable"; 24.0;"ORANGE Services Fixes"
549200;7.58917;44.06639;"07° 35' 21.00'' Est, 44° 03' 59.00'' Nord";"06163";"ST DALMA";"SAGGE N 204";"06430";"TENDE";"Pylône autostable"; 31.0;"ORANGE Services Fixes"
549204;7.18833;43.88889;"07° 11' 18.00'' Est, 43° 53' 20.00'' Nord";"06151";"LE CHAUDAN";"GARE DE LA TINÉE";"06450";"UTELLE";"Pylône autostable"; 27.0;"ORANGE"
549744;7.25861;43.71194;"07° 15' 31.00'' Est, 43° 42' 43.00'' Nord";"06088";;"1, R CAVENDISH IMM DAR B MILLAH";"06000";"NICE";"Immeuble"; 27.9;"Copropriété, Syndic, SCI"
552057;6.99472;43.84556;"06° 59' 41.00'' Est, 43° 50' 44.00'' Nord";"06107";"LE POUS";"TEULER";"06910";"ROQUESTERON-GRASSE";"Bâtiment"; 5.0;"Particulier"
552393;6.95611;43.83306;"06° 57' 22.00'' Est, 43° 49' 59.00'' Nord";"06070";"COLLET DU GRAND PRÉ";"STATION DE GRÉOLIÈRES LES NEIGES";"06620";"GREOLIERES";"Pylône autostable"; 17.0;"FPS TOWERS"
552398;7.15278;43.89472;"07° 09' 10.00'' Est, 43° 53' 41.00'' Nord";"06100";"MONT VIAL";;"06830";"REVEST-LES-ROCHES";"Bâtiment"; 18.0;"ORANGE Services Fixes"
553175;7.12917;43.56944;"07° 07' 45.00'' Est, 43° 34' 10.00'' Nord";"06004";;"2 TRAVERSE DE LA PLAGE RÉSIDENCE LES CAPUCINES";"06160";"ANTIBES";"Bâtiment"; 19.0;"Copropriété, Syndic, SCI"
553316;7.29583;43.76750;"07° 17' 45.00'' Est, 43° 46' 03.00'' Nord";"06031";"MONT DE L'UBAC";;"06340";"CANTARON";"Pylône autostable"; 30.0;"Société Privée SA"
554013;7.01750;43.55056;"07° 01' 03.00'' Est, 43° 33' 02.00'' Nord";"06029";;"ESPLANADE GEORGES POMPIDOU PALAIS DES FESTIVALS";"06150";"CANNES";"Bâtiment"; 33.0;"Société Privée SA"
554974;7.18306;43.80056;"07° 10' 59.00'' Est, 43° 48' 02.00'' Nord";"06033";"LE CARROUSSET";"D.1 STATION TDF - LA GABEYRE";"06510";"CARROS";"Pylône autostable"; 26.0;"TDF"
554997;7.32833;43.76139;"07° 19' 42.00'' Est, 43° 45' 41.00'' Nord";"06054";"CHAPELLE STE-CATHERINE";;"06340";"DRAP";"Pylône autostable"; 23.0;"TDF"
557070;7.50389;43.80194;"07° 30' 14.00'' Est, 43° 48' 07.00'' Nord";"06067";"COL DE GARDE";"PR 217.923";"06500";"GORBIO";"Pylône autostable"; 10.0;"Sociétés d'Autoroutes"
557193;7.05611;43.61278;"07° 03' 22.00'' Est, 43° 36' 46.00'' Nord";"06152";;"60 R DOSTOIEVSKI CERAM";"06560";"VALBONNE";"Bâtiment"; 13.0;"CCI,Ch Metiers,Port Aut,Aérop"
557475;6.86333;44.08611;"06° 51' 48.00'' Est, 44° 05' 10.00'' Nord";"06071";"PESSIGAUD";;"06470";"GUILLAUMES";"Pylône autostable"; 15.0;"ORANGE Services Fixes"
558064;6.80750;43.81306;"06° 48' 27.00'' Est, 43° 48' 47.00'' Nord";"06003";"COL DE BLEINE";;"06750";"ANDON";"Pylône autostable"; 26.5;"TDF"
558804;7.26444;43.89611;"07° 15' 52.00'' Est, 43° 53' 46.00'' Nord";"06055";"MONT SUE";"SOUCCA NEGRA TERRAIN COMMUNAL";"06670";"DURANUS";"Pylône autostable"; 18.0;"Conseil Départemental"
561974;7.12389;43.63250;"07° 07' 26.00'' Est, 43° 37' 57.00'' Nord";"06161";;"87 CORNICHE DES MAURETTES";"06270";"VILLENEUVE-LOUBET";"Pylône autostable"; 24.0;"Sociétés d'Autoroutes"
563360;7.28722;43.69611;"07° 17' 14.00'' Est, 43° 41' 46.00'' Nord";"06088";;"1 AV JEANNE MARLIN LE PARLONIAM";"06000";"NICE";"Immeuble"; 32.0;"Copropriété, Syndic, SCI"
563399;7.24833;43.73167;"07° 14' 54.00'' Est, 43° 43' 54.00'' Nord";"06088";;"84 BD HENRI SAPPIA IMM LES GERANIUMS";"06000";"NICE";"Immeuble"; 32.5;"Société HLM"
564025;7.05806;43.55444;"07° 03' 29.00'' Est, 43° 33' 16.00'' Nord";"06155";"CANNES EDEN";"3117 BD DES HORIZONS";"06220";"VALLAURIS";"pylône arbre"; 16.5;"SFR"
566183;6.99861;43.66750;"06° 59' 55.00'' Est, 43° 40' 03.00'' Nord";"06089";"LE COLLET";"20 CHEM DU COLLET";"06650";"OPIO";"Pylône autostable"; 27.2;"TDF"
567464;7.25500;43.69361;"07° 15' 18.00'' Est, 43° 41' 37.00'' Nord";"06088";;"52 PROMENADE DES ANGLAIS IMM PALAIS MARIE GABRIELLE";"06000";"NICE";"Immeuble"; 23.7;"Copropriété, Syndic, SCI"
567470;7.34278;43.82306;"07° 20' 34.00'' Est, 43° 49' 23.00'' Nord";"06048";"COLLE DE L'OLIVIER";"CHEM DE L' AVALANCHA (PAR D215)";"06390";"CONTES";"Pylône tubulaire"; 15.0;"ORANGE"
567476;7.07750;43.62806;"07° 04' 39.00'' Est, 43° 37' 41.00'' Nord";"06018";"LES SOULIÈRES";"877 CHEM DES SOULIÈRES ENTREPRISE LE GALL";"06410";"BIOT";"pylône arbre"; 16.0;"SFR"
569054;6.96806;43.81417;"06° 58' 05.00'' Est, 43° 48' 51.00'' Nord";"06070";"CIME DU CHEIRON";"TETE DE LA TOUR DU CHEIRON";"06620";"GREOLIERES";"Pylône autostable"; 13.2;"CELLNEX"
569552;6.98444;43.55611;"06° 59' 04.00'' Est, 43° 33' 22.00'' Nord";"06029";"LA CROIX DES GARDES";"83-85 BD DU SOLEIL";"06150";"CANNES";"Bâtiment"; 10.0;"Syndicat des eaux, Adduction"
571323;6.94972;43.57500;"06° 56' 59.00'' Est, 43° 34' 30.00'' Nord";"06108";;"189 CHEM DE CRAVESAN SERVICES TECHNIQUES MUNICIPAUX";"06550";"LA ROQUETTE-SUR-SIAGNE";"Pylône autostable"; 32.0;"SFR"
572112;7.27472;43.70778;"07° 16' 29.00'' Est, 43° 42' 28.00'' Nord";"06088";;"11 AV. DE PICARDIE RÉS. LE MONT ROSE";"06000";"NICE";"Immeuble"; 25.0;"Copropriété, Syndic, SCI"
573132;7.28750;43.71028;"07° 17' 15.00'' Est, 43° 42' 37.00'' Nord";"06088";;"AV. MARÉCHAL VAUBAN STADE MUNICIPAL VAUBAN";"06000";"NICE";"Pylône tubulaire"; 22.0;"Commune, communauté de commune"
574897;7.29222;43.70833;"07° 17' 32.00'' Est, 43° 42' 30.00'' Nord";"06088";;"41-43 AV DES DIABLES BLEUS OPAM LE VICTORIA";"06000";"NICE";"Immeuble"; 31.0;"Société HLM"
575160;7.26694;43.71333;"07° 16' 01.00'' Est, 43° 42' 48.00'' Nord";"06088";;"38 AV CARAVADOSSI RÉSIDENCE LES PINS";"06000";"NICE";"Immeuble"; 19.0;"Copropriété, Syndic, SCI"
575445;7.29889;43.69917;"07° 17' 56.00'' Est, 43° 41' 57.00'' Nord";"06088";;"MONT ALBAN";"06000";"NICE";"Pylône autostable"; 40.0;"TDF"
577369;7.24639;43.70250;"07° 14' 47.00'' Est, 43° 42' 09.00'' Nord";"06088";;"37, AV BEAU SITE";"06000";"NICE";"Bâtiment"; 22.0;"Particulier"
577384;7.03556;43.57833;"07° 02' 08.00'' Est, 43° 34' 42.00'' Nord";"06155";;"VOIE JULIA CTRE HÉLIO MARIN";"06220";"VALLAURIS";"Bâtiment"; 54.0;"Etablissement de soins"
577404;7.19222;43.70861;"07° 11' 32.00'' Est, 43° 42' 31.00'' Nord";"06088";;"131 BD DES JARDINIERS";"06000";"NICE";"Pylône autostable"; 15.0;"ORANGE"
577408;7.28528;43.70417;"07° 17' 07.00'' Est, 43° 42' 15.00'' Nord";"06088";;"38 R RIBOTTI";"06000";"NICE";"Immeuble"; 31.0;"ORANGE Services Fixes"
577410;7.25611;43.71722;"07° 15' 22.00'' Est, 43° 43' 02.00'' Nord";"06088";;"44 AV. CYRIL BESSET CENTRAL TÉLÉPHONIQUE";"06000";"NICE";"Bâtiment"; 33.0;"ORANGE Services Fixes"
577412;7.25167;43.69556;"07° 15' 06.00'' Est, 43° 41' 44.00'' Nord";"06088";;"9 BD FRANÇOIS GROSSO";"06000";"NICE";"Bâtiment"; 32.0;"ORANGE Services Fixes"
577414;7.27167;43.69639;"07° 16' 18.00'' Est, 43° 41' 47.00'' Nord";"06088";;"5, R DE L'HOTEL DE VILLE";"06000";"NICE";"Immeuble"; 31.0;"Commune, communauté de commune"
577416;7.28167;43.70833;"07° 16' 54.00'' Est, 43° 42' 30.00'' Nord";"06088";;"R J. ALLÈGRE ADM. : ESPLANADE DU MARÉCHAL DE LATTRE DE TASSIGNY PALAIS DES SPORTS";"06000";"NICE";"Bâtiment"; 32.0;"Commune, communauté de commune"
577418;7.27111;43.70139;"07° 16' 16.00'' Est, 43° 42' 05.00'' Nord";"06088";;"25 BD DUBOUCHAGE HOTEL ACROPOLE";"06000";"NICE";"Immeuble"; 30.0;"Société Privée SA"
577420;7.24194;43.69000;"07° 14' 31.00'' Est, 43° 41' 24.00'' Nord";"06088";;"58-60 AV DE CALIFORNIE HOTEL CLIMAT BALLADINS";"06000";"NICE";"Immeuble"; 34.1;"Société Privée SA"
578308;7.23111;43.70806;"07° 13' 52.00'' Est, 43° 42' 29.00'' Nord";"06088";;"280, BD  DE LA MADELEINE";"06000";"NICE";"Immeuble"; 27.0;"Société HLM"
578314;7.23806;43.69972;"07° 14' 17.00'' Est, 43° 41' 59.00'' Nord";"06088";;"93 BB DE LA MADELEINE MAGNAN INFERIEUR";"06000";"NICE";"Immeuble"; 29.0;"Société HLM"
578320;7.21361;43.70333;"07° 12' 49.00'' Est, 43° 42' 12.00'' Nord";"06088";"ST-ANTOINE-GINESTIÈRE";"52 CHEM DU MASCON";"06000";"NICE";"Pylône autostable"; 12.0;"ORANGE"
578327;7.25583;43.70861;"07° 15' 21.00'' Est, 43° 42' 31.00'' Nord";"06088";;"141 BD  GAMBETTA";"06000";"NICE";"Immeuble"; 29.0;"Commune, communauté de commune"
578329;7.21472;43.73278;"07° 12' 53.00'' Est, 43° 43' 58.00'' Nord";"06088";;"39 CHEM JEAN BAGNIS VILLA VENTICELLO AMIN";"06000";"NICE";"Pylône autostable"; 12.0;"ORANGE"
579225;7.11944;43.57972;"07° 07' 10.00'' Est, 43° 34' 47.00'' Nord";"06004";;"9 BD GUSTAVE CHANCEL";"06160";"ANTIBES";"Bâtiment"; 27.0;"ORANGE Services Fixes"
579904;7.07194;43.60556;"07° 04' 19.00'' Est, 43° 36' 20.00'' Nord";"06004";;"80, R JEAN JOANNON ZI TROIS MOULINS";"06160";"ANTIBES";"Pylône autostable"; 15.0;"ORANGE"
579925;7.20556;43.67667;"07° 12' 20.00'' Est, 43° 40' 36.00'' Nord";"06088";;"BD PAUL MONTEL";"06000";"NICE";"Immeuble"; 20.0;"Société HLM"
579931;7.26000;43.70278;"07° 15' 36.00'' Est, 43° 42' 10.00'' Nord";"06088";;"46 R BERLIOZ";"06000";"NICE";"Immeuble"; 35.0;"ORANGE Services Fixes"
579937;7.07417;43.56861;"07° 04' 27.00'' Est, 43° 34' 07.00'' Nord";"06155";"LE NAPOLÉON";"34 AV DE LA GARE";"06220";"VALLAURIS";"Immeuble"; 27.0;"Copropriété, Syndic, SCI"
580001;7.28556;43.71639;"07° 17' 08.00'' Est, 43° 42' 59.00'' Nord";"06088";"LA ROQUEBILLIÈRE";"16 AV. DU TRIDENT RÉSIDENCE HLM LE TRIDENT";"06000";"NICE";"Immeuble"; 24.0;"Société HLM"
580003;7.22111;43.70306;"07° 13' 16.00'' Est, 43° 42' 11.00'' Nord";"06088";"ST-ANTOINE GINESTIÈRE";"105 RTE DE CANTA GALET";"06000";"NICE";"Immeuble"; 21.0;"Société Privée SA"
580005;7.29611;43.68778;"07° 17' 46.00'' Est, 43° 41' 16.00'' Nord";"06088";"CAP DE NICE";"4 BD MAURICE MAETERLINK";"06000";"NICE";"Immeuble"; 14.0;"Copropriété, Syndic, SCI"
580007;7.25806;43.72333;"07° 15' 29.00'' Est, 43° 43' 24.00'' Nord";"06088";"STADE DU RAY";"35 AV DU RAY STADE LÉO LAGRANGE";"06000";"NICE";"Bâtiment"; 23.0;"Commune, communauté de commune"
580009;7.23667;43.73639;"07° 14' 12.00'' Est, 43° 44' 11.00'' Nord";"06088";;"461 AV. PESSICART";"06000";"NICE";"Pylône tubulaire"; 11.5;"ORANGE"
580011;7.22222;43.68639;"07° 13' 20.00'' Est, 43° 41' 11.00'' Nord";"06088";"LA LANTERNE";"25 R JEAN GIORDAN RÉS. CIEL DE FABION";"06000";"NICE";"Immeuble"; 15.0;"Copropriété, Syndic, SCI"
580329;7.23472;43.68444;"07° 14' 05.00'' Est, 43° 41' 04.00'' Nord";"06088";;"223 PROMENADE DES ANGLAIS HOTEL RADISSON";"06000";"NICE";"Immeuble"; 34.6;"Société Privée SA"
580331;7.26722;43.70472;"07° 16' 02.00'' Est, 43° 42' 17.00'' Nord";"06088";;"25 R DE PARIS LE PARIS";"06000";"NICE";"Immeuble"; 28.0;"Copropriété, Syndic, SCI"
580516;7.52111;43.78444;"07° 31' 16.00'' Est, 43° 47' 04.00'' Nord";"06083";"GARAVAN";"N.7 CAPITAINERIE DU PORT DE MENTON-GARAVAN";"06500";"MENTON";"Mât"; 21.0;"ORANGE"
584365;7.09472;43.62944;"07° 05' 41.00'' Est, 43° 37' 46.00'' Nord";"06018";;"RTE DE VALBONNE RÉSIDENCE LES OLIVIERS";"06410";"BIOT";"Immeuble"; 13.0;"Société HLM"
585589;7.11583;43.60278;"07° 06' 57.00'' Est, 43° 36' 10.00'' Nord";"06004";"LES QUATRE CHEMINS";"HÔTEL BLEU MARINE";"06160";"ANTIBES";"Immeuble"; 15.0;"Particulier"
585593;7.39944;43.73778;"07° 23' 58.00'' Est, 43° 44' 16.00'' Nord";"06150";;"RTE DE LA TÊTE DE CHIEN LES HAUTS DE MONTE-CARLO";"06320";"LA TURBIE";"Mât"; 7.0;"ORANGE"
585903;6.85639;44.08694;"06° 51' 23.00'' Est, 44° 05' 13.00'' Nord";"06071";"STE CLAIRE";"RTE DE GUILLAUMES";"06470";"GUILLAUMES";"Pylône autostable"; 21.0;"ORANGE"
587649;7.17167;43.70250;"07° 10' 18.00'' Est, 43° 42' 09.00'' Nord";"06123";;"CHEM DE LA TOUR CARRÉE RÉSERVOIRS ET STATION DE POMPAGE DE LA MAURE";"06700";"SAINT-LAURENT-DU-VAR";"Château d'eau - réservoir"; 11.0;"Société HLM"
588137;7.33306;43.68944;"07° 19' 59.00'' Est, 43° 41' 22.00'' Nord";"06121";;"3 AV DENIS SEMERIA";"06230";"SAINT-JEAN-CAP-FERRAT";"Immeuble"; 21.1;"Particulier"
588642;7.26611;43.79361;"07° 15' 58.00'' Est, 43° 47' 37.00'' Nord";"06147";;"943 RTE D' ASPREMONT MAISON FAMILIALE LES TERRASSES";"06690";"TOURRETTE-LEVENS";"Bâtiment"; 11.0;"Commune, communauté de commune"
588667;7.28833;43.72500;"07° 17' 18.00'' Est, 43° 43' 30.00'' Nord";"06088";;"225 RTE DE TURIN RÉSIDENCE BON VOYAGE BATIMENT 23";"06000";"NICE";"Immeuble"; 49.2;"Société HLM"
590044;7.29417;43.82472;"07° 17' 39.00'' Est, 43° 49' 29.00'' Nord";"06014";"VALLON DU DRAC";"CHEM DE ROQUEBILLIÈRE";"06390";"BENDEJUN";"Pylône tubulaire"; 12.8;"ORANGE"
590321;7.02722;43.54944;"07° 01' 38.00'' Est, 43° 32' 58.00'' Nord";"06029";;"58 BD DE LA CROISETTE HÔTEL LE CARLTON";"06150";"CANNES";"Bâtiment"; 50.0;"Société Privée SA"
590555;7.11833;43.60278;"07° 07' 06.00'' Est, 43° 36' 10.00'' Nord";"06004";;"424 CHEMIN DES QUATRE CHEMINS";"06600";"ANTIBES";"Pylône autostable"; 20.0;"ORANGE"
590745;7.27972;43.70194;"07° 16' 47.00'' Est, 43° 42' 07.00'' Nord";"06088";;"58 BD RISSO LES RELAIS BLEUS";"06000";"NICE";"Immeuble"; 32.8;"Société Privée SA"
590803;6.96972;43.82167;"06° 58' 11.00'' Est, 43° 49' 18.00'' Nord";"06070";;"DÉPART TÉLESKI DE LA CIME RTE DU PONT LEVIS";"06620";"GREOLIERES";"Pylône autostable"; 8.0;"SFR"
590854;6.99250;43.57417;"06° 59' 33.00'' Est, 43° 34' 27.00'' Nord";"06030";;"31-33 CH DES FADES";"06110";"LE CANNET";"Pylône autostable"; 36.0;"SFR"
591158;7.46306;43.76611;"07° 27' 47.00'' Est, 43° 45' 58.00'' Nord";"06104";"ST PANCRACE";"PROMENADE DE LA 1ÈRE DFL CIMETIÈRE COMMUNAL";"06190";"ROQUEBRUNE-CAP-MARTIN";"Pylône tubulaire"; 15.0;"ORANGE"
591221;7.31556;43.88667;"07° 18' 56.00'' Est, 43° 53' 12.00'' Nord";"06043";"POINT DE VUE DE L'ENGARVIN";"RD15";"06390";"COARAZE";"Pylône autostable"; 26.0;"ORANGE"
591861;7.33028;43.71278;"07° 19' 49.00'' Est, 43° 42' 46.00'' Nord";"06159";;"1832 AV EDOUARD VII CHEMIN DE SOPHIE PYLONE TDF";"06230";"VILLEFRANCHE-SUR-MER";"Pylône autostable"; 15.0;"TDF"
592686;7.40139;43.72583;"07° 24' 05.00'' Est, 43° 43' 33.00'' Nord";"06032";;"CHEM ROMAIN-PRES N7 ET D37 RÉS. LES GENETS";"06320";"CAP-D'AIL";"Immeuble"; 21.0;"Société HLM"
593441;7.13194;43.63944;"07° 07' 55.00'' Est, 43° 38' 22.00'' Nord";"06161";"LE PIED DE DIGUE";"1058 RTE N7 LES BAUMETTES";"06270";"VILLENEUVE-LOUBET";"Pylône autostable"; 23.0;"FPS TOWERS"
593737;7.34583;43.89222;"07° 20' 45.00'' Est, 43° 53' 32.00'' Nord";"06077";"LE TOURNET";"RD 2566";"06440";"LUCERAM";"Pylône autostable"; 15.0;"TDF"
593741;7.15500;43.85778;"07° 09' 18.00'' Est, 43° 51' 28.00'' Nord";"06066";"LE VILLARS";"RTE DE ROQUESTERON";"06830";"GILETTE";"Mât"; 12.0;"FPS TOWERS"
593767;7.08333;43.57222;"07° 04' 60.00'' Est, 43° 34' 20.00'' Nord";"06155";;"AV GEORGES POMPIDOU RES OPENGOLFE";"06220";"VALLAURIS";"Immeuble"; 24.0;"Copropriété, Syndic, SCI"
594369;6.96778;44.21306;"06° 58' 04.00'' Est, 44° 12' 47.00'' Nord";"06120";"LA ROUGELLE";"RTE DE LA ROYA ST-SALVAIRE";"06660";"SAINT-ETIENNE-DE-TINEE";"Pylône autostable"; 19.0;"SFR"
594387;6.92056;44.25750;"06° 55' 14.00'' Est, 44° 15' 27.00'' Nord";"06120";"CARTEL";"UBLAN BAS";"06660";"SAINT-ETIENNE-DE-TINEE";"Pylône autostable"; 15.3;"FPS TOWERS"
595131;7.19444;43.66028;"07° 11' 40.00'' Est, 43° 39' 37.00'' Nord";"06123";;"92/120 AV EUGÈNE DONADEI IMM CAP CENTER";"06700";"SAINT-LAURENT-DU-VAR";"Immeuble"; 16.5;"Copropriété, Syndic, SCI"
595871;7.27583;43.71694;"07° 16' 33.00'' Est, 43° 43' 01.00'' Nord";"06088";;"21-23-25 AV GÉNÉRAL ESTIENNE LES COLLINES DE CIMIEZ";"06000";"NICE";"Immeuble"; 30.0;"Copropriété, Syndic, SCI"
595923;6.88417;43.62917;"06° 53' 03.00'' Est, 43° 37' 45.00'' Nord";"06095";;"28 R DR GÉHRARDT RES. LES GINESTES";"06530";"PEYMEINADE";"Bâtiment"; 22.0;"Copropriété, Syndic, SCI"
596781;7.09056;43.60583;"07° 05' 26.00'' Est, 43° 36' 21.00'' Nord";"06004";"LES COUGOULINS";"5 ALL DES FLEURS";"06160";"ANTIBES";"pylône arbre"; 14.0;"BOUYGUES"
596813;7.22833;43.67917;"07° 13' 42.00'' Est, 43° 40' 45.00'' Nord";"06088";;"22 AV ST AUGUSTIN";"06000";"NICE";"Bâtiment"; 27.1;"Copropriété, Syndic, SCI"
599257;7.21972;43.66861;"07° 13' 11.00'' Est, 43° 40' 07.00'' Nord";"06088";;"PROMENADE DES ANGLAIS PARC FLORAL";"06200";"NICE";"Bâtiment"; 20.0;"Commune, communauté de commune"
599668;7.18472;43.69389;"07° 11' 05.00'' Est, 43° 41' 38.00'' Nord";"06123";"LA TUILIÈRE";"AV PIERRE ET MARIE CURIE SAZIAS";"06700";"SAINT-LAURENT-DU-VAR";"Immeuble"; 15.6;"Société Privée SA"
601399;7.15000;43.71833;"07° 09' 00.00'' Est, 43° 43' 06.00'' Nord";"06065";;"7327 RTE DE CAGNES";"06610";"LA GAUDE";"Pylône autostable"; 17.0;"TDF"
601683;6.98583;43.59833;"06° 59' 09.00'' Est, 43° 35' 54.00'' Nord";"06085";;"109 AV DE TOURNAMY RESTAURANT LE PETIT PROVENÇAL";"06250";"MOUGINS";"Immeuble"; 12.0;"Commune, communauté de commune"
601689;6.98917;43.60889;"06° 59' 21.00'' Est, 43° 36' 32.00'' Nord";"06085";;"95 A CHEM DE PIGRANEL QUARTIER DE PIGRANEL";"06250";"MOUGINS";"Pylône tubulaire"; 11.5;"SFR"
601741;6.95667;43.68583;"06° 57' 24.00'' Est, 43° 41' 09.00'' Nord";"06069";"MAGAGNOSC";"CHEM DES CHASSEURS ALPINS";"06130";"GRASSE";"pylône arbre"; 16.0;"CELLNEX"
603785;7.30194;43.70833;"07° 18' 07.00'' Est, 43° 42' 30.00'' Nord";"06088";;"27, CH DU VINAIGRIER VILLA LES GLAÏEULS";"06000";"NICE";"pylône arbre"; 15.7;"SFR"
604594;7.02528;43.55000;"07° 01' 31.00'' Est, 43° 32' 60.00'' Nord";"06029";;"50 BD DE LA CROISETTE HÔTEL NOGA HILTON";"06150";"CANNES";"Immeuble"; 31.0;"Particulier"
605491;7.48944;43.78472;"07° 29' 22.00'' Est, 43° 47' 05.00'' Nord";"06083";"ANNONCIATA";"CORNICHE ANDRÉ TARDIEU";"06500";"MENTON";"Bâtiment"; 14.0;"Société Privée SA"
605909;6.91722;43.65222;"06° 55' 02.00'' Est, 43° 39' 08.00'' Nord";"06069";;"23 AV FOUQUES CLINIQUE ORSAC EHPAD MONT-FLEURI";"06130";"GRASSE";"Bâtiment"; 23.8;"Etablissement de soins"
609298;7.21056;43.77389;"07° 12' 38.00'' Est, 43° 46' 26.00'' Nord";"06033";;"1ÈRE AV - 3ÈME RUE LOT INDUSTRIEL DÉPARTEMENTAL";"06510";"CARROS";"Pylône autostable"; 25.0;"Société Privée SA"
609528;7.28306;43.70056;"07° 16' 59.00'' Est, 43° 42' 02.00'' Nord";"06088";;"8 R EMMANUEL PHILIBERT HOTEL IBIS STYLES DU VIEUX PORT";"06000";"NICE";"Immeuble"; 29.0;"Société Privée SA"
609544;7.07917;43.58472;"07° 04' 45.00'' Est, 43° 35' 05.00'' Nord";"06004";;"188 CHEM DE LA BLACASSE";"06160";"ANTIBES";"Pylône autostable"; 14.0;"ORANGE"
612331;7.03611;44.03222;"07° 02' 10.00'' Est, 44° 01' 56.00'' Nord";"06096";"VILLAGE";"CD428";"06260";"PIERLAS";"Mât métallique"; 4.0;"ORANGE Services Fixes"
613979;6.94917;43.65139;"06° 56' 57.00'' Est, 43° 39' 05.00'' Nord";"06069";;"49, RTE DU PLAN";"06130";"GRASSE";"Pylône autostable"; 12.0;"ORANGE"
614002;7.20528;43.71556;"07° 12' 19.00'' Est, 43° 42' 56.00'' Nord";"06088";"COLLET DE BOVIS";"370 CHEM DE CREMAT";"06000";"NICE";"Pylône autostable"; 24.0;"TDF"
614878;7.03667;43.54167;"07° 02' 12.00'' Est, 43° 32' 30.00'' Nord";"06029";;"AV DE LERINS STADE DES HESPERIDES";"06150";"CANNES";"Pylône autostable"; 33.0;"Commune, communauté de commune"
619516;7.09806;43.57750;"07° 05' 53.00'' Est, 43° 34' 39.00'' Nord";"06004";"FONTMERLE";"251 AV GAL FERRIE RÉS. BORGHESE";"06160";"ANTIBES";"Bâtiment"; 19.0;"Copropriété, Syndic, SCI"
620687;7.12167;43.58750;"07° 07' 18.00'' Est, 43° 35' 15.00'' Nord";"06004";;"AV DU 11 NOVEMBRE PARKING DU PORT VAUBAN";"06160";"ANTIBES";"Mât"; 12.0;"ORANGE"
620825;6.91722;43.59972;"06° 55' 02.00'' Est, 43° 35' 59.00'' Nord";"06007";"LE GIBEAU";"CHEM DES SOURCES";"06810";"AURIBEAU-SUR-SIAGNE";"Pylône autostable"; 25.0;"BOUYGUES"
622463;7.26611;43.71944;"07° 15' 58.00'' Est, 43° 43' 10.00'' Nord";"06088";;"54 AV. DE BRANCOLAR RÉSIDENCE LE CIMIEZ AZUR";"06000";"NICE";"Immeuble"; 20.0;"Copropriété, Syndic, SCI"
624828;7.52583;43.78917;"07° 31' 33.00'' Est, 43° 47' 21.00'' Nord";"06083";"GARAVAN";"RTE DE SUPER GARAVAN TUNNEL DE LA LGIRAUDE";"06500";"MENTON";"Tunnel"; 8.0;"Sociétés d'Autoroutes"
627804;6.96833;43.64861;"06° 58' 06.00'' Est, 43° 38' 55.00'' Nord";"06069";;"86 CHEM DES PARETTES RÉSERVOIR DES PARETTES";"06130";"GRASSE";"Pylône tubulaire"; 26.0;"Commune, communauté de commune"
629023;7.19222;43.72778;"07° 11' 32.00'' Est, 43° 43' 40.00'' Nord";"06088";;"CHEM DE SAQUIER 590 R DE GRENOBLE";"06000";"NICE";"Pylône autostable"; 8.0;"ORANGE"
632212;7.16278;43.65944;"07° 09' 46.00'' Est, 43° 39' 34.00'' Nord";"06027";;"105, AV CYRILLE BESSET RÉSIDENCE PLEIN SUD";"06800";"CAGNES-SUR-MER";"Immeuble"; 24.0;"Copropriété, Syndic, SCI"
641134;7.55000;43.99139;"07° 32' 60.00'' Est, 43° 59' 29.00'' Nord";"06132";"CIMETIÈRE";"RÉÉMETTEUR TDF DE FONTAN 1";"06540";"SAORGE";"Pylône autostable"; 30.0;"TDF"
643061;6.93694;43.62333;"06° 56' 13.00'' Est, 43° 37' 24.00'' Nord";"06069";"LES ASPRES";"8 AV LOUISON BODET PLASTIQUE GRASSE INDUSTRIE";"06130";"GRASSE";"Pylône autostable"; 27.0;"SFR"
644117;7.26333;43.72111;"07° 15' 48.00'' Est, 43° 43' 16.00'' Nord";"06088";;"10 AV HENRI DUNANT LES ACACIAS";"06000";"NICE";"Bâtiment"; 25.0;"Copropriété, Syndic, SCI"
646755;7.00222;43.56694;"07° 00' 08.00'' Est, 43° 34' 01.00'' Nord";"06029";;"33, CHEM DUPERRIER GRAND JAS";"06150";"CANNES";"Bâtiment"; 28.0;"ORANGE Services Fixes"
646762;7.02194;43.55528;"07° 01' 19.00'' Est, 43° 33' 19.00'' Nord";"06029";;"32 R MIMONT";"06150";"CANNES";"Immeuble"; 33.0;"ORANGE Services Fixes"
646767;6.96583;43.54917;"06° 57' 57.00'' Est, 43° 32' 57.00'' Nord";"06029";;"197 AV FRANCIS TONNER LA BOCCA/CENTRAL TELEPHONIQUE";"06150";"CANNES";"Pylône autostable"; 20.0;"ORANGE Services Fixes"
646769;7.03833;43.54250;"07° 02' 18.00'' Est, 43° 32' 33.00'' Nord";"06029";;"AV DE LERINS";"06150";"CANNES";"Pylône autostable"; 32.0;"Commune, communauté de commune"
646771;7.00750;43.55222;"07° 00' 27.00'' Est, 43° 33' 08.00'' Nord";"06029";;"PL DES ORANGERS OPHLM LES ORANGERS";"06150";"CANNES";"Immeuble"; 29.0;"Société HLM"
646773;7.03139;43.54833;"07° 01' 53.00'' Est, 43° 32' 54.00'' Nord";"06029";;"73, AV DE LA CROISETTE HÔTEL MARTINEZ";"06150";"CANNES";"Bâtiment"; 37.0;"Société Privée SA"
646775;7.01694;43.56167;"07° 01' 01.00'' Est, 43° 33' 42.00'' Nord";"06029";;"78, BD  CARNOT HÔTEL AMARANTE";"06150";"CANNES";"Immeuble"; 27.4;"Société Privée SA"
646777;7.04083;43.55167;"07° 02' 27.00'' Est, 43° 33' 06.00'' Nord";"06029";;"29 AV. DU ROI ALBERT CHAPELLE ST-GEORGES";"06150";"CANNES";"Monument religieux"; 28.0;"Association"
646781;7.01500;43.55389;"07° 00' 54.00'' Est, 43° 33' 14.00'' Nord";"06029";;"17 R EDITH CAVELL";"06150";"CANNES";"Immeuble"; 28.0;"Copropriété, Syndic, SCI"
646783;7.02083;43.55222;"07° 01' 15.00'' Est, 43° 33' 08.00'' Nord";"06029";;"R DES SERBES HÔTEL GRAY D'ALBION";"06150";"CANNES";"Immeuble"; 40.0;"Copropriété, Syndic, SCI"
646787;6.97167;43.55694;"06° 58' 18.00'' Est, 43° 33' 25.00'' Nord";"06029";"ST-JOSEPH";"15 AV. FRANÇOIS TUBY RÉSIDENCE LES JONQUILLES";"06150";"CANNES";"Immeuble"; 21.0;"Copropriété, Syndic, SCI"
646793;7.04278;43.54472;"07° 02' 34.00'' Est, 43° 32' 41.00'' Nord";"06029";;"23 R JAMES GRANT MILNE";"06150";"CANNES";"Immeuble"; 16.0;"ORANGE Services Fixes"
646806;7.03361;43.55944;"07° 02' 01.00'' Est, 43° 33' 34.00'' Nord";"06029";;"VILLA ABBATE 86 AV DE VALLAURIS";"06150";"CANNES";"Immeuble"; 13.0;"Particulier"
646808;6.96111;43.55083;"06° 57' 40.00'' Est, 43° 33' 03.00'' Nord";"06029";;"204/212 AV F TONNER HOTEL CLIMAT DE FRANCE";"06150";"CANNES";"Immeuble"; 19.0;"Société Privée SA"
646818;6.99083;43.55250;"06° 59' 27.00'' Est, 43° 33' 09.00'' Nord";"06029";;"AV AMIRAL WEMYSS PIERRE ET VACANCES";"06150";"CANNES";"Immeuble"; 23.0;"Copropriété, Syndic, SCI"
646830;6.95722;43.55639;"06° 57' 26.00'' Est, 43° 33' 23.00'' Nord";"06029";"FAISSE LONGUE";"ZI DES TOURADES CHEM DE LA BASTIDE ROUGE";"06150";"CANNES";"Pylône tubulaire"; 21.0;"ORANGE"
646847;7.03417;43.55722;"07° 02' 03.00'' Est, 43° 33' 26.00'' Nord";"06029";;"72 AV ISOLA BELLA";"06150";"CANNES";"Immeuble"; 16.0;"Copropriété, Syndic, SCI"
646849;7.02000;43.55139;"07° 01' 12.00'' Est, 43° 33' 05.00'' Nord";"06029";;"9-14 BD DE LA CROISETTE HOTEL LE MAJESTIC";"06150";"CANNES";"Immeuble"; 36.0;"Société Privée SA"
646851;6.98889;43.55028;"06° 59' 20.00'' Est, 43° 33' 01.00'' Nord";"06029";;"87 AV DU DR PICAUD LE MONA FLORA";"06150";"CANNES";"Immeuble"; 21.3;"Copropriété, Syndic, SCI"
646855;7.04694;43.54722;"07° 02' 49.00'' Est, 43° 32' 50.00'' Nord";"06029";;"110 BD MARÉCHAL JUIN LE ROYAL CALIFORNIE";"06150";"CANNES";"Immeuble"; 22.0;"Copropriété, Syndic, SCI"
646859;7.00111;43.56361;"07° 00' 04.00'' Est, 43° 33' 49.00'' Nord";"06029";;"14 BD DU RIOU OPHLM LE RIOU";"06150";"CANNES";"Immeuble"; 31.0;"Société HLM"
646878;7.02778;43.55278;"07° 01' 40.00'' Est, 43° 33' 10.00'' Nord";"06029";;"32 BD DE LORRAINE IMM ESPACE LAMY";"06150";"CANNES";"Immeuble"; 40.0;"Copropriété, Syndic, SCI"
648114;7.24528;43.72694;"07° 14' 43.00'' Est, 43° 43' 37.00'' Nord";"06088";;"39-43 BD JEAN BEHRA LES RESS DE ST SYLVESTRE";"06000";"NICE";"Immeuble"; 32.0;"Société HLM"
649995;7.01167;43.60944;"07° 00' 42.00'' Est, 43° 36' 34.00'' Nord";"06085";;"122 AV MAURICE DONAT CLINIQUE DE L'ESPÉRANCE";"06250";"MOUGINS";"Immeuble"; 19.0;"Etablissement de soins"
650941;7.06944;43.57194;"07° 04' 10.00'' Est, 43° 34' 19.00'' Nord";"06155";;"150 CH CHARLES GROS COPROPRIÉTÉ MI-COLLINE";"06220";"VALLAURIS";"Immeuble"; 20.0;"Copropriété, Syndic, SCI"
653668;7.01917;43.55667;"07° 01' 09.00'' Est, 43° 33' 24.00'' Nord";"06029";;"19 R DU ONZE NOVEMBRE-VILLA BELLEDONNE";"06150";"CANNES";"Immeuble"; 26.0;"Copropriété, Syndic, SCI"
654514;7.09333;43.84500;"07° 05' 36.00'' Est, 43° 50' 42.00'' Nord";"06061";"LE CALVAIRE";"D 1";"06510";"LES FERRES";"Bâtiment"; 6.0;"ORANGE Services Fixes"
656393;6.79472;43.72583;"06° 47' 41.00'' Est, 43° 43' 33.00'' Nord";"06058";"LE CASTELLAS";"RN 85 - CHEM DU BOIS DE BRIASQ";"06460";"ESCRAGNOLLES";"Pylône autostable"; 23.0;"TDF"
665757;6.96528;43.67667;"06° 57' 55.00'' Est, 43° 40' 36.00'' Nord";"06069";;"VILLA LA COUPOLE (M. JOUART) 49 CHEM DES FONTERINES";"06130";"GRASSE";"Pylône tubulaire"; 10.0;"SFR"
668761;7.33028;43.71250;"07° 19' 49.00'' Est, 43° 42' 45.00'' Nord";"06159";;"1832 BD EDOUARD VII";"06230";"VILLEFRANCHE-SUR-MER";"Mât"; 12.0;"ORANGE"
