Numéro du support;Longitude;Latitude;"Position";"Insee";"Lieu dit";"Adresse";"Code postal";"Commune";"Nature du support";Hauteur en m;"Propriétaire"
5066;2.35306;44.56917;"02° 21' 11.00'' Est, 44° 34' 09.00'' Nord";"12173";"LE PARGADOU";"D.580 - CHÂTEAU D'EAU";"12320";"NOAILHAC";"Pylône autostable"; 31.0;"ORANGE Services Fixes"
5076;2.74861;44.52139;"02° 44' 55.00'' Est, 44° 31' 17.00'' Nord";"12096";"LA BARTHE";;"12500";"ESPALION";"Pylône autostable"; 37.0;"ORANGE Services Fixes"
5078;2.58361;44.60528;"02° 35' 01.00'' Est, 44° 36' 19.00'' Nord";"12110";"ANCIENNE ÉCOLE";;"12140";"GOLINHAC";"Pylône autostable"; 22.0;"ORANGE Services Fixes"
5090;2.89028;43.95417;"02° 53' 25.00'' Est, 43° 57' 15.00'' Nord";"12208";;"BD DE LA CAPELLE CENTRAL TÉLÉPHONIQUE";"12400";"SAINT-AFFRIQUE";"Pylône autostable"; 16.0;"ORANGE Services Fixes"
5096;3.13722;44.20333;"03° 08' 14.00'' Est, 44° 12' 12.00'' Nord";"12200";"PUECH DE FONTANEILLES";;"12640";"RIVIERE-SUR-TARN";"Pylône autostable"; 25.0;"ORANGE Services Fixes"
5098;3.20472;44.18778;"03° 12' 17.00'' Est, 44° 11' 16.00'' Nord";"12180";;"RD 29";"12720";"PEYRELEAU";"Pylône autostable"; 7.0;"ORANGE Services Fixes"
5102;3.30194;44.02333;"03° 18' 07.00'' Est, 44° 01' 24.00'' Nord";"12168";;"ALLÉE CHAUDE ROUTE NEUVE AUTOCOMMUTATEUR";"12230";"NANT";"Pylône autostable"; 12.0;"ORANGE Services Fixes"
5124;2.66389;44.16500;"02° 39' 50.00'' Est, 44° 09' 54.00'' Nord";"12006";"LE FALGAS";;"12430";"ALRANCE";"Pylône autostable"; 12.0;"ORANGE Services Fixes"
5126;2.70611;44.08750;"02° 42' 22.00'' Est, 44° 05' 15.00'' Nord";"12299";"CAMP DEL SOL";"RUE DES HAUTES CIMES";"12430";"VILLEFRANCHE-DE-PANAT";"Pylône tubulaire"; 15.0;"ORANGE Services Fixes"
5136;3.06583;44.32222;"03° 03' 57.00'' Est, 44° 19' 20.00'' Nord";"12270";"PRÉ COSTE";"R DE LA PETITE CÔTE";"12150";"SEVERAC-LE-CHATEAU";"Bâtiment"; 7.0;"ORANGE Services Fixes"
5140;2.92667;44.59111;"02° 55' 36.00'' Est, 44° 35' 28.00'' Nord";"12214";;"RTE DE BONNEFOND AUTOCOMMUTATEUR";"12470";"SAINT-CHELY-D'AUBRAC";"Pylône autostable"; 7.0;"ORANGE Services Fixes"
5142;2.89917;43.95417;"02° 53' 57.00'' Est, 43° 57' 15.00'' Nord";"12208";"LES COMBES";;"12400";"SAINT-AFFRIQUE";"Pylône autostable"; 16.0;"ORANGE Services Fixes"
5146;3.12000;43.86361;"03° 07' 12.00'' Est, 43° 51' 49.00'' Nord";"12155";"CATIÈRE";;"12540";"FONDAMENTE";"Pylône autostable"; 11.0;"ORANGE Services Fixes"
5148;2.87889;43.82389;"02° 52' 44.00'' Est, 43° 49' 26.00'' Nord";"12044";;"PL DR ELISÉE BOUSQUET";"12360";"CAMARES";"Pylône autostable"; 15.0;"ORANGE Services Fixes"
5150;2.75500;43.82417;"02° 45' 18.00'' Est, 43° 49' 27.00'' Nord";"12025";"LE CLAPAYROL";"ROUTE DE CAMARES D91 AUTOCOMMUTATEUR";"12370";"BELMONT-SUR-RANCE";"Pylône autostable"; 8.0;"ORANGE Services Fixes"
5152;2.64111;43.96667;"02° 38' 28.00'' Est, 43° 58' 00.00'' Nord";"12149";"LE BOUIS";;"12550";"MONTCLAR";"Pylône autostable"; 16.0;"ORANGE Services Fixes"
5154;2.59083;43.88222;"02° 35' 27.00'' Est, 43° 52' 56.00'' Nord";"12019";"LA FOUON DE MIALET";;"12380";"BALAGUIER-SUR-RANCE";"Pylône autostable"; 8.0;"ORANGE Services Fixes"
5156;2.60917;43.88556;"02° 36' 33.00'' Est, 43° 53' 08.00'' Nord";"12248";;"RTE DE STE AFFRIQUE AUTOCOMMUTATEUR";"12380";"SAINT-SERNIN-SUR-RANCE";"Pylône autostable"; 5.0;"ORANGE Services Fixes"
5158;2.59083;43.94750;"02° 35' 27.00'' Est, 43° 56' 51.00'' Nord";"12080";"LE MAS DE PUEL";;"12550";"COUPIAC";"Pylône autostable"; 8.0;"ORANGE Services Fixes"
5160;2.58333;43.95250;"02° 35' 00.00'' Est, 43° 57' 09.00'' Nord";"12080";"PRÈS LOT RANDOU";"RTE DE MONTCLAR AUTOCOMMUTATEUR";"12550";"COUPIAC";"Pylône autostable"; 8.0;"ORANGE Services Fixes"
5168;2.56500;44.53528;"02° 33' 54.00'' Est, 44° 32' 07.00'' Nord";"12298";"LE FOIRAIL";"AUTOCOMMUTATEUR";"12580";"VILLECOMTAL";"Bâtiment"; 5.0;"SDIS, secours, incendie"
5170;2.55944;44.52889;"02° 33' 34.00'' Est, 44° 31' 44.00'' Nord";"12161";"PLAINE DE LOYRE";;"12330";"MOURET";"Pylône autostable"; 32.0;"ORANGE Services Fixes"
5172;2.66306;44.61417;"02° 39' 47.00'' Est, 44° 36' 51.00'' Nord";"12172";;"ROUTE DÉPARTEMENTALE 97";"12190";"LE NAYRAC";"Pylône autostable"; 17.0;"ORANGE Services Fixes"
5176;2.41500;44.54861;"02° 24' 54.00'' Est, 44° 32' 55.00'' Nord";"12218";"LE PERTUS";;"12320";"SAINT-CYPRIEN-SUR-DOURDOU";"Pylône autostable"; 15.0;"ORANGE Services Fixes"
5178;2.40917;44.54917;"02° 24' 33.00'' Est, 44° 32' 57.00'' Nord";"12218";;"RTE DE CONQUES AUTOCOMMUTATEUR";"12320";"SAINT-CYPRIEN-SUR-DOURDOU";"Pylône autostable"; 11.0;"ORANGE Services Fixes"
5188;2.03056;44.54250;"02° 01' 50.00'' Est, 44° 32' 33.00'' Nord";"12257";"LOUPIAC";"LES FARGUES";"12700";"CAUSSE-ET-DIEGE";"Pylône tubulaire"; 12.0;"ORANGE Services Fixes"
5190;2.83167;44.37944;"02° 49' 54.00'' Est, 44° 22' 46.00'' Nord";"12120";"IMP DES COMBES";;"12310";"LAISSAC";"Pylône autostable"; 15.0;"ORANGE Services Fixes"
5200;2.76444;44.52333;"02° 45' 52.00'' Est, 44° 31' 24.00'' Nord";"12096";;"R DU DR TREMOLIERE CENTRAL TÉLÉPHONIQUE";"12500";"ESPALION";"Bâtiment"; 15.0;"La Poste"
5206;2.85833;44.57028;"02° 51' 30.00'' Est, 44° 34' 13.00'' Nord";"12074";"LE PLAGNOL";;"12470";"CONDOM-D'AUBRAC";"Pylône autostable"; 16.0;"ORANGE Services Fixes"
5210;2.86000;44.48806;"02° 51' 36.00'' Est, 44° 29' 17.00'' Nord";"12124";"PUECH DE GARDES";;"12500";"LASSOUTS";"Pylône autostable"; 12.0;"ORANGE Services Fixes"
5212;2.88333;44.51111;"02° 53' 00.00'' Est, 44° 30' 40.00'' Nord";"12061";"MANDAILLES";;"12500";"CASTELNAU-DE-MANDAILLES";"Pylône autostable"; 17.0;"ORANGE Services Fixes"
5228;2.69556;44.87694;"02° 41' 44.00'' Est, 44° 52' 37.00'' Nord";"12164";"MONTAGNE DE SINHALAC";;"12600";"MUR-DE-BARREZ";"Pylône autostable"; 25.0;"ORANGE Services Fixes"
5230;2.14139;44.24083;"02° 08' 29.00'' Est, 44° 14' 27.00'' Nord";"12135";"LES RIALS";"SAUVETERE";"12270";"LUNAC";"Pylône autostable"; 21.0;"ORANGE Services Fixes"
5232;2.18111;44.50528;"02° 10' 52.00'' Est, 44° 30' 19.00'' Nord";"12108";"LE FOIRAL";;"12220";"GALGAN";"Pylône autostable"; 10.0;"ORANGE Services Fixes"
25059;1.90694;44.32222;"01° 54' 25.00'' Est, 44° 19' 20.00'' Nord";"12287";"LABAUR";;"12200";"VAILHOURLES";"Pylône autostable"; 40.0;"SFR"
25067;2.65111;44.36528;"02° 39' 04.00'' Est, 44° 21' 55.00'' Nord";"12131";"COMBE DE LAUMET";;"12740";"LA LOUBIERE";"Pylône autostable"; 35.0;"SFR"
25069;3.08278;44.27500;"03° 04' 58.00'' Est, 44° 16' 30.00'' Nord";"12270";"LES TOURETTES";;"12150";"SEVERAC-LE-CHATEAU";"Pylône autostable"; 46.6;"SFR"
25087;2.04083;44.23917;"02° 02' 27.00'' Est, 44° 14' 21.00'' Nord";"12105";"LE LAC";;"12270";"LA FOUILLADE";"Pylône autostable"; 37.9;"SFR"
25099;3.08139;44.19028;"03° 04' 53.00'' Est, 44° 11' 25.00'' Nord";"12291";"CABROLE";;"12520";"VERRIERES";"Pylône autostable"; 45.0;"SFR"
25107;2.71528;44.49306;"02° 42' 55.00'' Est, 44° 29' 35.00'' Nord";"12033";"LE PUECH";;"12340";"BOZOULS";"Pylône autostable"; 35.0;"SFR"
25137;2.45806;44.40167;"02° 27' 29.00'' Est, 44° 24' 06.00'' Nord";"12020";"MILLE DENIERS";"PESSENGUES CHATEAU D'EAU D598";"12510";"BALSAC";"Château d'eau - réservoir"; 30.0;"Syndicat des eaux, Adduction"
25141;2.52583;44.04611;"02° 31' 33.00'' Est, 44° 02' 46.00'' Nord";"12197";"MONTPLAISIR";;"12170";"REQUISTA";"Pylône autostable"; 30.0;"SFR"
25145;2.63417;44.40278;"02° 38' 03.00'' Est, 44° 24' 10.00'' Nord";"12131";"LIOUJAS";;"12740";"LA LOUBIERE";"Château d'eau - réservoir"; 30.0;"Syndicat des eaux, Adduction"
25147;2.22972;44.29306;"02° 13' 47.00'' Est, 44° 17' 35.00'' Nord";"12198";"PUESCH ROUGET";;"12240";"RIEUPEYROUX";"Pylône autostable"; 12.0;"SFR"
25157;2.53611;44.16361;"02° 32' 10.00'' Est, 44° 09' 49.00'' Nord";"12057";"LES ADRECHS";;"12120";"CASSAGNES-BEGONHES";"Pylône autostable"; 30.0;"SFR"
25159;2.52000;44.12778;"02° 31' 12.00'' Est, 44° 07' 40.00'' Nord";"12267";"HAUTEVIALE";;"12170";"LA SELVE";"Pylône autostable"; 30.0;"SFR"
25161;2.02889;44.38917;"02° 01' 44.00'' Est, 44° 23' 21.00'' Nord";"12242";"LA COMBE ET LIVERSEN";;"12200";"SAINT-REMY";"Pylône autostable"; 25.0;"Sociétés d'Autoroutes"
46501;2.86611;44.12944;"02° 51' 58.00'' Est, 44° 07' 46.00'' Nord";"12062";"LA VERNHETTE";"COL DE POULZINIÈRES";"12620";"CASTELNAU-PEGAYROLS";"Pylône autostable"; 25.0;"ORANGE Services Fixes"
49782;2.85639;44.11806;"02° 51' 23.00'' Est, 44° 07' 05.00'' Nord";"12153";"PLATEAU DE LEVEZOU";"CANDADES";"12490";"MONTJAUX";"Bâtiment"; 9.0;"TDF"
52640;3.08222;44.09500;"03° 04' 56.00'' Est, 44° 05' 42.00'' Nord";"12145";;"R DE LA MÉGISSERIE";"12100";"MILLAU";"Immeuble"; 24.0;"Commune, communauté de commune"
70071;2.97500;44.46000;"02° 58' 30.00'' Est, 44° 27' 36.00'' Nord";"12224";"LA FON NÉGRÉ";"LES IFERS";"12130";"SAINT-GENIEZ-D'OLT";"Pylône autostable"; 18.0;"FPS TOWERS"
73105;2.45250;44.37667;"02° 27' 09.00'' Est, 44° 22' 36.00'' Nord";"12090";"LA CROIX DU SAUVAGE- LUSCLADE";"C.R. N° 1 LE PAS";"12510";"DRUELLE";"Pylône autostable"; 30.0;"ORANGE"
73123;2.74000;44.27472;"02° 44' 24.00'' Est, 44° 16' 29.00'' Nord";"12185";"LA PLAINE DU BOUISSOU";"ALARET";"12290";"PONT-DE-SALARS";"Pylône tubulaire"; 30.0;"ORANGE"
73153;2.60750;43.88194;"02° 36' 27.00'' Est, 43° 52' 55.00'' Nord";"12248";"ST MARTIN";;"12380";"SAINT-SERNIN-SUR-RANCE";"Pylône autostable"; 24.0;"ORANGE"
73171;2.74833;44.23222;"02° 44' 54.00'' Est, 44° 13' 56.00'' Nord";"12050";"FONTANELLES";;"12290";"CANET-DE-SALARS";"Pylône autostable"; 30.0;"ORANGE"
105371;2.75194;44.89389;"02° 45' 07.00'' Est, 44° 53' 38.00'' Nord";"12280";;"LA PAUZO";"12600";"THERONDELS";"Pylône autostable"; 30.0;"ORANGE Services Fixes"
105966;3.16333;44.13167;"03° 09' 48.00'' Est, 44° 07' 54.00'' Nord";"12145";;"LONGUIERS SERRE DEL MAY";"12100";"MILLAU";"Bâtiment"; 6.0;
107042;3.13000;44.07611;"03° 07' 48.00'' Est, 44° 04' 34.00'' Nord";"12145";;"PONTENSAC LA COMBETTE";"12100";"MILLAU";"Bâtiment"; 6.0;
107082;2.45278;44.63583;"02° 27' 10.00'' Est, 44° 38' 09.00'' Nord";"12268";;"LAGARDE";"12320";"SENERGUES";"Pylône autostable"; 7.0;"ORANGE Services Fixes"
107104;2.75972;43.76583;"02° 45' 35.00'' Est, 43° 45' 57.00'' Nord";"12163";;"CABRIÈRES";"12370";"MURASSON";"Pylône autostable"; 7.0;"ORANGE Services Fixes"
107110;2.76528;43.75833;"02° 45' 55.00'' Est, 43° 45' 30.00'' Nord";"12163";;"FONTESTIE";"12370";"MURASSON";"Pylône autostable"; 6.0;"ORANGE Services Fixes"
107214;2.30361;44.56306;"02° 18' 13.00'' Est, 44° 33' 47.00'' Nord";"12100";;"LE PUY DE VOLF";"12300";"FIRMI";"Pylône tubulaire"; 4.0;
116207;2.60972;43.99056;"02° 36' 35.00'' Est, 43° 59' 26.00'' Nord";"12149";"LE PUECH";;"12550";"MONTCLAR";"Bâtiment"; 13.0;"Météo"
117157;1.95139;44.21000;"01° 57' 05.00'' Est, 44° 12' 36.00'' Nord";"12167";"LA LANTARIE";;"12270";"NAJAC";"Pylône autostable"; 20.0;"SFR"
135389;2.38250;44.59972;"02° 22' 57.00'' Est, 44° 35' 59.00'' Nord";"12114";"AUJOULS";"LES ANGLES";"12320";"GRAND-VABRE";"Pylône autostable"; 5.0;"FPS TOWERS"
175742;2.46611;44.03778;"02° 27' 58.00'' Est, 44° 02' 16.00'' Nord";"12230";;"POMAREDE";"12170";"SAINT-JEAN-DELNOUS";"Support non décrit"; 4.0;
206433;2.66528;44.54222;"02° 39' 55.00'' Est, 44° 32' 32.00'' Nord";"12265";"GENEBRIÈRE";;"12190";"SEBRAZAC";"Pylône autostable"; 20.0;"SFR"
206435;2.28833;44.52722;"02° 17' 18.00'' Est, 44° 31' 38.00'' Nord";"12083";"LA BESSIÈRE";;"12110";"CRANSAC";"Pylône autostable"; 30.0;"SFR"
226508;2.03861;44.36056;"02° 02' 19.00'' Est, 44° 21' 38.00'' Nord";"12300";"PLEIN AIR";"RTE DE TOULOUSE";"12200";"VILLEFRANCHE-DE-ROUERGUE";"Immeuble"; 9.0;
247880;2.73778;44.41194;"02° 44' 16.00'' Est, 44° 24' 43.00'' Nord";"12157";"LES FONTANILLES";"CHEM DE MONTROZIER";"12630";"MONTROZIER";"Pylône autostable"; 41.0;"ORANGE"
248561;1.99444;44.43111;"01° 59' 40.00'' Est, 44° 25' 52.00'' Nord";"12217";"LE GRAVAS";;"12260";"SAINTE-CROIX";"Pylône autostable"; 36.6;"SFR"
250039;3.15944;44.00528;"03° 09' 34.00'' Est, 44° 00' 19.00'' Nord";"12063";"LA COMBE";"PRÈS RÉSERVOIR";"12230";"LA CAVALERIE";"Pylône autostable"; 18.0;"SFR"
252586;3.17750;43.99111;"03° 10' 39.00'' Est, 43° 59' 28.00'' Nord";"12115";"LA PLAINE DU TEMPLE";;"12230";"L'HOSPITALET-DU-LARZAC";"Bâtiment"; 12.0;"DDE"
252620;2.23556;44.30667;"02° 14' 08.00'' Est, 44° 18' 24.00'' Nord";"12198";;"3 R ST MARTIAL";"12240";"RIEUPEYROUX";"Bâtiment"; 9.0;
252711;2.66361;44.84111;"02° 39' 49.00'' Est, 44° 50' 28.00'' Nord";"12164";;"R DE SAMAYOU";"12600";"MUR-DE-BARREZ";"Pylône autostable"; 27.0;
252728;2.58639;44.36056;"02° 35' 11.00'' Est, 44° 21' 38.00'' Nord";"12202";;"77,AV DE PARIS";"12000";"RODEZ";"Bâtiment"; 8.0;
252936;2.92750;44.59222;"02° 55' 39.00'' Est, 44° 35' 32.00'' Nord";"12214";;"INCONNU";"12470";"SAINT-CHELY-D'AUBRAC";"Bâtiment"; 22.0;
252953;2.34222;44.19694;"02° 20' 32.00'' Est, 44° 11' 49.00'' Nord";"12169";;"R DU PARADIS";"12800";"NAUCELLE";"Bâtiment"; 16.0;
252955;2.76778;44.51694;"02° 46' 04.00'' Est, 44° 31' 01.00'' Nord";"12096";;"AV DE LA GARE";"12500";"ESPALION";"Bâtiment"; 19.0;"DDE"
253008;2.53972;44.03028;"02° 32' 23.00'' Est, 44° 01' 49.00'' Nord";"12197";;"PL PROSPER BOISSONADE";"12170";"REQUISTA";"Bâtiment"; 14.0;
253010;2.88750;43.95694;"02° 53' 15.00'' Est, 43° 57' 25.00'' Nord";"12208";;"R CHANOINE COSTE";"12400";"SAINT-AFFRIQUE";"Bâtiment"; 13.0;
253012;2.23583;44.56111;"02° 14' 09.00'' Est, 44° 33' 40.00'' Nord";"12089";;"31, CHEM DES TUILERIES";"12300";"DECAZEVILLE";"Bâtiment"; 21.0;
253014;2.08444;44.56667;"02° 05' 04.00'' Est, 44° 34' 00.00'' Nord";"12052";;"R MAURICE THOREZ";"12700";"CAPDENAC-GARE";"Bâtiment"; 16.0;
253016;2.02306;44.36083;"02° 01' 23.00'' Est, 44° 21' 39.00'' Nord";"12300";;"89, R VINCENT CIBIEL";"12200";"VILLEFRANCHE-DE-ROUERGUE";"Bâtiment"; 14.0;
253020;2.60333;44.58583;"02° 36' 12.00'' Est, 44° 35' 09.00'' Nord";"12110";"CAMPUAC";;"12140";"GOLINHAC";"Bâtiment"; 20.0;
253027;2.30000;44.40750;"02° 17' 60.00'' Est, 44° 24' 27.00'' Nord";"12199";"LOT DE L'ETANG";;"12390";"RIGNAC";"Bâtiment"; 7.0;
253149;3.20639;43.90611;"03° 12' 23.00'' Est, 43° 54' 22.00'' Nord";"12077";"VINENS";;"12540";"CORNUS";"Pylône autostable"; 24.0;"Etat, Ministère"
253151;2.06528;44.36611;"02° 03' 55.00'' Est, 44° 21' 58.00'' Nord";"12300";"LE BOI";;"12200";"VILLEFRANCHE-DE-ROUERGUE";"Pylône autostable"; 23.0;
253155;2.70722;44.81611;"02° 42' 26.00'' Est, 44° 48' 58.00'' Nord";"12036";"PUECH D'AMADOU";"MAYRINHAC";"12600";"BROMMAT";"Pylône autostable"; 27.0;"Etat, Ministère"
253157;2.61889;44.74833;"02° 37' 08.00'' Est, 44° 44' 54.00'' Nord";"12226";"ROUENS";"LES BOUYOS";"12140";"SAINT-HIPPOLYTE";"Pylône autostable"; 17.0;"Etat, Ministère"
253284;3.08500;44.10194;"03° 05' 06.00'' Est, 44° 06' 07.00'' Nord";"12145";;"37, AV GAMBETTA";"12100";"MILLAU";"Bâtiment"; 22.4;
253286;2.63750;44.03639;"02° 38' 15.00'' Est, 44° 02' 11.00'' Nord";"12129";"CATUNAC";;"12430";"LESTRADE-ET-THOUELS";"Pylône autostable"; 30.0;"DDE"
253290;3.06667;44.33111;"03° 04' 00.00'' Est, 44° 19' 52.00'' Nord";"12270";;"LES MARTELIEZ CENTRE D'EXPLOITATION DIR-MC A75";"12150";"SEVERAC-LE-CHATEAU";"Pylône autostable"; 22.0;"Etat, Ministère"
253460;2.76750;44.80417;"02° 46' 03.00'' Est, 44° 48' 15.00'' Nord";"12223";;"RTE DE BESSIERES";"12420";"SAINTE-GENEVIEVE-SUR-ARGENCE";"Bâtiment"; 12.0;
253462;2.58222;44.24583;"02° 34' 56.00'' Est, 44° 14' 45.00'' Nord";"12283";;"FREJAMAYOUS";"12290";"TREMOUILLES";"Pylône autostable"; 30.0;
253471;2.00667;44.22639;"02° 00' 24.00'' Est, 44° 13' 35.00'' Nord";"12167";;"PUECH DE LA BOIRIE";"12270";"NAJAC";"Pylône autostable"; 27.0;
253666;2.53583;44.31111;"02° 32' 09.00'' Est, 44° 18' 40.00'' Nord";"12133";;"BONAIR";"12450";"LUC";"Bâtiment"; 19.0;
253787;2.22056;44.57861;"02° 13' 14.00'' Est, 44° 34' 43.00'' Nord";"12028";;"MILLAGUES";"12300";"BOISSE-PENCHOT";"Pylône autostable"; 26.0;
253792;2.06944;44.53694;"02° 04' 10.00'' Est, 44° 32' 13.00'' Nord";"12257";;"LE TEIL";"12700";"CAUSSE-ET-DIEGE";"Pylône autostable"; 30.0;
259485;2.60972;44.26639;"02° 36' 35.00'' Est, 44° 15' 59.00'' Nord";"12102";"LE BES";;"12450";"FLAVIN";"Pylône autostable"; 35.0;"SFR"
259823;2.23194;44.31778;"02° 13' 55.00'' Est, 44° 19' 04.00'' Nord";"12198";"CHAPELLE DE RIEUPEYROUX";"SITE  RIEUPEYROUX AMBULANCES";"12240";"RIEUPEYROUX";"Pylône autostable"; 25.0;"Société Privée SA"
265188;2.98472;44.27750;"02° 59' 05.00'' Est, 44° 16' 39.00'' Nord";"12294";"LE PUECH DU PAL";;"12780";"VEZINS-DE-LEVEZOU";"Pylône autostable"; 40.0;"SFR"
272717;2.35083;44.63028;"02° 21' 03.00'' Est, 44° 37' 49.00'' Nord";"12114";"LA LAURENTIE";;"12320";"GRAND-VABRE";"Pylône autostable"; 36.0;"Conseil Général"
280203;2.64972;44.75639;"02° 38' 59.00'' Est, 44° 45' 23.00'' Nord";"12118";"LE FRAYSSE";;"12600";"LACROIX-BARREZ";"Pylône autostable"; 31.0;"Conseil Général"
283166;2.88611;44.06167;"02° 53' 10.00'' Est, 44° 03' 42.00'' Nord";"12296";"LE CAUSSE";;"12490";"VIALA-DU-TARN";"Pylône autostable"; 30.0;"Conseil Général"
284803;2.76861;44.41694;"02° 46' 07.00'' Est, 44° 25' 01.00'' Nord";"12026";"COMBEREDONS";;"12310";"BERTHOLENE";"Pylône autostable"; 12.0;"SFR"
290445;3.20889;43.96500;"03° 12' 32.00'' Est, 43° 57' 54.00'' Nord";"12115";"LES LAVANHES";"CHEM RURAL N° 18";"12230";"L'HOSPITALET-DU-LARZAC";"Pylône autostable"; 30.0;"ORANGE"
290566;3.02472;44.13361;"03° 01' 29.00'' Est, 44° 08' 01.00'' Nord";"12145";;"GARE DE PÉAGE DU VIADUC DE MILLAU A 75  PARKING PRIVÉ EIFFAGE";"12100";"MILLAU";"Mât"; 13.0;"ORANGE"
301432;2.03667;44.35472;"02° 02' 12.00'' Est, 44° 21' 17.00'' Nord";"12300";;"5 R JOSEPH PECHDO CLINIQUE";"12200";"VILLEFRANCHE-DE-ROUERGUE";"Bâtiment"; 14.0;"Etablissement de soins"
306723;2.85917;44.19444;"02° 51' 33.00'' Est, 44° 11' 40.00'' Nord";"12307";"PUECH DE LA LANDE";"PRÈS C.D. 95";"12410";"CURAN";"Pylône autostable"; 24.0;"ORANGE"
310017;2.60972;43.99056;"02° 36' 35.00'' Est, 43° 59' 26.00'' Nord";"12149";"LE PUECH";;"12550";"MONTCLAR";"Bâtiment"; 12.0;"Météo"
310671;2.59917;44.23917;"02° 35' 57.00'' Est, 44° 14' 21.00'' Nord";"12283";"LE BASTIÉ";;"12290";"TREMOUILLES";"Pylône autostable"; 12.0;"ORANGE Services Fixes"
311244;1.98167;44.41972;"01° 58' 54.00'' Est, 44° 25' 11.00'' Nord";"12217";"GOUTAYRENC";;"12260";"SAINTE-CROIX";"Pylône autostable"; 10.0;"ORANGE Services Fixes"
315833;2.55972;44.13083;"02° 33' 35.00'' Est, 44° 07' 51.00'' Nord";"12015";"LA CAIHOLIE";;"12120";"AURIAC-LAGAST";"Bâtiment"; 15.0;
321426;1.92694;44.37306;"01° 55' 37.00'' Est, 44° 22' 23.00'' Nord";"12140";"LA COSTE";"CHÂTEAU D'EAU";"12200";"MARTIEL";"Château d'eau - réservoir"; 19.0;"Syndicat des eaux, Adduction"
322108;2.67556;44.82667;"02° 40' 32.00'' Est, 44° 49' 36.00'' Nord";"12036";"LES CAZOTTES";;"12600";"BROMMAT";"Bâtiment"; 13.0;"Particulier"
325010;2.85500;44.75972;"02° 51' 18.00'' Est, 44° 45' 35.00'' Nord";"12005";"PUECH FOURQUE";"ROUTE DE PEYRE FICADE";"12210";"ALPUECH";"Pylône autostable"; 33.0;"ORANGE"
326543;3.04972;44.08250;"03° 02' 59.00'' Est, 44° 04' 57.00'' Nord";"12084";"BUECH";"CHEM RURAL Z.I. DE RAUJOLES";"12100";"CREISSELS";"Mât"; 9.0;"ORANGE"
327228;2.63417;44.48472;"02° 38' 03.00'' Est, 44° 29' 05.00'' Nord";"12201";"MAYMAC";"RTE DE MAYMAC";"12340";"RODELLE";"Pylône autostable"; 18.0;"ORANGE"
331046;2.91417;44.32278;"02° 54' 51.00'' Est, 44° 19' 22.00'' Nord";"12294";"PUECH DE LA FON";"VAYSSE RODIER";"12780";"VEZINS-DE-LEVEZOU";"Pylône autostable"; 20.0;"EDF GDF"
331052;2.74028;44.75528;"02° 44' 25.00'' Est, 44° 45' 19.00'' Nord";"12250";;"CHÂTEAU DE THÉNIÈRES";"12460";"SAINT-SYMPHORIEN-DE-THENIERES";"Pylône autostable"; 21.0;"EDF GDF"
335190;2.55139;44.34944;"02° 33' 05.00'' Est, 44° 20' 58.00'' Nord";"12174";"PIBOULS";;"12510";"OLEMPS";"Local technique"; 8.8;"SFR"
341167;2.55750;44.34444;"02° 33' 27.00'' Est, 44° 20' 40.00'' Nord";"12174";;"LES PEYRIERES AV DE RODEZ MAISON DE RETRAITE";"12510";"OLEMPS";"Immeuble"; 23.0;"Etablissement de soins"
341171;2.57639;44.34750;"02° 34' 35.00'' Est, 44° 20' 51.00'' Nord";"12202";;"12 BD FLAUGERGUES";"12000";"RODEZ";"Immeuble"; 26.0;"Etablissement de soins"
342402;2.40889;44.16500;"02° 24' 32.00'' Est, 44° 09' 54.00'' Nord";"12065";"PEYREGARDE";;"12120";"CENTRES";"Bâtiment"; 7.0;"ORANGE Services Fixes"
342679;3.01250;43.79833;"03° 00' 45.00'' Est, 43° 47' 54.00'' Nord";"12147";"NUÉJOULS";"BOIS DE CENOMES PRÈS PYLÔNE";"12360";"MONTAGNOL";"Mât"; 11.0;"TDF"
349788;2.88111;43.82278;"02° 52' 52.00'' Est, 43° 49' 22.00'' Nord";"12044";;"13, PL DE L'ÉGLISE";"12360";"CAMARES";"Monument religieux"; 35.8;"Commune, communauté de commune"
366026;2.60528;44.60417;"02° 36' 19.00'' Est, 44° 36' 15.00'' Nord";"12110";;"VANNE DE TÊTE DE GOLINHAC";"12140";"GOLINHAC";"Mât"; 4.0;"Particulier"
366028;2.59194;44.66722;"02° 35' 31.00'' Est, 44° 40' 02.00'' Nord";"12048";"RAMES";"VANNE DE TÊTE DE LARDIT";"12460";"CAMPOURIEZ";"Pylône autostable"; 30.0;"EDF GDF"
366030;2.71694;44.65611;"02° 43' 01.00'' Est, 44° 39' 22.00'' Nord";"12156";;"CHEMÉE D'ÉQUILIBRE DE RIVIEYROL";"12210";"MONTPEYROUX";"Château d'eau - réservoir"; 30.0;
366034;2.66306;44.66222;"02° 39' 47.00'' Est, 44° 39' 44.00'' Nord";"12103";;"SELVE MAURY";"12140";"FLORENTIN-LA-CAPELLE";"Local technique"; 8.0;
366036;2.87250;44.50000;"02° 52' 21.00'' Est, 44° 30' 00.00'' Nord";"12124";"LA CITÉ";;"12500";"LASSOUTS";"Pylône autostable"; 8.0;"EDF GDF"
368214;2.42528;44.27389;"02° 25' 31.00'' Est, 44° 16' 26.00'' Nord";"12056";;"ST PAUL";"12160";"BARAQUEVILLE";"Pylône autostable"; 30.0;
370650;2.97917;44.02778;"02° 58' 45.00'' Est, 44° 01' 40.00'' Nord";"12243";"LA CAVE HAUTE";"CHEM RURAL";"12490";"SAINT-ROME-DE-CERNON";"Pylône autostable"; 24.0;"ORANGE"
388192;2.26333;44.52917;"02° 15' 48.00'' Est, 44° 31' 45.00'' Nord";"12013";;"3 R DU COLONEL FABIEN";"12110";"AUBIN";"Immeuble"; 25.0;"Titulaire programme Radio/TV"
388397;2.26278;44.52278;"02° 15' 46.00'' Est, 44° 31' 22.00'' Nord";"12013";"CITÉ DE DUC";;"12110";"AUBIN";"Mât"; 9.0;"Titulaire programme Radio/TV"
388489;2.21889;44.57722;"02° 13' 08.00'' Est, 44° 34' 38.00'' Nord";"12028";"MILLAGUES";;"12300";"BOISSE-PENCHOT";"Mât"; 4.0;"Titulaire programme Radio/TV"
401060;2.96056;43.76472;"02° 57' 38.00'' Est, 43° 45' 53.00'' Nord";"12039";;"MAURISSOL";"12360";"BRUSQUE";"Mât"; 11.0;"ORANGE"
412850;2.94778;43.80750;"02° 56' 52.00'' Est, 43° 48' 27.00'' Nord";"12099";"CABOT";;"12360";"FAYET";"Pylône tubulaire"; 7.0;"ORANGE Services Fixes"
412852;2.93778;43.81389;"02° 56' 16.00'' Est, 43° 48' 50.00'' Nord";"12274";;"PIC DE ROSTE";"12360";"SYLVANES";"Bâtiment"; 4.0;"TDF"
422098;2.98556;44.63167;"02° 59' 08.00'' Est, 44° 37' 54.00'' Nord";"12214";"ROYAL AUBRAC";"HAUT DES PISTES DE SKI";"12470";"SAINT-CHELY-D'AUBRAC";"Mât"; 5.0;"ORANGE Services Fixes"
425920;2.76000;44.06528;"02° 45' 36.00'' Est, 44° 03' 55.00'' Nord";"12284";"PUECH DE CASSAGNE";"VANNE DE TÊTE DU POUGET";"12430";"LE TRUEL";"Pylône autostable"; 20.0;"EDF GDF"
431486;3.05500;44.08667;"03° 03' 18.00'' Est, 44° 05' 12.00'' Nord";"12145";;"407 AV DE L'EUROPE";"12100";"MILLAU";"Pylône tubulaire"; 24.0;"ORANGE"
440820;2.24833;44.19389;"02° 14' 54.00'' Est, 44° 11' 38.00'' Nord";"12278";"LES VIGNES";;"12440";"TAYRAC";"Pylône autostable"; 38.0;"FPS TOWERS"
441195;2.50194;44.24639;"02° 30' 07.00'' Est, 44° 14' 47.00'' Nord";"12043";"LE SÉRIEYS";"CHEM RURAL";"12450";"CALMONT";"Pylône autostable"; 35.0;"FPS TOWERS"
448696;2.87861;43.96722;"02° 52' 43.00'' Est, 43° 58' 02.00'' Nord";"12208";"SOMMET DES CAZES";;"12400";"SAINT-AFFRIQUE";"Pylône autostable"; 37.0;"TDF"
448710;2.90361;43.95889;"02° 54' 13.00'' Est, 43° 57' 32.00'' Nord";"12208";"LA QUILLE";"PUECH LOUDI";"12400";"SAINT-AFFRIQUE";"Pylône autostable"; 21.0;"TDF"
448717;2.04750;44.33667;"02° 02' 51.00'' Est, 44° 20' 12.00'' Nord";"12300";"LE BREIL";"COMBE SALÈS";"12200";"VILLEFRANCHE-DE-ROUERGUE";"Pylône autostable"; 44.5;"TDF"
448832;3.10139;44.11000;"03° 06' 05.00'' Est, 44° 06' 36.00'' Nord";"12145";"PUNCHO D'AGAST";;"12100";"MILLAU";"Pylône autostable"; 45.3;"TDF"
449375;2.56778;43.84111;"02° 34' 04.00'' Est, 43° 50' 28.00'' Nord";"12152";;"ROUTE DE LACAUNE ZONE ARTISANALE DU CHÂTEAU D'EAU";"12380";"MONTFRANC";"Pylône autostable"; 12.0;"Particulier"
449379;3.26361;43.90472;"03° 15' 49.00'' Est, 43° 54' 17.00'' Nord";"12082";"LA BARAQUE DES INFRUTS";;"12230";"LA COUVERTOIRADE";"Bâtiment"; 11.0;"Société Privée SA"
450055;3.03222;44.30972;"03° 01' 56.00'' Est, 44° 18' 35.00'' Nord";"12126";"PUECH DE CAPDENAT";;"12150";"LAVERNHE";"Pylône autostable"; 29.0;"TDF"
450081;3.08306;44.08111;"03° 04' 59.00'' Est, 44° 04' 52.00'' Nord";"12145";"LES COMBETS";;"12100";"MILLAU";"Pylône haubané"; 20.0;"Société Privée SA"
450225;2.92556;44.66583;"02° 55' 32.00'' Est, 44° 39' 57.00'' Nord";"12088";"PUECH DU ROUSSILLON";"STATION DE SKI DE LAGUIOLE";"12210";"CURIERES";"Pylône autostable"; 32.0;"Conseil Général"
450527;2.04806;44.33667;"02° 02' 53.00'' Est, 44° 20' 12.00'' Nord";"12300";"LE BREIL";;"12200";"VILLEFRANCHE-DE-ROUERGUE";"Pylône autostable"; 35.0;"Société Privée SA"
450531;2.55833;44.34056;"02° 33' 30.00'' Est, 44° 20' 26.00'' Nord";"12174";"PASSAGE CROUZET";"R DU CHÂTEAU";"12510";"OLEMPS";"Château d'eau - réservoir"; 54.0;"Société Privée SA"
451332;2.26611;44.56222;"02° 15' 58.00'' Est, 44° 33' 44.00'' Nord";"12089";"VIVIOLES";;"12300";"DECAZEVILLE";"Pylône autostable"; 47.0;"TDF"
452077;2.74639;44.49333;"02° 44' 47.00'' Est, 44° 29' 36.00'' Nord";"12096";"LA COMBE";"RD 28";"12500";"ESPALION";"Pylône autostable"; 39.0;"TDF"
458332;2.88722;43.95889;"02° 53' 14.00'' Est, 43° 57' 32.00'' Nord";"12208";;"23 PL. DE LA LIBERTÉ";"12400";"SAINT-AFFRIQUE";"Bâtiment"; 20.0;"Copropriété, Syndic, SCI"
458563;2.56028;44.33917;"02° 33' 37.00'' Est, 44° 20' 21.00'' Nord";"12174";"LA MOULINE";;"12510";"OLEMPS";"Pylône autostable"; 38.5;"TDF"
458571;2.25278;44.52472;"02° 15' 10.00'' Est, 44° 31' 29.00'' Nord";"12013";"LA SOULIERE";;"12110";"AUBIN";"Pylône autostable"; 34.0;"TDF"
458591;2.76250;44.51583;"02° 45' 45.00'' Est, 44° 30' 57.00'' Nord";"12096";"RUÉJOULS";;"12500";"ESPALION";"Pylône autostable"; 29.0;"TDF"
459102;2.85639;44.11806;"02° 51' 23.00'' Est, 44° 07' 05.00'' Nord";"12153";"PLATEAU DE LEVEZOU";"CANDADES";"12490";"MONTJAUX";"Pylône haubané"; 104.0;"TDF"
459106;2.58583;44.34917;"02° 35' 09.00'' Est, 44° 20' 57.00'' Nord";"12146";"BANOCRES";"MONASTÈRE(LE)";"12000";"LE MONASTERE";"Pylône autostable"; 28.0;"TDF"
459767;3.10306;44.11028;"03° 06' 11.00'' Est, 44° 06' 37.00'' Nord";"12145";"POUNCHO D'AGAST";"PYLÔNE EDF";"12100";"MILLAU";"Pylône autostable"; 25.0;"EDF GDF"
461474;2.57611;44.34944;"02° 34' 34.00'' Est, 44° 20' 58.00'' Nord";"12202";;"PL EUGENE RAYNALDY";"12000";"RODEZ";"Immeuble"; 15.0;"Commune, communauté de commune"
462389;2.42611;44.28667;"02° 25' 34.00'' Est, 44° 17' 12.00'' Nord";"12056";"MARENGO";"PRÈS D911";"12160";"BARAQUEVILLE";"Pylône autostable"; 48.0;"FPS TOWERS"
462634;2.08556;44.57806;"02° 05' 08.00'' Est, 44° 34' 41.00'' Nord";"12052";"LES TAILLADES";;"12700";"CAPDENAC-GARE";"Pylône autostable"; 39.4;"TDF"
463574;2.60917;44.40333;"02° 36' 33.00'' Est, 44° 24' 12.00'' Nord";"12264";"LES MISSOULIEZ";"CHEM PUECH DEL PAL";"12740";"SEBAZAC-CONCOURES";"Pylône autostable"; 34.0;"TDF"
464621;2.51639;44.39806;"02° 30' 59.00'' Est, 44° 23' 53.00'' Nord";"12254";"LA CAYROULIE";;"12330";"SALLES-LA-SOURCE";"Pylône autostable"; 39.4;"TDF"
465135;2.38389;44.60000;"02° 23' 02.00'' Est, 44° 36' 00.00'' Nord";"12076";"COSTE DE FUMAT";"CHEM RURAL DE LA VC1 AUX ANGLES";"12320";"CONQUES";"Pylône tubulaire"; 12.0;"SFR"
466749;2.82944;44.31444;"02° 49' 46.00'' Est, 44° 18' 52.00'' Nord";"12010";"COSTE FREGE";"PRÈS DÉPARTEMENTALE 95";"12290";"ARQUES";"Pylône autostable"; 26.2;"TDF"
467925;2.57778;44.38250;"02° 34' 40.00'' Est, 44° 22' 57.00'' Nord";"12176";;"LES COSTES ROUGES";"12850";"ONET-LE-CHATEAU";"Château d'eau - réservoir"; 40.0;"Syndicat des eaux, Adduction"
468346;2.68083;44.15000;"02° 40' 51.00'' Est, 44° 08' 60.00'' Nord";"12006";;"LA COSTE";"12430";"ALRANCE";"Pylône autostable"; 32.0;"Conseil Général"
468356;2.65333;44.05667;"02° 39' 12.00'' Est, 44° 03' 24.00'' Nord";"12129";"LA TITALIE";"LA VERNHETTE";"12430";"LESTRADE-ET-THOUELS";"Pylône autostable"; 31.5;"Société Privée SA"
468360;2.68917;44.20111;"02° 41' 21.00'' Est, 44° 12' 04.00'' Nord";"12011";"PUECH DE GIRMAN";;"12120";"ARVIEU";"Pylône autostable"; 32.0;"Conseil Général"
468365;2.71056;43.95389;"02° 42' 38.00'' Est, 43° 57' 14.00'' Nord";"12228";"REBOURBES";;"12480";"SAINT-IZAIRE";"Pylône autostable"; 31.5;"Société Privée SA"
468370;2.49028;44.44028;"02° 29' 25.00'' Est, 44° 26' 25.00'' Nord";"12254";"CAUSSENUS";"GARE DE VANC";"12330";"SALLES-LA-SOURCE";"Pylône autostable"; 29.0;"TDF"
468374;2.75750;44.86389;"02° 45' 27.00'' Est, 44° 51' 50.00'' Nord";"12280";"JOU";"LE PASTURAL";"12600";"THERONDELS";"Pylône autostable"; 35.0;"Conseil Général"
468381;3.00139;44.41639;"03° 00' 05.00'' Est, 44° 24' 59.00'' Nord";"12247";"LES CLAUX DES RIVES";;"12560";"SAINT-SATURNIN-DE-LENNE";"Pylône autostable"; 33.0;"Société Privée SA"
468385;1.94806;44.35306;"01° 56' 53.00'' Est, 44° 21' 11.00'' Nord";"12263";"LA GARRIGUE";;"12200";"SAVIGNAC";"Pylône autostable"; 30.0;"TDF"
468393;2.16389;44.26861;"02° 09' 50.00'' Est, 44° 16' 07.00'' Nord";"12285";"LAUBIES";"D544";"12240";"VABRE-TIZAC";"Pylône autostable"; 37.0;"Société Privée SA"
468803;2.50056;44.58417;"02° 30' 02.00'' Est, 44° 35' 03.00'' Nord";"12268";"LA BESSIÈRE";;"12320";"SENERGUES";"Pylône autostable"; 32.0;"Conseil Général"
468837;2.79278;44.48528;"02° 47' 34.00'' Est, 44° 29' 07.00'' Nord";"12106";"LES ROUQUETS";"LE FRAYSSE STATION HERTZIENNE";"12340";"GABRIAC";"Pylône autostable"; 44.0;"ORANGE Services Fixes"
468850;2.85028;44.67333;"02° 51' 01.00'' Est, 44° 40' 24.00'' Nord";"12119";"LE CLAUX";;"12210";"LAGUIOLE";"Pylône autostable"; 42.0;"ORANGE"
472164;2.88750;44.34556;"02° 53' 15.00'' Est, 44° 20' 44.00'' Nord";"12107";;"BOIS DE LISSIROU";"12310";"GAILLAC-D'AVEYRON";"Pylône autostable"; 50.5;"TDF"
472227;2.47194;44.28472;"02° 28' 19.00'' Est, 44° 17' 05.00'' Nord";"12056";"LE LAC";;"12160";"BARAQUEVILLE";"Pylône autostable"; 48.0;"ORANGE Services Fixes"
473798;3.05806;44.13083;"03° 03' 29.00'' Est, 44° 07' 51.00'' Nord";"12145";"LA MARTINERIE";"RTE DE ST-GERMAIN";"12100";"MILLAU";"Pylône autostable"; 30.0;"ORANGE Services Fixes"
478172;2.53889;44.37583;"02° 32' 20.00'' Est, 44° 22' 33.00'' Nord";"12202";;"R DES CHARPENTIER";"12000";"RODEZ";"Bâtiment"; 15.0;"Particulier"
479173;2.15111;44.56778;"02° 09' 04.00'' Est, 44° 34' 04.00'' Nord";"12012";"LES TERRIERS";;"12700";"ASPRIERES";"Mât"; 12.0;"Société Privée SA"
479187;3.03806;44.00500;"03° 02' 17.00'' Est, 44° 00' 18.00'' Nord";"12022";;"ST-PIERRE-DE-GOURGEAS";"12490";"LA BASTIDE-PRADINES";"Mât"; 12.0;"Société Privée SA"
479197;3.12972;44.19306;"03° 07' 47.00'' Est, 44° 11' 35.00'' Nord";"12200";"VILLENEUVE";;"12640";"RIVIERE-SUR-TARN";"Mât"; 12.0;"Société Privée SA"
479201;2.79306;44.67556;"02° 47' 35.00'' Est, 44° 40' 32.00'' Nord";"12273";;"LE BOURG";"12210";"SOULAGES-BONNEVAL";"Mât"; 12.0;"Société Privée SA"
479217;2.09722;44.28528;"02° 05' 50.00'' Est, 44° 17' 07.00'' Nord";"12245";"ABOURIOUX";;"12200";"SAINT-SALVADOU";"Mât"; 12.0;"Société Privée SA"
479337;2.20028;44.55861;"02° 12' 01.00'' Est, 44° 33' 31.00'' Nord";"12003";"GABRIAC";;"12220";"LES ALBRES";"Pylône autostable"; 31.0;"Société Privée SA"
479341;3.08222;44.08111;"03° 04' 56.00'' Est, 44° 04' 52.00'' Nord";"12145";"LES COMBRETS DU LARZAC";;"12100";"MILLAU";"Pylône autostable"; 36.0;"SDIS, secours, incendie"
479433;2.21194;44.43111;"02° 12' 43.00'' Est, 44° 25' 52.00'' Nord";"12008";;"LA BARTHE GRANDE BASSE";"12390";"ANGLARS-SAINT-FELIX";"Pylône autostable"; 25.0;"Société Privée SA"
479440;2.98222;43.97528;"02° 58' 56.00'' Est, 43° 58' 31.00'' Nord";"12203";"LE COMBALOU";;"12250";"ROQUEFORT-SUR-SOULZON";"Pylône autostable"; 12.0;"Société Privée SA"
480543;2.35194;44.28000;"02° 21' 07.00'' Est, 44° 16' 48.00'' Nord";"12059";;"SARDIÈRES";"12240";"CASTANET";"Mât"; 12.0;"Société Privée SA"
480574;2.64972;44.75639;"02° 38' 59.00'' Est, 44° 45' 23.00'' Nord";"12118";;"FRAYSSE";"12600";"LACROIX-BARREZ";"Pylône autostable"; 32.0;"Société Privée SA"
480584;2.78667;44.05028;"02° 47' 12.00'' Est, 44° 03' 01.00'' Nord";"12251";"LE SEGALA";"MELVIEU";"12400";"SAINT-VICTOR-ET-MELVIEU";"Pylône autostable"; 32.0;"Société Privée SA"
480588;2.50111;44.63639;"02° 30' 04.00'' Est, 44° 38' 11.00'' Nord";"12097";;"LA PORTONNERIE";"12140";"ESPEYRAC";"Pylône autostable"; 33.0;"Conseil Général"
480596;2.23583;44.38000;"02° 14' 09.00'' Est, 44° 22' 48.00'' Nord";"12190";"LE GARRIGUET";"LE PUECH";"12350";"PREVINQUIERES";"Pylône autostable"; 38.0;"Conseil Général"
480600;2.29222;44.16333;"02° 17' 32.00'' Est, 44° 09' 48.00'' Nord";"12085";"LE PLÔ";;"12800";"CRESPIN";"Mât métallique"; 12.0;"Société Privée SA"
480612;2.37972;44.12917;"02° 22' 47.00'' Est, 44° 07' 45.00'' Nord";"12235";;"LA CALMÉSIE";"12170";"SAINT-JUST-SUR-VIAUR";"Pylône autostable"; 20.0;"TDF"
480616;2.08667;44.44111;"02° 05' 12.00'' Est, 44° 26' 28.00'' Nord";"12227";"LES ESCALOUS";;"12260";"SAINT-IGEST";"Mât métallique"; 12.0;"Société Privée SA"
480627;2.28917;44.62556;"02° 17' 21.00'' Est, 44° 37' 32.00'' Nord";"12240";"ALTASSÈRE BASSE";;"12300";"SAINT-PARTHEM";"Pylône autostable"; 36.0;"Conseil Général"
480711;2.68639;43.91333;"02° 41' 11.00'' Est, 43° 54' 48.00'' Nord";"12233";"LE MAS DE BOUSQUET";;"12550";"SAINT-JUERY";"Pylône autostable"; 33.0;"Société Privée SA"
480715;2.61500;43.99056;"02° 36' 54.00'' Est, 43° 59' 26.00'' Nord";"12149";"PALARET";"PROCHE RÉSERVOIR D'EAU ET STATION MÉTÉO";"12550";"MONTCLAR";"Pylône autostable"; 25.0;"Conseil Général"
480747;2.23194;44.31778;"02° 13' 55.00'' Est, 44° 19' 04.00'' Nord";"12198";"CHAPELLE DE RIEUPEYROUX";"FON DE ST-JEAN";"12240";"RIEUPEYROUX";"Pylône autostable"; 25.0;"Société Privée SA"
481202;2.39361;44.53833;"02° 23' 37.00'' Est, 44° 32' 18.00'' Nord";"12218";"ROQUEFORT";;"12320";"SAINT-CYPRIEN-SUR-DOURDOU";"Mât"; 12.0;"Société Privée SA"
482231;2.79222;44.49000;"02° 47' 32.00'' Est, 44° 29' 24.00'' Nord";"12106";"LA FRAYSSE";;"12340";"GABRIAC";"Pylône autostable"; 32.0;"TDF"
482491;2.48750;44.50250;"02° 29' 15.00'' Est, 44° 30' 09.00'' Nord";"12161";"LA PAUSE";"PYLONE TDF";"12330";"MOURET";"Pylône autostable"; 19.0;"TDF"
484174;2.56222;44.66417;"02° 33' 44.00'' Est, 44° 39' 51.00'' Nord";"12094";"GINOLHAC";"LE ROUQUET PRÈS D188";"12140";"ENTRAYGUES-SUR-TRUYERE";"Pylône autostable"; 33.0;"TDF"
484481;3.23694;43.88333;"03° 14' 13.00'' Est, 43° 52' 60.00'' Nord";"12077";;"LE CLAUX";"12540";"CORNUS";"Mât"; 12.0;"Société Privée SA"
484483;2.63472;44.63111;"02° 38' 05.00'' Est, 44° 37' 52.00'' Nord";"12103";"GARRILLAGUET";;"12140";"FLORENTIN-LA-CAPELLE";"Mât"; 12.0;"Société Privée SA"
484493;2.61389;43.94111;"02° 36' 50.00'' Est, 43° 56' 28.00'' Nord";"12141";;"COUDAUYROLLES";"12550";"MARTRIN";"Mât"; 12.0;"Société Privée SA"
484495;2.74222;44.65056;"02° 44' 32.00'' Est, 44° 39' 02.00'' Nord";"12156";"LA DEVÈZE";"VOIE COMMUNALE";"12210";"MONTPEYROUX";"Mât"; 12.0;"Société Privée SA"
484499;1.94333;44.45528;"01° 56' 36.00'' Est, 44° 27' 19.00'' Nord";"12175";;"MIRABEL";"12260";"OLS-ET-RINHODES";"Mât"; 15.0;"Société Privée SA"
484507;2.81278;44.29111;"02° 48' 46.00'' Est, 44° 17' 28.00'' Nord";"12266";;"LE MONT";"12290";"SEGUR";"Mât"; 15.0;"Société Privée SA"
484511;2.73278;44.73667;"02° 43' 58.00'' Est, 44° 44' 12.00'' Nord";"12250";"LA MAUVE";;"12460";"SAINT-SYMPHORIEN-DE-THENIERES";"Mât"; 12.0;"Société Privée SA"
484513;3.05806;44.20417;"03° 03' 29.00'' Est, 44° 12' 15.00'' Nord";"12291";;"LES FIOUS";"12520";"VERRIERES";"Mât"; 12.0;"Société Privée SA"
484515;2.74139;44.55222;"02° 44' 29.00'' Est, 44° 33' 08.00'' Nord";"12079";"LABRO";;"12190";"COUBISOU";"Mât"; 12.0;"Société Privée SA"
484517;3.30056;44.18083;"03° 18' 02.00'' Est, 44° 10' 51.00'' Nord";"12293";;"CADÉNAS";"12720";"VEYREAU";"Mât"; 12.0;"Société Privée SA"
484519;2.03583;44.49556;"02° 02' 09.00'' Est, 44° 29' 44.00'' Nord";"12257";"LES GRÈZES";;"12700";"CAUSSE-ET-DIEGE";"Mât"; 15.0;"Société Privée SA"
484521;2.61611;44.75417;"02° 36' 58.00'' Est, 44° 45' 15.00'' Nord";"12226";;"VAURS";"12140";"SAINT-HIPPOLYTE";"Mât"; 12.0;"Société Privée SA"
484523;2.62111;43.79667;"02° 37' 16.00'' Est, 43° 47' 48.00'' Nord";"12125";;"LACLAPARÈDE";"12380";"LAVAL-ROQUECEZIERE";"Mât"; 12.0;"Société Privée SA"
485072;2.42417;44.27417;"02° 25' 27.00'' Est, 44° 16' 27.00'' Nord";"12056";"ARBRE DE LA GARDE";"PYL SDIS";"12160";"BARAQUEVILLE";"Pylône autostable"; 30.0;"SDIS, secours, incendie"
485518;3.08306;44.43000;"03° 04' 59.00'' Est, 44° 25' 48.00'' Nord";"12047";"LE VERDIER";"LA RODE";"12560";"CAMPAGNAC";"Pylône autostable"; 32.0;"Société Privée SA"
485522;2.88500;43.89694;"02° 53' 06.00'' Est, 43° 53' 49.00'' Nord";"12109";"PUECH BALIE";;"12360";"GISSAC";"Pylône autostable"; 30.0;"ORANGE Services Fixes"
485534;2.79222;44.48472;"02° 47' 32.00'' Est, 44° 29' 05.00'' Nord";"12106";"PUECH DE LA FRAYSSE";;"12340";"GABRIAC";"Pylône autostable"; 40.0;"Société Privée SA"
485562;2.69972;43.78500;"02° 41' 59.00'' Est, 43° 47' 06.00'' Nord";"12249";"PUECH DE SALELLES";"LE LAUZIÉ PYLONE TDF";"12370";"SAINT-SEVER-DU-MOUSTIER";"Pylône autostable"; 20.0;"TDF"
485834;3.03000;44.45778;"03° 01' 48.00'' Est, 44° 27' 28.00'' Nord";"12055";"LES GASTOUSES";;"12130";"LA CAPELLE-BONANCE";"Pylône autostable"; 33.0;"Société Privée SA"
485844;2.68889;43.84194;"02° 41' 20.00'' Est, 43° 50' 31.00'' Nord";"12069";"SARBAUTE";;"12370";"COMBRET";"Pylône autostable"; 34.0;"Société Privée SA"
485853;3.38444;43.99611;"03° 23' 04.00'' Est, 43° 59' 46.00'' Nord";"12231";"LA COMBE";"LES CAUBELS";"12230";"SAINT-JEAN-DU-BRUEL";"Pylône autostable"; 38.0;"Conseil Général"
485857;2.56833;43.91083;"02° 34' 06.00'' Est, 43° 54' 39.00'' Nord";"12183";"LA ROUQUETTE";;"12550";"PLAISANCE";"Pylône autostable"; 30.0;"Conseil Général"
486146;2.72083;44.33389;"02° 43' 15.00'' Est, 44° 20' 02.00'' Nord";"12297";;"BARRY";"12290";"LE VIBAL";"Pylône tubulaire"; 25.0;"Etat, Ministère"
494674;2.57750;44.35083;"02° 34' 39.00'' Est, 44° 21' 03.00'' Nord";"12202";;"20 BD DE LA REPUBLIQUE PALAIS DES CONGRÈS - CCI";"12000";"RODEZ";"Bâtiment"; 32.0;"CCI,Ch Metiers,Port Aut,Aérop"
498804;3.19944;43.98389;"03° 11' 58.00'' Est, 43° 59' 02.00'' Nord";"12063";;"PEYRE CRASSOUZE LE CAVET";"12230";"LA CAVALERIE";"Pylône autostable"; 14.0;"TDF"
502091;2.96944;44.25611;"02° 58' 10.00'' Est, 44° 15' 22.00'' Nord";"12238";;"LE BOUSQUET";"12780";"SAINT-LEONS";"Mât"; 12.0;"Société Privée SA"
502662;3.03889;44.55500;"03° 02' 20.00'' Est, 44° 33' 18.00'' Nord";"12014";"LE SUC";"LES CARTEYROUX PIC DU SUC";"12130";"AURELLE-VERLAC";"Pylône autostable"; 30.0;"DDE"
503686;2.04250;44.34750;"02° 02' 33.00'' Est, 44° 20' 51.00'' Nord";"12300";;"MACAROU";"12200";"VILLEFRANCHE-DE-ROUERGUE";"Pylône autostable"; 33.0;"TDF"
504405;2.55583;44.30056;"02° 33' 21.00'' Est, 44° 18' 02.00'' Nord";"12133";"LE BARACOU - LA PRIMAUDE";;"12450";"LUC";"Pylône autostable"; 50.0;"Towercast"
505083;2.45750;44.46889;"02° 27' 27.00'' Est, 44° 28' 08.00'' Nord";"12138";;"VC 7 DE ROQUES À LA GARE DE MARCILLAC ENTRÉE DU TUNNEL";"12330";"MARCILLAC-VALLON";"Pylône autostable"; 17.0;"TDF"
505287;2.67194;44.34139;"02° 40' 19.00'' Est, 44° 20' 29.00'' Nord";"12001";;"ISSANCHOU BAS";"12630";"AGEN-D'AVEYRON";"Pylône autostable"; 42.0;"TDF"
505467;2.42639;44.47139;"02° 25' 35.00'' Est, 44° 28' 17.00'' Nord";"12215";;"LE CAYLARET PYLÔNE TDF";"12330";"SAINT-CHRISTOPHE-VALLON";"Pylône autostable"; 30.0;"TDF"
506017;2.65972;44.51806;"02° 39' 35.00'' Est, 44° 31' 05.00'' Nord";"12265";"FALGUIÈRES";;"12190";"SEBRAZAC";"Mât"; 12.0;"Société Privée SA"
506021;2.27694;44.49444;"02° 16' 37.00'' Est, 44° 29' 40.00'' Nord";"12016";;"LAUZERAL";"12390";"AUZITS";"Mât"; 12.0;"Société Privée SA"
507478;2.76111;44.71528;"02° 45' 40.00'' Est, 44° 42' 55.00'' Nord";"12116";;"LE BOURG";"12460";"HUPARLAC";"Mât"; 12.0;"Société Privée SA"
507480;3.12917;43.99333;"03° 07' 45.00'' Est, 43° 59' 36.00'' Nord";"12220";;"PUECH DE MUS";"12230";"SAINTE-EULALIE-DE-CERNON";"Mât"; 12.0;"Société Privée SA"
510003;2.65639;43.90639;"02° 39' 23.00'' Est, 43° 54' 23.00'' Nord";"12269";;"ST CHRISTOPHE";"12380";"LA SERRE";"Pylône tubulaire"; 10.0;"Particulier"
510007;2.32111;44.47556;"02° 19' 16.00'' Est, 44° 28' 32.00'' Nord";"12016";;"CAVECOMBE ESCANDOLIERES";"12390";"AUZITS";"Pylône tubulaire"; 18.0;"EDF GDF"
510107;2.93806;43.87111;"02° 56' 17.00'' Est, 43° 52' 16.00'' Nord";"12109";;"PUECH DE MOURAY";"12360";"GISSAC";"Pylône tubulaire"; 33.0;"Gendarmerie"
510117;3.10389;44.26278;"03° 06' 14.00'' Est, 44° 15' 46.00'' Nord";"12270";"LA DEVEZE NOVIS";"PYLONE EDF GDF";"12150";"SEVERAC-LE-CHATEAU";"Pylône tubulaire"; 22.0;"EDF GDF"
510670;2.10111;44.53417;"02° 06' 04.00'' Est, 44° 32' 03.00'' Nord";"12272";"LE CHÂTEAU";;"12700";"SONNAC";"Mât"; 15.0;"Société Privée SA"
510714;2.56472;44.62694;"02° 33' 53.00'' Est, 44° 37' 37.00'' Nord";"12110";"PUECH DE SOULOUSE";"CHEM RURAL";"12140";"GOLINHAC";"Pylône autostable"; 35.0;"SFR"
512298;2.56361;44.29083;"02° 33' 49.00'' Est, 44° 17' 27.00'' Nord";"12133";;"R LE BUISSONNET";"12450";"LUC";"Château d'eau - réservoir"; 33.3;"Syndicat des eaux, Adduction"
512382;3.08167;44.08139;"03° 04' 54.00'' Est, 44° 04' 53.00'' Nord";"12145";"LES COMBETS";"GR 71 D - TOUR DU LARZAC";"12100";"MILLAU";"Pylône autostable"; 40.0;"SFR"
513594;2.94222;44.53611;"02° 56' 32.00'' Est, 44° 32' 10.00'' Nord";"12187";"ROUSTIGOREN";;"12470";"PRADES-D'AUBRAC";"Pylône autostable"; 38.0;"ORANGE Services Fixes"
513732;2.66361;44.69000;"02° 39' 49.00'' Est, 44° 41' 24.00'' Nord";"12209";"LE BOURG";"RELAIS HERTZIEN, V.C. N° 11";"12460";"SAINT-AMANS-DES-COTS";"Pylône autostable"; 28.0;"ORANGE Services Fixes"
514309;1.92861;44.49306;"01° 55' 43.00'' Est, 44° 29' 35.00'' Nord";"12007";"SUC DE RUILHE";;"12260";"AMBEYRAC";"Pylône autostable"; 21.0;"Conseil Général"
515656;2.79056;44.58500;"02° 47' 26.00'' Est, 44° 35' 06.00'' Nord";"12064";"RTE DE BARRUGUES";"RTE DE BARRUGUES";"12500";"LE CAYROL";"Pylône autostable"; 38.0;"ORANGE Services Fixes"
516059;2.73389;44.49972;"02° 44' 02.00'' Est, 44° 29' 59.00'' Nord";"12096";"NAJAS";"D.920";"12500";"ESPALION";"Pylône autostable"; 30.0;"ORANGE"
519217;2.66000;44.31861;"02° 39' 36.00'' Est, 44° 19' 07.00'' Nord";"12241";"ROQUEMOULIÈRE";;"12850";"SAINTE-RADEGONDE";"Mât"; 12.0;"Altitude Telecom"
519219;2.43861;44.37278;"02° 26' 19.00'' Est, 44° 22' 22.00'' Nord";"12090";"CÉSARS";;"12150";"DRUELLE";"Mât"; 12.0;"Altitude Telecom"
519389;3.38444;43.99528;"03° 23' 04.00'' Est, 43° 59' 43.00'' Nord";"12231";"LAVAUR";;"12230";"SAINT-JEAN-DU-BRUEL";"Pylône autostable"; 36.0;"Société Privée SA"
519666;2.00806;44.25194;"02° 00' 29.00'' Est, 44° 15' 07.00'' Nord";"12105";"COMBE NÈGRE";;"12270";"LA FOUILLADE";"Mât béton"; 8.0;"ORANGE Services Fixes"
519668;1.99833;44.28694;"01° 59' 54.00'' Est, 44° 17' 13.00'' Nord";"12150";"FLOIRAC";"AUTOCOM";"12200";"MONTEILS";"Mât métallique"; 6.0;"ORANGE Services Fixes"
520144;2.68972;44.77889;"02° 41' 23.00'' Est, 44° 46' 44.00'' Nord";"12036";;"POSTE EDF PCG - RUEYRES";"12600";"BROMMAT";"Mât"; 27.0;"EDF GDF"
520269;2.56583;43.84417;"02° 33' 57.00'' Est, 43° 50' 39.00'' Nord";"12152";"LE BOURG";;"12380";"MONTFRANC";"Mât"; 15.0;"Société Privée SA"
521520;1.99139;44.26111;"01° 59' 29.00'' Est, 44° 15' 40.00'' Nord";"12150";"MOLOYRES";"GR 36";"12200";"MONTEILS";"Pylône autostable"; 30.0;"Conseil Général"
521533;2.65278;44.72611;"02° 39' 10.00'' Est, 44° 43' 34.00'' Nord";"12151";;"DIGUE DE MONNES";"12460";"MONTEZIC";"Pylône tubulaire"; 30.0;"EDF GDF"
522953;1.99139;44.21278;"01° 59' 29.00'' Est, 44° 12' 46.00'' Nord";"12167";;"LES HAUTS DE NAJAC";"12270";"NAJAC";"Mât"; 15.0;"Société Privée SA"
526605;2.27444;44.36611;"02° 16' 28.00'' Est, 44° 21' 58.00'' Nord";"12190";"LE PUECH";;"12350";"PREVINQUIERES";"Mât"; 12.0;"Société Privée SA"
526609;3.03417;43.92250;"03° 02' 03.00'' Est, 43° 55' 21.00'' Nord";"12232";"CAUSSANUS";;"12250";"SAINT-JEAN-ET-SAINT-PAUL";"Mât"; 18.0;"Société Privée SA"
526611;2.04194;44.39639;"02° 02' 31.00'' Est, 44° 23' 47.00'' Nord";"12242";;"R DES SORBIERS";"12200";"SAINT-REMY";"Mât"; 12.0;"Société Privée SA"
526613;2.64083;44.39167;"02° 38' 27.00'' Est, 44° 23' 30.00'' Nord";"12131";;"ORTHOLÈS";"12740";"LA LOUBIERE";"Mât"; 12.0;"Société Privée SA"
526615;2.81944;44.14139;"02° 49' 10.00'' Est, 44° 08' 29.00'' Nord";"12253";"LES CANABIÈRES";;"12410";"SALLES-CURAN";"Mât"; 12.0;"Société Privée SA"
527380;2.58528;44.35944;"02° 35' 07.00'' Est, 44° 21' 34.00'' Nord";"12202";;"45 R JEAN XXIII";"12000";"RODEZ";"Immeuble"; 14.2;"Copropriété, Syndic, SCI"
529871;3.13361;44.08472;"03° 08' 01.00'' Est, 44° 05' 05.00'' Nord";"12145";"MAS NAU";"CHEM RURAL DU MAS DE BRU";"12100";"MILLAU";"Pylône autostable"; 13.0;"TDF"
530430;2.61722;44.66722;"02° 37' 02.00'' Est, 44° 40' 02.00'' Nord";"12094";"LE PARRO";;"12140";"ENTRAYGUES-SUR-TRUYERE";"Mât"; 12.0;"Société Privée SA"
531932;2.78417;44.76556;"02° 47' 03.00'' Est, 44° 45' 56.00'' Nord";"12112";"COURBANE";;"12420";"GRAISSAC";"Mât"; 12.0;"Société Privée SA"
532053;3.05417;44.25306;"03° 03' 15.00'' Est, 44° 15' 11.00'' Nord";"12291";"LA BARRAQUE DE LACOMBE";;"12520";"VERRIERES";"Pylône tubulaire"; 36.0;"ORANGE"
532063;3.05833;44.32000;"03° 03' 30.00'' Est, 44° 19' 12.00'' Nord";"12270";"LE MOULIN DE THIBAUT";"PROCHE DE LA RIVIÈRE L'AVEYRON PRÈS DE LA VOIX FERRÉE";"12150";"SEVERAC-LE-CHATEAU";"Pylône autostable"; 30.0;"ORANGE"
533425;2.03417;44.35583;"02° 02' 03.00'' Est, 44° 21' 21.00'' Nord";"12300";"LE TRICOT";"R EMILE BOREL";"12200";"VILLEFRANCHE-DE-ROUERGUE";"Immeuble"; 19.0;"Société HLM"
534966;2.31889;44.46472;"02° 19' 08.00'' Est, 44° 27' 53.00'' Nord";"12031";"LE FAU";"CHEM COMMUNAL DE BOURNAZEL";"12390";"BOURNAZEL";"Pylône autostable"; 39.0;"TDF"
538245;2.85667;44.11778;"02° 51' 24.00'' Est, 44° 07' 04.00'' Nord";"12153";"PLATEAU DE LEVEZOU";"CANDADES";"12490";"MONTJAUX";"Mât métallique"; 8.0;"TDF"
540383;2.61889;44.11278;"02° 37' 08.00'' Est, 44° 06' 46.00'' Nord";"12092";"DURENQUE";"ROUTE DE PONT DE SALARS À GAGES D 56";"12170";"DURENQUE";"Château d'eau - réservoir"; 23.0;"Commune, communauté de commune"
540727;2.54944;44.37083;"02° 32' 58.00'' Est, 44° 22' 15.00'' Nord";"12202";;"R BEL AIR ZA BEL AIR";"12000";"RODEZ";"Silo"; 15.0;"Particulier"
540731;2.17722;44.55361;"02° 10' 38.00'' Est, 44° 33' 13.00'' Nord";"12003";;"LA CHAPELETTE";"12220";"LES ALBRES";"Pylône autostable"; 15.0;"Particulier"
543761;2.55833;44.63639;"02° 33' 30.00'' Est, 44° 38' 11.00'' Nord";"12094";;"LA BORIETTE";"12140";"ENTRAYGUES-SUR-TRUYERE";"Pylône autostable"; 22.0;"Commune, communauté de commune"
543794;2.73361;44.83472;"02° 44' 01.00'' Est, 44° 50' 05.00'' Nord";"12036";;"PUECH DE SARRANS";"12600";"BROMMAT";"Pylône autostable"; 15.0;"Commune, communauté de commune"
543831;2.81806;43.95056;"02° 49' 05.00'' Est, 43° 57' 02.00'' Nord";"12208";;"PEYRALBE";"12400";"SAINT-AFFRIQUE";"Pylône autostable"; 22.0;"Commune, communauté de commune"
543843;2.90944;44.47083;"02° 54' 34.00'' Est, 44° 28' 15.00'' Nord";"12219";"LE PEYRASTRE";"PUECH DE BANES";"12130";"SAINTE-EULALIE-D'OLT";"Pylône autostable"; 23.0;"TDF"
543941;2.22083;44.54250;"02° 13' 15.00'' Est, 44° 32' 33.00'' Nord";"12013";;"AGARD";"12110";"AUBIN";"Pylône tubulaire"; 17.0;"TDF"
543957;2.96639;44.45778;"02° 57' 59.00'' Est, 44° 27' 28.00'' Nord";"12224";"BELAIR";;"12130";"SAINT-GENIEZ-D'OLT";"Pylône autostable"; 18.0;"TDF"
543976;2.25028;44.53722;"02° 15' 01.00'' Est, 44° 32' 14.00'' Nord";"12013";;"BOIS COURONNE";"12110";"AUBIN";"Pylône autostable"; 30.0;"TDF"
544567;3.13833;44.20694;"03° 08' 18.00'' Est, 44° 12' 25.00'' Nord";"12200";"PUECH DE FONTANEILLES";"PLATEAU DE FONTANEILLES";"12640";"RIVIERE-SUR-TARN";"Mât béton"; 18.0;"Commune, communauté de commune"
545318;2.21056;44.55833;"02° 12' 38.00'' Est, 44° 33' 30.00'' Nord";"12305";;"MAS DEL BOSC";"12110";"VIVIEZ";"Pylône autostable"; 20.0;"TDF"
545714;2.54889;44.54694;"02° 32' 56.00'' Est, 44° 32' 49.00'' Nord";"12161";"MAS HAUT";"LE PUECH  DE POLISSAL";"12330";"MOURET";"Pylône autostable"; 25.0;"TDF"
546921;3.12778;44.39778;"03° 07' 40.00'' Est, 44° 23' 52.00'' Nord";"12047";"LE CLAUX HAUT";;"12560";"CAMPAGNAC";"Pylône autostable"; 50.0;"SFR"
547255;2.38306;44.59972;"02° 22' 59.00'' Est, 44° 35' 59.00'' Nord";"12076";"COSTES DE FUMAT";;"12320";"CONQUES";"Mât"; 3.5;"ORANGE"
548191;2.90417;43.95889;"02° 54' 15.00'' Est, 43° 57' 32.00'' Nord";"12208";"PUECH LOUDI";;"12400";"SAINT-AFFRIQUE";"Pylône autostable"; 35.0;"Towercast"
548668;3.07278;44.11028;"03° 04' 22.00'' Est, 44° 06' 37.00'' Nord";"12145";;"64 AV CHARLES DE GAULLE";"12100";"MILLAU";"Bâtiment"; 25.0;"ORANGE Services Fixes"
549168;2.81778;43.95028;"02° 49' 04.00'' Est, 43° 57' 01.00'' Nord";"12208";"PEYRALBE";"PRÈS D 117";"12400";"SAINT-AFFRIQUE";"Pylône autostable"; 16.0;"Towercast"
549821;2.98000;44.46278;"02° 58' 48.00'' Est, 44° 27' 46.00'' Nord";"12224";"LA GLACIÈRE";;"12130";"SAINT-GENIEZ-D'OLT";"Pylône autostable"; 30.0;"ORANGE"
550384;3.14083;44.20056;"03° 08' 27.00'' Est, 44° 12' 02.00'' Nord";"12200";;"FONTANEILLES FORÊT DOMANIALE DE RIVIÉRE SUR TARN";"12640";"RIVIERE-SUR-TARN";"Pylône autostable"; 19.0;"Commune, communauté de commune"
550486;2.22556;44.60389;"02° 13' 32.00'' Est, 44° 36' 14.00'' Nord";"12130";;"LE THABOR";"12300";"LIVINHAC-LE-HAUT";"Pylône autostable"; 27.0;"TDF"
550504;2.87889;43.93000;"02° 52' 44.00'' Est, 43° 55' 48.00'' Nord";"12208";;"VENDELOVES";"12400";"SAINT-AFFRIQUE";"Pylône autostable"; 15.0;"Commune, communauté de commune"
550516;2.88500;43.89694;"02° 53' 06.00'' Est, 43° 53' 49.00'' Nord";"12109";;"LE ROUQUET";"12360";"GISSAC";"Pylône autostable"; 24.0;"TDF"
552422;2.74583;44.79917;"02° 44' 45.00'' Est, 44° 47' 57.00'' Nord";"12223";;"PUECH CLERGUE";"12420";"SAINTE-GENEVIEVE-SUR-ARGENCE";"Pylône autostable"; 25.0;"TDF"
554019;2.02889;44.35472;"02° 01' 44.00'' Est, 44° 21' 17.00'' Nord";"12300";;"PL FONTANGES";"12200";"VILLEFRANCHE-DE-ROUERGUE";"Pylône autostable"; 40.0;"ORANGE Services Fixes"
554025;2.02667;44.33694;"02° 01' 36.00'' Est, 44° 20' 13.00'' Nord";"12300";;"6, CHEM DE LA MADELEINE";"12200";"VILLEFRANCHE-DE-ROUERGUE";"Pylône autostable"; 19.0;"ORANGE"
554832;2.89250;44.47861;"02° 53' 33.00'' Est, 44° 28' 43.00'' Nord";"12219";;"PUY DE CAMPECH";"12130";"SAINTE-EULALIE-D'OLT";"Mât"; 15.0;"Société Privée SA"
557002;2.16083;44.42611;"02° 09' 39.00'' Est, 44° 25' 34.00'' Nord";"12121";"LAGARDE";"RUE DES VIOLETTES";"12350";"LANUEJOULS";"Mât"; 8.0;"ORANGE Services Fixes"
557004;2.10139;44.40139;"02° 06' 05.00'' Est, 44° 24' 05.00'' Nord";"12136";"MONNET";;"12350";"MALEVILLE";"Bâtiment"; 6.0;"ORANGE Services Fixes"
557132;2.62194;43.79611;"02° 37' 19.00'' Est, 43° 47' 46.00'' Nord";"12125";"SOUS LES ROCHERS";"PRÈS DU CHATEAU D'EAU";"12380";"LAVAL-ROQUECEZIERE";"Pylône autostable"; 30.0;"ORANGE Services Fixes"
557140;2.49222;44.41194;"02° 29' 32.00'' Est, 44° 24' 43.00'' Nord";"12254";"CABASSO";"ZA DE L'AÉROPORT";"12330";"SALLES-LA-SOURCE";"Pylône autostable"; 26.0;"ORANGE"
557205;2.23167;44.31806;"02° 13' 54.00'' Est, 44° 19' 05.00'' Nord";"12198";;"LA CHAPELLE";"12240";"RIEUPEYROUX";"Pylône autostable"; 36.0;"ORANGE Services Fixes"
557219;2.82444;43.93250;"02° 49' 28.00'' Est, 43° 55' 57.00'' Nord";"12286";"LE MIRAIL";;"12400";"VABRES-L'ABBAYE";"Mât"; 12.0;"ORANGE"
559847;2.01750;44.37917;"02° 01' 03.00'' Est, 44° 22' 45.00'' Nord";"12281";;"MARMIESSE";"12200";"TOULONJAC";"Pylône autostable"; 25.0;"TDF"
561440;2.66000;44.19944;"02° 39' 36.00'' Est, 44° 11' 58.00'' Nord";"12011";;"TERRAIN DE SPORT";"12120";"ARVIEU";"Pylône autostable"; 24.0;"TDF"
561452;2.13361;44.50861;"02° 08' 01.00'' Est, 44° 30' 31.00'' Nord";"12181";"MAS D' AMBLARD";"PYLÔNE TDF";"12220";"PEYRUSSE-LE-ROC";"Pylône autostable"; 43.0;"TDF"
561464;3.11361;44.45667;"03° 06' 49.00'' Est, 44° 27' 24.00'' Nord";"12237";;"LA GINESTIÈRE";"12560";"SAINT-LAURENT-D'OLT";"Pylône autostable"; 28.0;"TDF"
561500;2.82778;44.31417;"02° 49' 40.00'' Est, 44° 18' 51.00'' Nord";"12010";;"COSTEFREJE";"12290";"ARQUES";"Pylône autostable"; 26.2;"TDF"
561526;3.28306;44.03833;"03° 16' 59.00'' Est, 44° 02' 18.00'' Nord";"12168";;"CAUSSE DES CUNS";"12230";"NANT";"Pylône autostable"; 35.3;"TDF"
561572;2.74000;44.27444;"02° 44' 24.00'' Est, 44° 16' 28.00'' Nord";"12185";;"ALARET";"12290";"PONT-DE-SALARS";"Pylône autostable"; 29.2;"TDF"
561584;2.40472;44.43917;"02° 24' 17.00'' Est, 44° 26' 21.00'' Nord";"12111";;"LE PUECH";"12390";"GOUTRENS";"Pylône autostable"; 18.0;"Commune, communauté de commune"
561596;3.30778;44.02556;"03° 18' 28.00'' Est, 44° 01' 32.00'' Nord";"12168";;"LE PIGEONNIER";"12230";"NANT";"Mât béton"; 13.0;"TDF"
561623;2.09361;44.56306;"02° 05' 37.00'' Est, 44° 33' 47.00'' Nord";"12052";;"CAUSSE BLANC";"12700";"CAPDENAC-GARE";"Pylône autostable"; 35.2;"TDF"
561662;2.78056;44.18306;"02° 46' 50.00'' Est, 44° 10' 59.00'' Nord";"12253";;"PUECH DE MONACO";"12410";"SALLES-CURAN";"Pylône autostable"; 25.0;"TDF"
561664;2.67528;44.54778;"02° 40' 31.00'' Est, 44° 32' 52.00'' Nord";"12265";"LIAUZI";;"12190";"SEBRAZAC";"Pylône autostable"; 30.0;"ORANGE Services Fixes"
561753;2.20694;44.36861;"02° 12' 25.00'' Est, 44° 22' 07.00'' Nord";"12071";"PUY REDON";;"12350";"COMPOLIBAT";"Mât béton"; 20.0;"Commune, communauté de commune"
561898;1.89667;44.49222;"01° 53' 48.00'' Est, 44° 29' 32.00'' Nord";"12261";"PRUNELS";"D.127 - SUD-EST AGGLOMÉRATION PROCHE RÉSERVOIR";"12260";"SAUJAC";"Pylône autostable"; 22.0;"TDF"
562425;2.98389;43.97556;"02° 59' 02.00'' Est, 43° 58' 32.00'' Nord";"12203";;"LE COMBALOU";"12250";"ROQUEFORT-SUR-SOULZON";"Pylône autostable"; 52.0;"TDF"
563364;2.41389;44.53917;"02° 24' 50.00'' Est, 44° 32' 21.00'' Nord";"12218";;"THABOR";"12320";"SAINT-CYPRIEN-SUR-DOURDOU";"Pylône autostable"; 27.0;"TDF"
566416;2.57139;44.37306;"02° 34' 17.00'' Est, 44° 22' 23.00'' Nord";"12176";;"IMP DE CANAGUET";"12850";"ONET-LE-CHATEAU";"Pylône tubulaire"; 12.0;"ORANGE"
566446;2.70194;44.24472;"02° 42' 07.00'' Est, 44° 14' 41.00'' Nord";"12050";"LES PALUES";"PRÈS D 538";"12290";"CANET-DE-SALARS";"Mât"; 5.0;"ORANGE Services Fixes"
566448;2.82972;44.15972;"02° 49' 47.00'' Est, 44° 09' 35.00'' Nord";"12253";"LA PLANE";;"12410";"SALLES-CURAN";"Pylône autostable"; 7.5;"ORANGE Services Fixes"
566552;2.32389;44.23250;"02° 19' 26.00'' Est, 44° 13' 57.00'' Nord";"12262";"MAGAROU";;"12800";"SAUVETERRE-DE-ROUERGUE";"Pylône autostable"; 25.0;"SFR"
570955;2.78611;43.93861;"02° 47' 10.00'' Est, 43° 56' 19.00'' Nord";"12208";"LA CROUZETTE ET PUECH DE BALLE";;"12400";"SAINT-AFFRIQUE";"Pylône autostable"; 41.0;"TDF"
571270;2.51694;44.42583;"02° 31' 01.00'' Est, 44° 25' 33.00'' Nord";"12254";"LES FAGES";;"12330";"SALLES-LA-SOURCE";"Pylône autostable"; 30.0;"SFR"
571688;3.30889;43.92444;"03° 18' 32.00'' Est, 43° 55' 28.00'' Nord";"12082";"LA GARDETTE";;"12230";"LA COUVERTOIRADE";"Pylône autostable"; 17.0;"Société Privée SA"
571920;2.33778;44.46194;"02° 20' 16.00'' Est, 44° 27' 43.00'' Nord";"12095";"LESTRADE HAUTE";;"12390";"ESCANDOLIERES";"Mât"; 12.0;"Société Privée SA"
575147;2.34444;44.38778;"02° 20' 40.00'' Est, 44° 23' 16.00'' Nord";"12024";"LA PONSARDIE";"G.R. 62B - CHEM RURAL PYLÔNE TDF";"12390";"BELCASTEL";"Pylône autostable"; 35.0;"TDF"
575375;2.19222;44.43111;"02° 11' 32.00'' Est, 44° 25' 52.00'' Nord";"12121";"LES BERGUETTES";"BEL AIR";"12350";"LANUEJOULS";"Pylône autostable"; 41.6;"SFR"
580439;3.10111;43.84889;"03° 06' 04.00'' Est, 43° 50' 56.00'' Nord";"12155";;"COMBE DE CANNAC";"12540";"FONDAMENTE";"Pylône autostable"; 10.0;"ORANGE Services Fixes"
584005;2.16861;44.56250;"02° 10' 07.00'' Est, 44° 33' 45.00'' Nord";"12030";"LE CLOUP";;"12300";"BOUILLAC";"Pylône autostable"; 23.0;"SFR"
585127;3.05917;44.13389;"03° 03' 33.00'' Est, 44° 08' 02.00'' Nord";"12145";"PUECH D'ANDAN (LA MARTINERIE)";;"12100";"MILLAU";"Pylône haubané"; 23.0;"Société Privée SA"
585234;2.22000;44.57750;"02° 13' 12.00'' Est, 44° 34' 39.00'' Nord";"12028";"MILLAGUES";;"12300";"BOISSE-PENCHOT";"Pylône haubané"; 32.0;"Towercast"
586257;2.79556;44.73028;"02° 47' 44.00'' Est, 44° 43' 49.00'' Nord";"12279";"RIGOULAC";;"12210";"LA TERRISSE";"Pylône autostable"; 32.0;"ORANGE"
589200;2.60278;44.56778;"02° 36' 10.00'' Est, 44° 34' 04.00'' Nord";"12049";"LA BESSIÈRE";;"12580";"CAMPUAC";"Bâtiment"; 8.0;"ORANGE Services Fixes"
590315;2.60500;44.58222;"02° 36' 18.00'' Est, 44° 34' 56.00'' Nord";"12110";"LE PUECH DE CATUSSE";;"12140";"GOLINHAC";"Pylône autostable"; 24.0;"EDF GDF"
593008;2.22944;44.58000;"02° 13' 46.00'' Est, 44° 34' 48.00'' Nord";"12089";"POMAYROLS";"RD 157";"12300";"DECAZEVILLE";"Pylône autostable"; 18.0;"ORANGE"
595114;2.25333;44.52500;"02° 15' 12.00'' Est, 44° 31' 30.00'' Nord";"12013";"LE DUC";;"12110";"AUBIN";"Mât"; 18.0;"ORANGE"
598332;2.26250;44.47389;"02° 15' 45.00'' Est, 44° 28' 26.00'' Nord";"12134";"LESTANQUET";;"12220";"LUGAN";"Pylône autostable"; 24.0;"ORANGE"
599727;2.41139;44.23667;"02° 24' 41.00'' Est, 44° 14' 12.00'' Nord";"12194";"LA MOTHE";"RN.88";"12800";"QUINS";"Pylône tubulaire"; 28.0;"ORANGE"
603440;2.60639;44.36111;"02° 36' 23.00'' Est, 44° 21' 40.00'' Nord";"12176";;"R DES MÉTIERS ENTREPRISE DRIMMER";"12850";"ONET-LE-CHATEAU";"Pylône tubulaire"; 30.0;"ORANGE"
607124;2.76917;44.53028;"02° 46' 09.00'' Est, 44° 31' 49.00'' Nord";"12096";"LABRO";;"12500";"ESPALION";"Pylône autostable"; 12.0;"SFR"
608172;2.48361;44.41028;"02° 29' 01.00'' Est, 44° 24' 37.00'' Nord";"12254";;"AEROPORT DE RODEZ MARCILLAC";"12330";"SALLES-LA-SOURCE";"Immeuble"; 10.0;"Société Privée SA"
610055;2.80250;43.87000;"02° 48' 09.00'' Est, 43° 52' 12.00'' Nord";"12154";"LES SARRETTES";;"12400";"MONTLAUR";"Pylône autostable"; 24.0;"ORANGE"
623884;2.06611;44.39028;"02° 03' 58.00'' Est, 44° 23' 25.00'' Nord";"12242";"CAMP GRAND";;"12200";"SAINT-REMY";"Mât"; 15.0;"Société Privée SA"
626446;2.53639;44.30806;"02° 32' 11.00'' Est, 44° 18' 29.00'' Nord";"12133";"LES COMBETTES";"RTE DE LA PRIMAUBE D.66 - CHEM RURAL";"12450";"LUC";"Pylône autostable"; 28.0;"SFR"
628485;2.78056;44.18306;"02° 46' 50.00'' Est, 44° 10' 59.00'' Nord";"12253";"PUECH DE MONACO";;"12410";"SALLES-CURAN";"Pylône autostable"; 26.0;"ORANGE Services Fixes"
639463;3.07028;44.31444;"03° 04' 13.00'' Est, 44° 18' 52.00'' Nord";"12270";"CHAPELLE NOTRE DAME DE LORETTE";;"12150";"SEVERAC-LE-CHATEAU";"Monument religieux"; 8.0;"Société Privée SA"
640234;3.05000;44.28639;"03° 02' 60.00'' Est, 44° 17' 11.00'' Nord";"12270";"COMBELADE";;"12150";"SEVERAC-LE-CHATEAU";"Bâtiment"; 8.0;"Particulier"
641586;3.17278;43.83083;"03° 10' 22.00'' Est, 43° 49' 51.00'' Nord";"12067";;"CHÂTEAU D'EAU D.93";"12540";"LE CLAPIER";"Château d'eau - réservoir"; 26.0;"Syndicat des eaux, Adduction"
641588;3.17278;43.83111;"03° 10' 22.00'' Est, 43° 49' 52.00'' Nord";"12067";"CNE";"D.93";"12540";"LE CLAPIER";"Bâtiment"; 6.0;"ORANGE Services Fixes"
648343;3.06306;44.03917;"03° 03' 47.00'' Est, 44° 02' 21.00'' Nord";"12022";"BAUMESCURE";"CASTEL MUS/A75";"12490";"LA BASTIDE-PRADINES";"Pylône autostable"; 33.0;"FPS TOWERS"
648383;2.74583;44.79889;"02° 44' 45.00'' Est, 44° 47' 56.00'' Nord";"12223";"PUECH CLERGUE";"CHEM RURAL N° 34 DIT DU RELAIS";"12420";"SAINTE-GENEVIEVE-SUR-ARGENCE";"Pylône autostable"; 31.5;"ORANGE"
651790;2.43389;44.33472;"02° 26' 02.00'' Est, 44° 20' 05.00'' Nord";"12162";"BETHLEEM";;"12160";"MOYRAZES";"Pylône autostable"; 12.0;"SFR"
656687;2.05056;44.44083;"02° 03' 02.00'' Est, 44° 26' 27.00'' Nord";"12301";"CHABBERT";"D.48 - CHEM RURAL";"12260";"VILLENEUVE";"Pylône autostable"; 32.0;"ORANGE"
657487;2.64056;44.13250;"02° 38' 26.00'' Est, 44° 07' 57.00'' Nord";"12015";;"PYRAMIDE DE L'AGAST";"12120";"AURIAC-LAGAST";"Pylône autostable"; 78.0;"TDF"
661063;2.57806;44.34750;"02° 34' 41.00'' Est, 44° 20' 51.00'' Nord";"12202";"CEDEC SÉMINAIRE";"13 R DES FRÈRES DE TURENNE";"12000";"RODEZ";"Bâtiment"; 21.0;"Société Privée SA"
666436;2.65944;44.84056;"02° 39' 34.00'' Est, 44° 50' 26.00'' Nord";"12164";"PL DE LA CORETTE";"CHEM DE MARCOL";"12600";"MUR-DE-BARREZ";"Pylône autostable"; 25.0;"ORANGE Services Fixes"
668449;2.55444;44.03056;"02° 33' 16.00'' Est, 44° 01' 50.00'' Nord";"12197";"LES FOURQUES";"AV DE MILLAU D44";"12170";"REQUISTA";"Pylône autostable"; 40.0;"ORANGE Services Fixes"
669175;1.99056;44.21361;"01° 59' 26.00'' Est, 44° 12' 49.00'' Nord";"12167";"LA PLANQUETTE";;"12270";"NAJAC";"Pylône autostable"; 34.0;"ORANGE Services Fixes"
674594;2.90833;44.58750;"02° 54' 30.00'' Est, 44° 35' 15.00'' Nord";"12214";"JALASOU";"LA BORIE DU GASC";"12470";"SAINT-CHELY-D'AUBRAC";"Pylône autostable"; 24.0;"ORANGE Services Fixes"
675801;2.96889;44.06500;"02° 58' 08.00'' Est, 44° 03' 54.00'' Nord";"12225";"LUZENÇON";"PRÈS ANCIENNE CHAPELLE PYLONE TDF";"12100";"SAINT-GEORGES-DE-LUZENCON";"Pylône autostable"; 15.0;"TDF"
676148;3.12917;43.99333;"03° 07' 45.00'' Est, 43° 59' 36.00'' Nord";"12220";"PUECH DE MUS";;"12230";"SAINTE-EULALIE-DE-CERNON";"Pylône autostable"; 7.0;"Commune, communauté de commune"
677718;2.68028;44.43944;"02° 40' 49.00'' Est, 44° 26' 22.00'' Nord";"12264";"LAS TIEIROS";"C.D. 27";"12740";"SEBAZAC-CONCOURES";"Pylône tubulaire"; 30.0;"ORANGE"
678354;2.48472;44.60444;"02° 29' 05.00'' Est, 44° 36' 16.00'' Nord";"12268";"BOURG";"D242";"12320";"SENERGUES";"Bâtiment"; 5.0;"ORANGE Services Fixes"
678391;2.08444;44.41889;"02° 05' 04.00'' Est, 44° 25' 08.00'' Nord";"12136";"BERGON";"VC N° 6 B";"12350";"MALEVILLE";"Pylône autostable"; 36.0;"ORANGE"
679303;2.31778;44.41472;"02° 19' 04.00'' Est, 44° 24' 53.00'' Nord";"12199";"PEYRUSSOU";;"12390";"RIGNAC";"Bâtiment"; 20.0;"Société Privée SA"
683002;2.21111;44.55833;"02° 12' 40.00'' Est, 44° 33' 30.00'' Nord";"12305";"MAS DEL BOSC";;"12110";"VIVIEZ";"Pylône tubulaire"; 15.0;"ORANGE"
685535;2.75111;44.41556;"02° 45' 04.00'' Est, 44° 24' 56.00'' Nord";"12157";"ZENIÈRES";"LE SARROIS";"12630";"MONTROZIER";"Château d'eau - réservoir"; 19.0;"Commune, communauté de commune"
686065;2.08306;44.39833;"02° 04' 59.00'' Est, 44° 23' 54.00'' Nord";"12136";;"ZA DE MARCOULY";"12350";"MALEVILLE";"Pylône autostable"; 12.0;"SFR"
686116;3.04778;44.05861;"03° 02' 52.00'' Est, 44° 03' 31.00'' Nord";"12084";"MANMONT";"CHEM DE SERVITUDE DE PASSAGE À CÔTÉ DU RÉSERVOIR D'EAU";"12100";"CREISSELS";"Pylône tubulaire"; 14.0;"TDF"
687958;2.36694;44.41583;"02° 22' 01.00'' Est, 44° 24' 57.00'' Nord";"12142";"LA CHAPELLE DU BUENNE";"CD 595";"12390";"MAYRAN";"Pylône autostable"; 46.0;"ORANGE Services Fixes"
690565;2.89250;44.47861;"02° 53' 33.00'' Est, 44° 28' 43.00'' Nord";"12219";"PUY DE CAMPECH";;"12130";"SAINTE-EULALIE-D'OLT";"Bâtiment"; 31.0;"Société Privée SA"
691820;2.57528;44.34861;"02° 34' 31.00'' Est, 44° 20' 55.00'' Nord";"12202";;"1 PL OLMET";"12000";"RODEZ";"Immeuble"; 29.5;"Copropriété, Syndic, SCI"
696516;2.85500;44.68056;"02° 51' 18.00'' Est, 44° 40' 50.00'' Nord";"12119";"LE PUECH DE GRIDOU - LES AGRAZ";;"12210";"LAGUIOLE";"Pylône autostable"; 29.7;"TDF"
700728;3.03750;44.35222;"03° 02' 15.00'' Est, 44° 21' 08.00'' Nord";"12123";"LE PUECH DE LAGARDE";;"12150";"LAPANOUSE";"Pylône autostable"; 35.0;"SFR"
702511;2.29583;44.41000;"02° 17' 45.00'' Est, 44° 24' 36.00'' Nord";"12199";"LES LANDES";"AV DE RODEZ PRÈS DU CIMETIÈRE";"12390";"RIGNAC";"Pylône autostable"; 36.0;"ORANGE Services Fixes"
705293;2.69250;44.09028;"02° 41' 33.00'' Est, 44° 05' 25.00'' Nord";"12299";"MAYRAC";;"12430";"VILLEFRANCHE-DE-PANAT";"Pylône autostable"; 44.0;"TDF"
708270;2.67667;44.44167;"02° 40' 36.00'' Est, 44° 26' 30.00'' Nord";"12264";"BOIS DEL DEVEZ";;"12740";"SEBAZAC-CONCOURES";"Château d'eau - réservoir"; 31.4;"Commune, communauté de commune"
708848;2.66306;44.65306;"02° 39' 47.00'' Est, 44° 39' 11.00'' Nord";"12103";"LE RIAL";"CHEM CANTENOUSE";"12140";"FLORENTIN-LA-CAPELLE";"Pylône autostable"; 24.0;"FPS TOWERS"
715366;3.08222;44.33111;"03° 04' 56.00'' Est, 44° 19' 52.00'' Nord";"12270";"LES VAYSSIÉRES";"PRÈS N.88 AIRE DE SERVICE DE L'AVEYRON";"12150";"SEVERAC-LE-CHATEAU";"Pylône tubulaire"; 20.0;"ORANGE"
716927;2.60306;44.39306;"02° 36' 11.00'' Est, 44° 23' 35.00'' Nord";"12176";"L'ESTRENIOL";"CCAL LECLERC";"12850";"ONET-LE-CHATEAU";"Pylône tubulaire"; 24.0;"ORANGE"
718333;2.01694;44.54806;"02° 01' 01.00'' Est, 44° 32' 53.00'' Nord";"12257";"BOIS GROS";;"12700";"CAUSSE-ET-DIEGE";"Pylône autostable"; 20.3;"SFR"
719211;3.08222;44.21694;"03° 04' 56.00'' Est, 44° 13' 01.00'' Nord";"12291";"VÉZOUILLAC";;"12520";"VERRIERES";"Pylône autostable"; 17.0;"ORANGE"
721763;3.00806;44.14611;"03° 00' 29.00'' Est, 44° 08' 46.00'' Nord";"12062";"LES BOUSCAILLOUS";"A75";"12620";"CASTELNAU-PEGAYROLS";"Pylône autostable"; 30.0;"FPS TOWERS"
723413;2.76417;43.79167;"02° 45' 51.00'' Est, 43° 47' 30.00'' Nord";"12025";"LE VENTADOU";;"12370";"BELMONT-SUR-RANCE";"Pylône autostable"; 40.0;"Commune, communauté de commune"
724293;2.65556;44.82583;"02° 39' 20.00'' Est, 44° 49' 33.00'' Nord";"12277";;"CANCELADE";"12600";"TAUSSAC";"Pylône autostable"; 22.0;"TDF"
727728;2.63556;43.87722;"02° 38' 08.00'' Est, 43° 52' 38.00'' Nord";"12248";"CABRELLES";;"12380";"SAINT-SERNIN-SUR-RANCE";"Pylône autostable"; 27.0;"SFR"
732204;2.93722;43.81389;"02° 56' 14.00'' Est, 43° 48' 50.00'' Nord";"12274";"PUECH DE ROSTE";;"12360";"SYLVANES";"Pylône haubané"; 22.0;"Commune, communauté de commune"
733716;2.55917;44.35917;"02° 33' 33.00'' Est, 44° 21' 33.00'' Nord";"12202";"SITE DE BOURRAN SALABRU";"R DE BRUXELLES";"12000";"RODEZ";"Bâtiment"; 16.9;"DDE"
736609;2.55000;44.15750;"02° 32' 60.00'' Est, 44° 09' 27.00'' Nord";"12057";"MALET";;"12120";"CASSAGNES-BEGONHES";"Pylône autostable"; 44.0;"ORANGE"
740649;2.54972;44.24139;"02° 32' 59.00'' Est, 44° 14' 29.00'' Nord";"12043";"PRAT LONG";;"12450";"CALMONT";"Pylône autostable"; 30.0;"SFR"
740655;3.22722;43.92667;"03° 13' 38.00'' Est, 43° 55' 36.00'' Nord";"12077";"LA GRUELLE";;"12540";"CORNUS";"Pylône autostable"; 30.0;"SFR"
740661;2.70389;43.88361;"02° 42' 14.00'' Est, 43° 53' 01.00'' Nord";"12069";"PUECH DE LACAL";"CHEM DU RÉSERVOIR";"12370";"COMBRET";"Pylône autostable"; 27.0;"ORANGE Services Fixes"
740667;2.43500;44.26139;"02° 26' 06.00'' Est, 44° 15' 41.00'' Nord";"12056";"LE GRÉLOUS";"D.507";"12160";"BARAQUEVILLE";"Pylône autostable"; 25.0;"SFR"
740673;2.54056;44.22000;"02° 32' 26.00'' Est, 44° 13' 12.00'' Nord";"12234";"LES COMBARELS";;"12120";"SAINTE-JULIETTE-SUR-VIAUR";"Pylône autostable"; 30.0;"SFR"
740679;2.82361;43.89278;"02° 49' 25.00'' Est, 43° 53' 34.00'' Nord";"12154";"PUECH AUSSEL";;"12400";"MONTLAUR";"Pylône autostable"; 12.0;"SFR"
740685;2.37472;44.20083;"02° 22' 29.00'' Est, 44° 12' 03.00'' Nord";"12169";"CANTEFAU";"TERRAIN DE MOTOCROSS";"12800";"NAUCELLE";"Pylône autostable"; 40.0;"SFR"
741953;2.20500;44.23083;"02° 12' 18.00'' Est, 44° 13' 51.00'' Nord";"12258";"BOUSCOULI";"LA SERIEYSSADE CHEM LAURELLE";"12440";"LA SALVETAT-PEYRALES";"Pylône autostable"; 25.0;"SFR"
742488;2.37861;44.18500;"02° 22' 43.00'' Est, 44° 11' 06.00'' Nord";"12046";"LE PUECH DE LAGARDE";;"12800";"CAMJAC";"Pylône autostable"; 32.4;"TDF"
743762;3.05444;44.33361;"03° 03' 16.00'' Est, 44° 20' 01.00'' Nord";"12123";"LA ROQUETTE NORD";;"12150";"LAPANOUSE";"Pylône autostable"; 20.0;"TDF"
748482;2.56167;44.35889;"02° 33' 42.00'' Est, 44° 21' 32.00'' Nord";"12202";"SALABRU";;"12000";"RODEZ";"Pylône autostable"; 27.0;"TDF"
749896;2.25694;44.55667;"02° 15' 25.00'' Est, 44° 33' 24.00'' Nord";"12089";;"PL. DECAZES CENTRAL TÉLÉPHONIQUE";"12300";"DECAZEVILLE";"Bâtiment"; 23.2;"ORANGE Services Fixes"
750855;1.92833;44.33222;"01° 55' 42.00'' Est, 44° 19' 56.00'' Nord";"12287";"MONDEVIS";"D.926";"12200";"VAILHOURLES";"Pylône tubulaire"; 32.0;"ORANGE"
753287;2.87000;43.77111;"02° 52' 12.00'' Est, 43° 46' 16.00'' Nord";"12179";"ROUQUISSE";;"12360";"PEUX-ET-COUFFOULEUX";"Pylône autostable"; 34.1;"FPS TOWERS"
758790;3.10222;44.31000;"03° 06' 08.00'' Est, 44° 18' 36.00'' Nord";"12270";"PUECH DES AIRES";"D 94 LE CLAUX";"12150";"SEVERAC-LE-CHATEAU";"Pylône autostable"; 30.0;"ORANGE"
758795;2.56333;44.35278;"02° 33' 48.00'' Est, 44° 21' 10.00'' Nord";"12202";;"R EUGÈNE LOUP";"12000";"RODEZ";"Tour hertzienne"; 44.0;"ORANGE Services Fixes"
758798;2.19500;44.57528;"02° 11' 42.00'' Est, 44° 34' 31.00'' Nord";"12030";"NISSOLS";;"12300";"BOUILLAC";"Pylône autostable"; 26.0;"TDF"
758800;3.26361;43.90556;"03° 15' 49.00'' Est, 43° 54' 20.00'' Nord";"12082";"LA BARAQUE DES INFRUTS";;"12230";"LA COUVERTOIRADE";"Pylône autostable"; 50.0;"FPS TOWERS"
758802;3.14028;44.03917;"03° 08' 25.00'' Est, 44° 02' 21.00'' Nord";"12145";"LE ROUQUET BLANC";"RN 9";"12100";"MILLAU";"Pylône autostable"; 30.0;"ORANGE"
758804;2.96972;44.25611;"02° 58' 11.00'' Est, 44° 15' 22.00'' Nord";"12238";"BELVEZET";"LE BOUSQUET";"12780";"SAINT-LEONS";"Pylône tubulaire"; 30.0;"ORANGE"
758806;2.96667;43.95472;"02° 58' 00.00'' Est, 43° 57' 17.00'' Nord";"12229";"LA COSTE DU ROUQUET";;"12250";"SAINT-JEAN-D'ALCAPIES";"Pylône tubulaire"; 30.0;"ORANGE"
758808;2.84139;44.24361;"02° 50' 29.00'' Est, 44° 14' 37.00'' Nord";"12266";"VIAROUGE";"RTE DE LA FERME";"12290";"SEGUR";"Pylône tubulaire"; 28.0;"ORANGE"
758810;3.13611;44.10389;"03° 08' 10.00'' Est, 44° 06' 14.00'' Nord";"12145";"CAPE D'AZE";"MASSEBIAU SITE TDF";"12100";"MILLAU";"Pylône autostable"; 35.0;"TDF"
758813;2.60139;44.28972;"02° 36' 05.00'' Est, 44° 17' 23.00'' Nord";"12102";;"AV DU 11 NOVEMBRE SALLE POLYVALENTE";"12450";"FLAVIN";"Pylône tubulaire"; 23.0;"Commune, communauté de commune"
758817;2.56778;44.64500;"02° 34' 04.00'' Est, 44° 38' 42.00'' Nord";"12094";"LA ROUSSILHE";;"12140";"ENTRAYGUES-SUR-TRUYERE";"Pylône autostable"; 20.0;"ORANGE Services Fixes"
758820;2.60528;44.59917;"02° 36' 19.00'' Est, 44° 35' 57.00'' Nord";"12110";"PRADELS";;"12140";"GOLINHAC";"Pylône autostable"; 30.0;"ORANGE"
758823;2.58056;44.35639;"02° 34' 50.00'' Est, 44° 21' 23.00'' Nord";"12202";;"AV TARAYRE";"12000";"RODEZ";"Immeuble"; 26.0;"Société Privée SA"
758826;2.57111;44.35361;"02° 34' 16.00'' Est, 44° 21' 13.00'' Nord";"12202";;"21 R RAYNAL  AMPHITHÉATRE";"12000";"RODEZ";"Immeuble"; 25.0;"Copropriété, Syndic, SCI"
758832;2.53944;44.37611;"02° 32' 22.00'' Est, 44° 22' 34.00'' Nord";"12202";"ZA BEL AIR";"R DES CHARPENTIERS";"12000";"RODEZ";"Pylône autostable"; 24.0;"ORANGE"
758834;3.06889;44.09222;"03° 04' 08.00'' Est, 44° 05' 32.00'' Nord";"12145";;"R F. ARAGO 375 AV DE CALÈS";"12100";"MILLAU";"Bâtiment"; 23.0;"Société Privée SA"
759355;2.17972;44.37528;"02° 10' 47.00'' Est, 44° 22' 31.00'' Nord";"12071";"BOIS DE VERNET";"LA BOUDOMIE";"12350";"COMPOLIBAT";"Pylône autostable"; 38.0;"Conseil Général"
759357;2.57028;44.48472;"02° 34' 13.00'' Est, 44° 29' 05.00'' Nord";"12165";"PUECH FOURNALS";"CHEM RURAL VERS DÉPARTEMENT 13";"12330";"MURET-LE-CHATEAU";"Pylône autostable"; 24.0;"ORANGE"
759359;2.14750;44.34056;"02° 08' 51.00'' Est, 44° 20' 26.00'' Nord";"12021";"LA FRANQUEZE";;"12200";"LA BASTIDE-L'EVEQUE";"Pylône autostable"; 38.0;"Conseil Général"
759361;2.58083;44.36056;"02° 34' 51.00'' Est, 44° 21' 38.00'' Nord";"12202";;"4 - 6 - 8 AV DE PARIS";"12000";"RODEZ";"Immeuble"; 27.0;"Copropriété, Syndic, SCI"
759363;2.89361;44.47778;"02° 53' 37.00'' Est, 44° 28' 40.00'' Nord";"12219";"PUY DE CAMPECH";"VC";"12130";"SAINTE-EULALIE-D'OLT";"Pylône autostable"; 40.0;"ORANGE Services Fixes"
759365;2.50944;44.50222;"02° 30' 34.00'' Est, 44° 30' 08.00'' Nord";"12161";"BOIS DE VAREILLES";"VOIE COMMUNALE N° 1";"12330";"MOURET";"Pylône autostable"; 18.0;"ORANGE"
759367;2.72778;44.72722;"02° 43' 40.00'' Est, 44° 43' 38.00'' Nord";"12250";"ENCIZES";;"12460";"SAINT-SYMPHORIEN-DE-THENIERES";"Pylône autostable"; 30.0;"ORANGE"
759369;3.10667;44.35306;"03° 06' 24.00'' Est, 44° 21' 11.00'' Nord";"12270";"LA VIEILLE MANILLE";"RD 809";"12150";"SEVERAC-LE-CHATEAU";"Pylône autostable"; 47.0;"DDE"
759371;2.96333;44.15611;"02° 57' 48.00'' Est, 44° 09' 22.00'' Nord";"12213";"BERGERIE";"PUECH DE VERDALE";"12620";"SAINT-BEAUZELY";"Mât béton"; 19.0;"TDF"
759373;2.43194;44.09083;"02° 25' 55.00'' Est, 44° 05' 27.00'' Nord";"12127";"LE FRAYSSE";"CHEM RURAL";"12170";"LEDERGUES";"Pylône autostable"; 38.0;"ORANGE"
759375;2.66750;44.50722;"02° 40' 03.00'' Est, 44° 30' 26.00'' Nord";"12265";"PEYREMOULA";"RTE DU BOIS D' OURLHAC";"12190";"SEBRAZAC";"Pylône autostable"; 15.0;"TDF"
759379;1.97694;44.30111;"01° 58' 37.00'' Est, 44° 18' 04.00'' Nord";"12205";"TILLOU";"VC 6";"12200";"LA ROUQUETTE";"Pylône autostable"; 30.0;"TDF"
759381;2.57500;44.34833;"02° 34' 30.00'' Est, 44° 20' 54.00'' Nord";"12202";;"3 PL. DE L'OLMET R ST AMANS";"12000";"RODEZ";"Bâtiment"; 23.0;"Société Privée SA"
759383;2.77278;44.64806;"02° 46' 22.00'' Est, 44° 38' 53.00'' Nord";"12156";"PEYREGARDE";"PRÈS D.42";"12210";"MONTPEYROUX";"Pylône autostable"; 30.0;"ORANGE"
759385;3.12944;43.99361;"03° 07' 46.00'' Est, 43° 59' 37.00'' Nord";"12220";"PUECH DE MUS";;"12230";"SAINTE-EULALIE-DE-CERNON";"Pylône autostable"; 20.0;"TDF"
759388;3.20000;44.00583;"03° 12' 00.00'' Est, 44° 00' 21.00'' Nord";"12063";"ROUTADOUS";"CHEM RURAL";"12230";"LA CAVALERIE";"Pylône autostable"; 20.0;"ORANGE"
759390;2.20111;44.21861;"02° 12' 04.00'' Est, 44° 13' 07.00'' Nord";"12258";;"VOIE COMMUNALE N°5  R DES BRUYÈRES";"12440";"LA SALVETAT-PEYRALES";"Pylône autostable"; 27.0;"ORANGE Services Fixes"
759392;2.76139;44.52056;"02° 45' 41.00'' Est, 44° 31' 14.00'' Nord";"12096";;"PL ST GEORGES HÔTEL DE VILLE";"12500";"ESPALION";"Bâtiment"; 22.0;"Copropriété, Syndic, SCI"
759394;2.56667;43.84139;"02° 33' 60.00'' Est, 43° 50' 29.00'' Nord";"12152";"LOU PIOCH";"D.82";"12380";"MONTFRANC";"Pylône autostable"; 35.0;"ORANGE"
759396;3.25500;44.15472;"03° 15' 18.00'' Est, 44° 09' 17.00'' Nord";"12211";"LE ROC DE LENNE";"D.124";"12720";"SAINT-ANDRE-DE-VEZINES";"Pylône autostable"; 30.0;"ORANGE Services Fixes"
762304;3.23778;44.12667;"03° 14' 16.00'' Est, 44° 07' 36.00'' Nord";"12211";"LES FALSETTES";"RAJOLS";"12720";"SAINT-ANDRE-DE-VEZINES";"Pylône autostable"; 18.0;"TDF"
767153;2.55056;44.35972;"02° 33' 02.00'' Est, 44° 21' 35.00'' Nord";"12202";;"AV DE L HOP ZAC DE BOURAN";"12000";"RODEZ";"Bâtiment"; 30.0;"Etablissement de soins"
771518;2.03139;44.54889;"02° 01' 53.00'' Est, 44° 32' 56.00'' Nord";"12257";"LE PUECH";;"12700";"CAUSSE-ET-DIEGE";"Pylône autostable"; 17.7;"ORANGE Services Fixes"
776279;3.02278;44.12861;"03° 01' 22.00'' Est, 44° 07' 43.00'' Nord";"12145";"LES PLOTS";;"12100";"MILLAU";"Pylône tubulaire"; 20.0;"SFR"
778093;2.57639;44.34861;"02° 34' 35.00'' Est, 44° 20' 55.00'' Nord";"12202";;"1 R STE CATHERINE";"12000";"RODEZ";"Mât"; 20.0;"Copropriété, Syndic, SCI"
784900;2.05861;44.35750;"02° 03' 31.00'' Est, 44° 21' 27.00'' Nord";"12300";"LE BOÏ";;"12200";"VILLEFRANCHE-DE-ROUERGUE";"Pylône autostable"; 27.0;"DDE"
791135;2.29889;44.45722;"02° 17' 56.00'' Est, 44° 27' 26.00'' Nord";"12031";"CAUSSANEL";"CHEM DE CAUSSANEL";"12390";"BOURNAZEL";"Mât béton"; 10.0;"ORANGE Services Fixes"
791137;2.36417;44.38944;"02° 21' 51.00'' Est, 44° 23' 22.00'' Nord";"12142";;"CHEM DE LA BESSIÈRE LE BOURG";"12390";"MAYRAN";"Bâtiment"; 5.0;"ORANGE Services Fixes"
792173;2.19639;44.57250;"02° 11' 47.00'' Est, 44° 34' 21.00'' Nord";"12030";"LE COUTAL";"CHEM COMMUNAL DE NISSOLS";"12300";"BOUILLAC";"Pylône autostable"; 33.0;"ORANGE Services Fixes"
794071;3.04444;44.10444;"03° 02' 40.00'' Est, 44° 06' 16.00'' Nord";"12145";"CHAMP DE NAULAS";;"12100";"MILLAU";"Pylône tubulaire"; 24.0;"ORANGE"
800612;2.99361;44.21500;"02° 59' 37.00'' Est, 44° 12' 54.00'' Nord";"12238";"LAVADE";;"12780";"SAINT-LEONS";"Pylône autostable"; 26.0;"ORANGE Services Fixes"
817802;2.61889;44.11278;"02° 37' 08.00'' Est, 44° 06' 46.00'' Nord";"12092";"LES TENDES";"A CÔTÉ DU CHÂTEAU D'EAU AUTOCOM";"12170";"DURENQUE";"Mât béton"; 11.0;"ORANGE Services Fixes"
818011;3.07944;44.10056;"03° 04' 46.00'' Est, 44° 06' 02.00'' Nord";"12145";;"1 PLACE DE LA TINE";"12100";"MILLAU";"Immeuble"; 36.3;"Copropriété, Syndic, SCI"
825336;3.22528;44.11361;"03° 13' 31.00'' Est, 44° 06' 49.00'' Nord";"12204";"PALEYROU";;"12100";"LA ROQUE-SAINTE-MARGUERITE";"Pylône autostable"; 16.0;"TDF"
826454;3.05556;44.00417;"03° 03' 20.00'' Est, 44° 00' 15.00'' Nord";"12022";"LANGLADE";;"12490";"LA BASTIDE-PRADINES";"Pylône autostable"; 18.0;"FPS TOWERS"
826456;2.92694;43.73361;"02° 55' 37.00'' Est, 43° 44' 01.00'' Nord";"12009";"LAS CABOTS";;"12360";"ARNAC-SUR-DOURDOU";"Pylône autostable"; 12.0;"BOUYGUES"
826462;2.72750;43.75861;"02° 43' 39.00'' Est, 43° 45' 31.00'' Nord";"12163";"NEGREFEUILLE";;"12370";"MURASSON";"Pylône autostable"; 19.0;"TDF"
826479;2.06611;44.39056;"02° 03' 58.00'' Est, 44° 23' 26.00'' Nord";"12242";"PUECH DE LA VAYSSIERE";;"12200";"SAINT-REMY";"Pylône autostable"; 34.0;"TDF"
826513;2.67972;44.67667;"02° 40' 47.00'' Est, 44° 40' 36.00'' Nord";"12209";"LE VERN";"PYLÔNE TDF";"12460";"SAINT-AMANS-DES-COTS";"Pylône autostable"; 16.0;"TDF"
826518;2.59028;43.94667;"02° 35' 25.00'' Est, 43° 56' 48.00'' Nord";"12080";"RAYROLLES";;"12550";"COUPIAC";"Pylône autostable"; 33.0;"Conseil Général"
826524;2.97667;43.87278;"02° 58' 36.00'' Est, 43° 52' 22.00'' Nord";"12222";"LE SERRE";;"12400";"SAINT-FELIX-DE-SORGUES";"Pylône autostable"; 28.0;"FPS TOWERS"
829649;2.84583;44.68417;"02° 50' 45.00'' Est, 44° 41' 03.00'' Nord";"12119";;"5 PL MAIRIE";"12210";"LAGUIOLE";"Bâtiment"; 14.0;"Commune, communauté de commune"
836363;2.86611;44.12944;"02° 51' 58.00'' Est, 44° 07' 46.00'' Nord";"12062";"LA VERNHETTE";"COL DE POULZINIÈRES";"12620";"CASTELNAU-PEGAYROLS";"Pylône haubané"; 35.0;"ORANGE Services Fixes"
837714;2.54917;44.37222;"02° 32' 57.00'' Est, 44° 22' 20.00'' Nord";"12202";"BEL AIR";"ZI NORD OUEST N140";"12000";"RODEZ";"Pylône autostable"; 30.0;"TDF"
840156;2.14389;44.54389;"02° 08' 38.00'' Est, 44° 32' 38.00'' Nord";"12012";"TARTABELLE";"CHEM DE TARTABELLE";"12700";"ASPRIERES";"Mât béton"; 8.0;"ORANGE Services Fixes"
840579;2.07500;44.57222;"02° 04' 30.00'' Est, 44° 34' 20.00'' Nord";"12052";;"R JEAN JAURES";"12700";"CAPDENAC-GARE";"Bâtiment"; 4.0;"ORANGE Services Fixes"
844713;2.57694;44.35306;"02° 34' 37.00'' Est, 44° 21' 11.00'' Nord";"12202";;"47, R DE BONALD";"12000";"RODEZ";"Bâtiment"; 22.0;"Particulier"
844717;3.26889;44.19639;"03° 16' 08.00'' Est, 44° 11' 47.00'' Nord";"12293";"MASSIÈRES";;"12720";"VEYREAU";"Pylône autostable"; 22.0;"TDF"
846449;2.70194;44.40722;"02° 42' 07.00'' Est, 44° 24' 26.00'' Nord";"12157";"PUECH DE LACHOU";;"12630";"MONTROZIER";"Pylône autostable"; 25.3;"SFR"
846568;2.57861;44.17889;"02° 34' 43.00'' Est, 44° 10' 44.00'' Nord";"12255";"LA BORIE";;"12120";"SALMIECH";"Pylône autostable"; 30.3;"SFR"
854739;2.84361;43.78222;"02° 50' 37.00'' Est, 43° 46' 56.00'' Nord";"12192";"LAUSSIERE";;"12370";"MOUNES-PROHENCOUX";"Pylône autostable"; 30.0;"FPS TOWERS"
856009;2.92694;43.73361;"02° 55' 37.00'' Est, 43° 44' 01.00'' Nord";"12009";"LAS CABOTS";;"12360";"ARNAC-SUR-DOURDOU";"Pylône autostable"; 14.5;"BOUYGUES"
856065;2.83194;44.52722;"02° 49' 55.00'' Est, 44° 31' 38.00'' Nord";"12216";"LE CAUSSE HAUT";;"12500";"SAINT-COME-D'OLT";"Pylône autostable"; 20.2;"SFR"
869890;2.82444;44.38139;"02° 49' 28.00'' Est, 44° 22' 53.00'' Nord";"12120";;"PL DE L'EGLISE EGLISE";"12310";"LAISSAC";"Monument religieux"; 41.0;"Commune, communauté de commune"
870673;2.53000;44.68028;"02° 31' 48.00'' Est, 44° 40' 49.00'' Nord";"12093";"LE TOURNADOU";;"12140";"LE FEL";"Mât béton"; 13.0;"ORANGE Services Fixes"
871384;3.12944;43.99333;"03° 07' 46.00'' Est, 43° 59' 36.00'' Nord";"12220";;"PUECH DE MUS";"12230";"SAINTE-EULALIE-DE-CERNON";"Pylône tubulaire"; 13.1;"BOUYGUES"
872657;2.43750;44.33917;"02° 26' 15.00'' Est, 44° 20' 21.00'' Nord";"12162";;"AV DU SÉGALA D 57 AUTOCOM";"12160";"MOYRAZES";"Bâtiment"; 7.0;"ORANGE Services Fixes"
875236;2.24389;44.46972;"02° 14' 38.00'' Est, 44° 28' 11.00'' Nord";"12148";"LES CAZALS";;"12220";"MONTBAZENS";"Pylône autostable"; 25.4;"SFR"
875292;2.00361;44.42389;"02° 00' 13.00'' Est, 44° 25' 26.00'' Nord";"12301";"MAS DE TREILLE";;"12260";"VILLENEUVE";"Pylône autostable"; 21.0;"EDF GDF"
877089;2.82639;44.84944;"02° 49' 35.00'' Est, 44° 50' 58.00'' Nord";"12051";"PUECH DES FOURQUES";;"12420";"CANTOIN";"Pylône autostable"; 33.0;"DDE"
881644;2.26611;44.56250;"02° 15' 58.00'' Est, 44° 33' 45.00'' Nord";"12089";"VIVIOLE";"16 CHEM SOULACRE-HAUTE";"12300";"DECAZEVILLE";"Pylône autostable"; 14.0;"ORANGE Services Fixes"
884862;2.37222;44.44333;"02° 22' 20.00'' Est, 44° 26' 36.00'' Nord";"12111";;"D43 AUTOCOM";"12390";"GOUTRENS";"Bâtiment"; 6.0;"ORANGE Services Fixes"
888379;2.88972;43.98250;"02° 53' 23.00'' Est, 43° 58' 57.00'' Nord";"12208";"NOUGAYROLLES";;"12400";"SAINT-AFFRIQUE";"Pylône autostable"; 40.0;"SDIS, secours, incendie"
892880;2.31167;44.50056;"02° 18' 42.00'' Est, 44° 30' 02.00'' Nord";"12016";"PUECH DU PAL - LA GUIZARDIE";;"12390";"AUZITS";"Pylône autostable"; 38.0;"ORANGE"
894813;2.30500;44.55389;"02° 18' 18.00'' Est, 44° 33' 14.00'' Nord";"12100";"PUY DE VOLF";;"12300";"FIRMI";"Pylône autostable"; 12.0;"SFR"
895175;2.98389;44.06389;"02° 59' 02.00'' Est, 44° 03' 50.00'' Nord";"12225";;"CHEM DES RIVIERES";"12100";"SAINT-GEORGES-DE-LUZENCON";"Mât"; 12.0;"Etat, Ministère"
895601;2.22972;44.58500;"02° 13' 47.00'' Est, 44° 35' 06.00'' Nord";"12089";;"PONT DE LIVINHAC";"12300";"DECAZEVILLE";"Mât"; 7.0;"Etat, Ministère"
897796;2.84583;44.39889;"02° 50' 45.00'' Est, 44° 23' 56.00'' Nord";"12177";;"PONT DE MANSON";"12310";"PALMAS";"Mât"; 12.0;"Société Privée SA"
901408;2.87639;44.61278;"02° 52' 35.00'' Est, 44° 36' 46.00'' Nord";"12074";"LA BORIE";;"12470";"CONDOM-D'AUBRAC";"Mât"; 12.0;"Société Privée SA"
901436;2.30472;44.55389;"02° 18' 17.00'' Est, 44° 33' 14.00'' Nord";"12100";"LE PUY DE WOLF";;"12300";"FIRMI";"Pylône tubulaire"; 8.0;"Société Privée SA"
908441;3.08833;44.15194;"03° 05' 18.00'' Est, 44° 09' 07.00'' Nord";"12002";"LES CAMPS";;"12520";"AGUESSAC";"Pylône autostable"; 12.0;"SFR"
909087;2.28583;44.49667;"02° 17' 09.00'' Est, 44° 29' 48.00'' Nord";"12016";"LA VITARELLE";"SITE ITAS TIM";"12390";"AUZITS";"Pylône autostable"; 24.0;"Itas Tim"
909777;2.65500;44.82556;"02° 39' 18.00'' Est, 44° 49' 32.00'' Nord";"12277";"CANCELADE";"SITE ITAS TIM";"12600";"TAUSSAC";"Pylône autostable"; 24.0;"Itas Tim"
910794;2.53861;44.17250;"02° 32' 19.00'' Est, 44° 10' 21.00'' Nord";"12057";;"MAS DE GUINET";"12120";"CASSAGNES-BEGONHES";"Pylône autostable"; 20.0;"TDF"
912473;2.55139;44.36028;"02° 33' 05.00'' Est, 44° 21' 37.00'' Nord";"12202";;"AV DE L'HÔPITAL BOURRAN HOP DE RODEZ";"12000";"RODEZ";"Immeuble"; 28.0;"Etablissement de soins"
913651;2.91972;43.90278;"02° 55' 11.00'' Est, 43° 54' 10.00'' Nord";"12292";"BOURDIERES";"LA JASSE";"12400";"VERSOLS-ET-LAPEYRE";"Pylône autostable"; 14.0;"BOUYGUES"
913655;2.89750;43.76000;"02° 53' 51.00'' Est, 43° 45' 36.00'' Nord";"12179";;"LE MERDELOU";"12360";"PEUX-ET-COUFFOULEUX";"Pylône tubulaire"; 40.0;"Société Privée SA"
915042;2.52500;44.60889;"02° 31' 30.00'' Est, 44° 36' 32.00'' Nord";"12097";;"IRSALINIE";"12140";"ESPEYRAC";"Pylône autostable"; 20.0;"TDF"
915927;2.93750;43.81417;"02° 56' 15.00'' Est, 43° 48' 51.00'' Nord";"12274";;"PIC DE ROSTE";"12360";"SYLVANES";"Pylône autostable"; 21.0;"TDF"
915951;3.22111;44.18306;"03° 13' 16.00'' Est, 44° 10' 59.00'' Nord";"12180";;"ROCHER DU CHAMPIGNON";"12720";"PEYRELEAU";"Pylône autostable"; 16.0;"TDF"
916910;1.94000;44.22000;"01° 56' 24.00'' Est, 44° 13' 12.00'' Nord";"12167";;"MAS DE MOURTOU D47";"12270";"NAJAC";"Pylône autostable"; 19.0;"TDF"
916920;2.60083;43.90111;"02° 36' 03.00'' Est, 43° 54' 04.00'' Nord";"12019";"LE PUECH";"BALAGUIER";"12380";"BALAGUIER-SUR-RANCE";"Pylône autostable"; 21.0;"TDF"
916987;2.70556;44.39694;"02° 42' 20.00'' Est, 44° 23' 49.00'' Nord";"12157";;"GAGES LE HAUT";"12630";"MONTROZIER";"Pylône autostable"; 24.0;"TDF"
917007;2.75111;43.82000;"02° 45' 04.00'' Est, 43° 49' 12.00'' Nord";"12025";;"LES TRAVERSOUS";"12370";"BELMONT-SUR-RANCE";"Pylône haubané"; 17.0;"TDF"
917707;2.58417;44.18389;"02° 35' 03.00'' Est, 44° 11' 02.00'' Nord";"12255";;"LA POUGETIE";"12120";"SALMIECH";"Pylône autostable"; 20.0;"TDF"
917717;1.99139;44.26222;"01° 59' 29.00'' Est, 44° 15' 44.00'' Nord";"12150";;"MOLOYRES";"12200";"MONTEILS";"Pylône autostable"; 20.0;"TDF"
917736;2.49833;44.33389;"02° 29' 54.00'' Est, 44° 20' 02.00'' Nord";"12090";;"BOIS DE L'OURS";"12000";"DRUELLE";"Pylône autostable"; 17.0;"TDF"
917753;2.28583;44.49667;"02° 17' 09.00'' Est, 44° 29' 48.00'' Nord";"12016";;"LA VITARELLE";"12390";"AUZITS";"Pylône autostable"; 16.0;"TDF"
917788;2.36528;44.61361;"02° 21' 55.00'' Est, 44° 36' 49.00'' Nord";"12114";;"LE PÉRIE";"12320";"GRAND-VABRE";"Pylône autostable"; 16.0;"TDF"
917832;2.87444;44.05111;"02° 52' 28.00'' Est, 44° 03' 04.00'' Nord";"12244";;"MAZEGA";"12490";"SAINT-ROME-DE-TARN";"Pylône autostable"; 23.0;"TDF"
917871;2.39611;44.36083;"02° 23' 46.00'' Est, 44° 21' 39.00'' Nord";"12162";;"LA VAYSSE";"12160";"MOYRAZES";"Pylône autostable"; 18.0;"TDF"
918279;2.67806;44.52917;"02° 40' 41.00'' Est, 44° 31' 45.00'' Nord";"12265";;"MONTÉGUT";"12190";"SEBRAZAC";"Pylône autostable"; 23.0;"TDF"
918289;2.30472;44.55389;"02° 18' 17.00'' Est, 44° 33' 14.00'' Nord";"12100";"LE PUY DE VOLF";;"12300";"FIRMI";"Pylône autostable"; 24.0;"TDF"
924572;2.68444;44.81167;"02° 41' 04.00'' Est, 44° 48' 42.00'' Nord";"12036";;"SALAZAT";"12600";"BROMMAT";"Pylône autostable"; 24.0;"TDF"
924605;2.96111;43.76556;"02° 57' 40.00'' Est, 43° 45' 56.00'' Nord";"12039";;"MAURISSOL";"12360";"BRUSQUE";"Pylône autostable"; 18.0;"TDF"
924864;3.01222;43.79833;"03° 00' 44.00'' Est, 43° 47' 54.00'' Nord";"12147";"BOIS DE CENOMES";;"12360";"MONTAGNOL";"Pylône autostable"; 22.0;"TDF"
925574;2.87722;43.81250;"02° 52' 38.00'' Est, 43° 48' 45.00'' Nord";"12044";;"ST-PAUL";"12360";"CAMARES";"Pylône autostable"; 21.0;"TDF"
926585;3.01833;43.73889;"03° 01' 06.00'' Est, 43° 44' 20.00'' Nord";"12143";;"MAIRIE RD 52";"12360";"MELAGUES";"Bâtiment"; 13.0;"Commune, communauté de commune"
933286;3.36361;44.02806;"03° 21' 49.00'' Est, 44° 01' 41.00'' Nord";"12231";;"M.D.DE LA SENTINELLE";"12230";"SAINT-JEAN-DU-BRUEL";"Pylône autostable"; 21.0;"TDF"
939037;2.84167;43.95167;"02° 50' 30.00'' Est, 43° 57' 06.00'' Nord";"12286";"LA PRADE";"LE BOURGUET - D999";"12400";"VABRES-L'ABBAYE";"Pylône autostable"; 24.0;"ORANGE"
948913;2.04667;44.51389;"02° 02' 48.00'' Est, 44° 30' 50.00'' Nord";"12257";"GELLE";;"12700";"CAUSSE-ET-DIEGE";"Bâtiment"; 10.0;"Commune, communauté de commune"
950065;2.53056;43.98028;"02° 31' 50.00'' Est, 43° 58' 49.00'' Nord";"12035";"LA CROUX";"DÉPARTEMENTALE D200 USINE EDF";"12550";"BRASC";"Bâtiment"; 6.0;"EDF GDF"
950228;2.78528;43.96194;"02° 47' 07.00'' Est, 43° 57' 43.00'' Nord";"12208";"LE CAMBON";"DÉPARTEMENTALE 25 STATION LIMNIMÉTRIQUE";"12400";"SAINT-AFFRIQUE";"Bâtiment"; 6.0;"EDF GDF"
951274;2.57361;44.00889;"02° 34' 25.00'' Est, 44° 00' 32.00'' Nord";"12075";"LA TEULIÈRE";"RELAIS TDF RESQUITA CONNAC";"12170";"CONNAC";"Pylône autostable"; 12.0;"TDF"
953246;2.58583;44.34861;"02° 35' 09.00'' Est, 44° 20' 55.00'' Nord";"12146";"BANOCRES";;"12000";"LE MONASTERE";"Pylône autostable"; 20.0;"BOUYGUES"
958766;3.15500;44.00778;"03° 09' 18.00'' Est, 44° 00' 28.00'' Nord";"12063";;"21 R GRAND CHEM POSTE DE LA CAVALERIE";"12230";"LA CAVALERIE";"Pylône autostable"; 21.0;"ORANGE Services Fixes"
962113;2.99889;44.50833;"02° 59' 56.00'' Est, 44° 30' 30.00'' Nord";"12014";"VERLAGUET";;"12130";"AURELLE-VERLAC";"Mât béton"; 10.5;"BOUYGUES"
963315;2.57194;44.70556;"02° 34' 19.00'' Est, 44° 42' 20.00'' Nord";"12226";"LE POUJOULET";"CHÂTEAU DU POUJOUL";"12140";"SAINT-HIPPOLYTE";"Pylône autostable"; 20.0;"TDF"
972444;2.44194;44.08722;"02° 26' 31.00'' Est, 44° 05' 14.00'' Nord";"12127";"CAMPING DU VILLAGE";"AUTOCOM";"12170";"LEDERGUES";"Bâtiment"; 3.0;"ORANGE Services Fixes"
972695;3.05167;44.25722;"03° 03' 06.00'' Est, 44° 15' 26.00'' Nord";"12291";"FENAILLES";;"12520";"VERRIERES";"Pylône autostable"; 45.0;"TDF"
974502;2.76833;44.05861;"02° 46' 06.00'' Est, 44° 03' 31.00'' Nord";"12284";;"USINE EDF HYDROELECTRIQUE POUGET";"12430";"LE TRUEL";"Bâtiment"; 24.0;"EDF GDF"
974510;3.06750;44.09028;"03° 04' 03.00'' Est, 44° 05' 25.00'' Nord";"12145";;"RUE DU MOULIN BAS STATION LIMNIMETRIQUE MILLAU";"12100";"MILLAU";"Mât métallique"; 10.0;"EDF GDF"
974586;2.80500;44.07028;"02° 48' 18.00'' Est, 44° 04' 13.00'' Nord";"12251";;"CENTRALE EDF HYDROELECTRIQUE PINET";"12400";"SAINT-VICTOR-ET-MELVIEU";"Bâtiment"; 15.0;"EDF GDF"
974613;2.98389;44.06361;"02° 59' 02.00'' Est, 44° 03' 49.00'' Nord";"12225";"STATIONLIMNIMÉTRIQUE ST GEORGE";"CHEMIN DES RIVIÈRES";"12100";"SAINT-GEORGES-DE-LUZENCON";"Bâtiment"; 9.0;"EDF GDF"
979360;2.83417;43.77972;"02° 50' 03.00'' Est, 43° 46' 47.00'' Nord";"12192";;"LE CROS";"12370";"MOUNES-PROHENCOUX";"Bâtiment"; 9.0;"Particulier"
981514;2.90361;43.95889;"02° 54' 13.00'' Est, 43° 57' 32.00'' Nord";"12208";"LA QUILLE";"PUECH LOUDI";"12400";"SAINT-AFFRIQUE";"Pylône autostable"; 21.0;"TDF"
988602;3.18667;43.90167;"03° 11' 12.00'' Est, 43° 54' 06.00'' Nord";"12077";"PUECH CADENOUS";"DÉCHETTERIE";"12540";"CORNUS";"Pylône autostable"; 17.8;"FPS TOWERS"
1001225;3.03056;43.77944;"03° 01' 50.00'' Est, 43° 46' 46.00'' Nord";"12275";"LE BOURG";;"12360";"TAURIAC-DE-CAMARES";"Bâtiment"; 13.9;"Commune, communauté de commune"
1002243;2.62194;43.99861;"02° 37' 19.00'' Est, 43° 59' 55.00'' Nord";"12038";"PERDRIX";"STATION LIMNIMÉTRIQUE";"12480";"BROUSSE-LE-CHATEAU";"Bâtiment"; 6.0;"EDF GDF"
1012127;2.05861;44.35750;"02° 03' 31.00'' Est, 44° 21' 27.00'' Nord";"12300";"LE BOÏ";;"12200";"VILLEFRANCHE-DE-ROUERGUE";"Pylône autostable"; 30.0;"ORANGE"
1019662;2.94778;44.45056;"02° 56' 52.00'' Est, 44° 27' 02.00'' Nord";"12182";"LE PLO DE SOLIGNAC";;"12130";"PIERREFICHE";"Pylône autostable"; 40.0;"BOUYGUES"
1030446;2.47028;44.03889;"02° 28' 13.00'' Est, 44° 02' 20.00'' Nord";"12230";"POMAREDE";;"12170";"SAINT-JEAN-DELNOUS";"Pylône autostable"; 16.0;"BOUYGUES"
1038393;2.22306;44.55083;"02° 13' 23.00'' Est, 44° 33' 03.00'' Nord";"12305";;"ZA DU BOURG";"12110";"VIVIEZ";"Silo"; 8.0;"Société Privée SA"
1041838;2.74139;43.87167;"02° 44' 29.00'' Est, 43° 52' 18.00'' Nord";"12195";"LA CAPELLE";"CHEM RURAL PRÈS D.999";"12400";"REBOURGUIL";"Bâtiment"; 14.0;
1044159;2.64861;43.80778;"02° 38' 55.00'' Est, 43° 48' 28.00'' Nord";"12125";"LA CLAPARÈDE";"MAIRIE - ECOLE";"12380";"LAVAL-ROQUECEZIERE";"Bâtiment"; 11.0;"Commune, communauté de commune"
1044162;2.67444;43.84056;"02° 40' 28.00'' Est, 43° 50' 26.00'' Nord";"12069";"LA PRADELLE";;"12370";"COMBRET";"Mât"; 6.0;"ORANGE Services Fixes"
1044959;2.90444;43.95861;"02° 54' 16.00'' Est, 43° 57' 31.00'' Nord";"12208";"PUECH LOUDI";;"12400";"SAINT-AFFRIQUE";"Pylône autostable"; 24.0;"BOUYGUES"
1047266;2.26472;44.55611;"02° 15' 53.00'' Est, 44° 33' 22.00'' Nord";"12089";;"ZI DE FONTVERGNE";"12300";"DECAZEVILLE";"Bâtiment"; 5.0;"EDF GDF"
1054064;2.71278;44.01806;"02° 42' 46.00'' Est, 44° 01' 05.00'' Nord";"12037";"LA JOURDANIE";"USINE EDF D 200";"12480";"BROQUIES";"Bâtiment"; 15.0;"EDF GDF"
1058886;2.82944;44.15861;"02° 49' 46.00'' Est, 44° 09' 31.00'' Nord";"12253";"SALGANSET";"LA PLANE";"12410";"SALLES-CURAN";"Pylône autostable"; 32.0;"BOUYGUES"
1063286;2.88167;43.95611;"02° 52' 54.00'' Est, 43° 57' 22.00'' Nord";"12208";;"10 BD ARISTIDE BRIAND";"12400";"SAINT-AFFRIQUE";"Bâtiment"; 15.0;"EDF GDF"
1063288;3.08361;44.10306;"03° 05' 01.00'' Est, 44° 06' 11.00'' Nord";"12145";;"29 RUE DE LA PAULELE";"12100";"MILLAU";"Bâtiment"; 5.0;"EDF GDF"
1063463;2.89139;44.47944;"02° 53' 29.00'' Est, 44° 28' 46.00'' Nord";"12219";"PUY DE CAMPECH";;"12130";"SAINTE-EULALIE-D'OLT";"Pylône autostable"; 30.0;"Société Privée SA"
1063465;2.76417;43.79167;"02° 45' 51.00'' Est, 43° 47' 30.00'' Nord";"12025";"NOUIS";;"12370";"BELMONT-SUR-RANCE";"Local technique"; 3.0;"Société Privée SA"
1066158;2.75944;44.52417;"02° 45' 34.00'' Est, 44° 31' 27.00'' Nord";"12096";;"1 RUE EUGENE SALETTES";"12500";"ESPALION";"Bâtiment"; 8.0;"EDF GDF"
1067890;2.87139;44.51167;"02° 52' 17.00'' Est, 44° 30' 42.00'' Nord";"12061";"DISSES";"BARRAGE ANCIEN ÉVACUATEUR DE CRUES";"12500";"CASTELNAU-DE-MANDAILLES";"Bâtiment"; 7.0;"EDF GDF"
1067903;2.08028;44.56639;"02° 04' 49.00'' Est, 44° 33' 59.00'' Nord";"12052";;"1, RUE MERMOZ";"12700";"CAPDENAC-GARE";"Bâtiment"; 6.0;"EDF GDF"
1067905;2.57444;44.36083;"02° 34' 28.00'' Est, 44° 21' 39.00'' Nord";"12202";;"CARREFOUR ST ELOI";"12000";"RODEZ";"Bâtiment"; 10.0;"EDF GDF"
1067907;2.57528;44.35750;"02° 34' 31.00'' Est, 44° 21' 27.00'' Nord";"12202";;"17,RUE DE BORDEAUX";"12000";"RODEZ";"Bâtiment"; 16.0;"EDF GDF"
1068612;2.55611;44.29778;"02° 33' 22.00'' Est, 44° 17' 52.00'' Nord";"12133";;"8, RUE  DU CROS LA PRIMAUBE";"12450";"LUC";"Immeuble"; 10.0;"Société Privée SA"
1190126;3.12500;43.90528;"03° 07' 30.00'' Est, 43° 54' 19.00'' Nord";"12212";"LOURADOU";"FERME ÉQUESTRE";"12540";"SAINT-BEAULIZE";"Bâtiment"; 8.0;"Particulier"
1193562;3.13528;43.86778;"03° 08' 07.00'' Est, 43° 52' 04.00'' Nord";"12155";"PUECH OBSCUR";"FERME DE PANISSARGUES MONTPAON";"12540";"FONDAMENTE";"Pylône autostable"; 15.0;"TDF"
1193577;3.20556;44.21194;"03° 12' 20.00'' Est, 44° 12' 43.00'' Nord";"12160";"LE PUECH";;"12720";"MOSTUEJOULS";"Bâtiment"; 7.0;"Particulier"
1193579;3.19694;44.23139;"03° 11' 49.00'' Est, 44° 13' 53.00'' Nord";"12160";"VORS";;"12720";"MOSTUEJOULS";"Bâtiment"; 8.0;"Particulier"
1193582;3.27556;44.05750;"03° 16' 32.00'' Est, 44° 03' 27.00'' Nord";"12168";"LAUBIGUIER";;"12230";"NANT";"Bâtiment"; 8.0;"Particulier"
1195624;2.98222;44.62139;"02° 58' 56.00'' Est, 44° 37' 17.00'' Nord";"12214";"MAZUC";"AUBRAC";"12470";"SAINT-CHELY-D'AUBRAC";"Pylône tubulaire"; 26.0;"BOUYGUES"
1195628;2.55167;44.03028;"02° 33' 06.00'' Est, 44° 01' 49.00'' Nord";"12197";;"LA VAYSSE";"12170";"REQUISTA";"Pylône autostable"; 37.0;"BOUYGUES"
1200395;2.78444;44.26444;"02° 47' 04.00'' Est, 44° 15' 52.00'' Nord";"12188";"MAIRIE";"D 535";"12290";"PRADES-SALARS";"Bâtiment"; 10.0;"Commune, communauté de commune"
1205098;2.87889;43.96694;"02° 52' 44.00'' Est, 43° 58' 01.00'' Nord";"12208";"LES CAZES";;"12400";"SAINT-AFFRIQUE";"Pylône autostable"; 11.0;"ORANGE"
1238478;2.87833;43.96694;"02° 52' 42.00'' Est, 43° 58' 01.00'' Nord";"12208";"SOMMET DES CAZES";;"12400";"SAINT-AFFRIQUE";"Mât"; 16.0;"Commune, communauté de commune"
1246856;2.04139;44.35028;"02° 02' 29.00'' Est, 44° 21' 01.00'' Nord";"12300";;"QUAI DE LA SENECHAUSSEE RD922 RIVE DROITE DE L AVEYRON";"12200";"VILLEFRANCHE-DE-ROUERGUE";"Bâtiment"; 12.0;"Etat, Ministère"
1246860;2.36528;44.12389;"02° 21' 55.00'' Est, 44° 07' 26.00'' Nord";"12235";;"PRES DU PONT SUR LE VIAUR";"12170";"SAINT-JUST-SUR-VIAUR";"Mât béton"; 10.0;"Etat, Ministère"
1263003;2.62000;44.36222;"02° 37' 12.00'' Est, 44° 21' 44.00'' Nord";"12176";;"MANHAC RIVE DROITE DE L AVEYRON";"12000";"ONET-LE-CHATEAU";"Mât"; 10.0;"Etat, Ministère"
1273085;2.40917;44.54917;"02° 24' 33.00'' Est, 44° 32' 57.00'' Nord";"12218";;"RTE DE CONQUES CAMPING MUNICIPAL RIVE DROITE DOURDOU";"12320";"SAINT-CYPRIEN-SUR-DOURDOU";"Bâtiment"; 3.0;"Etat, Ministère"
1273387;2.55861;44.63889;"02° 33' 31.00'' Est, 44° 38' 20.00'' Nord";"12094";;"RG CHEMIN D ESPEYRAC ROQUEPAIHOL RVE GAUCHE LOT";"12140";"ENTRAYGUES-SUR-TRUYERE";"Bâtiment"; 9.0;"Etat, Ministère"
1273389;2.77028;44.52333;"02° 46' 13.00'' Est, 44° 31' 24.00'' Nord";"12096";;"AV DE ST COME RD 987 RIVE DROITE DU LOT";"12500";"ESPALION";"Bâtiment"; 2.0;"Etat, Ministère"
1273391;3.11333;44.44861;"03° 06' 48.00'' Est, 44° 26' 55.00'' Nord";"12237";;"PONT SUR LE LOT  RIVE DROITE";"12560";"SAINT-LAURENT-D'OLT";"Mât béton"; 14.0;"Etat, Ministère"
1273393;2.71222;44.60667;"02° 42' 44.00'' Est, 44° 36' 24.00'' Nord";"12172";;"BOULDOIRE LE NAYRAC";"12190";"LE NAYRAC";"Bâtiment"; 3.0;"Etat, Ministère"
1273395;2.83028;43.95583;"02° 49' 49.00'' Est, 43° 57' 21.00'' Nord";"12286";;"RIVE GAUCHE DU DOURDOU RD25 BEDOS";"12400";"VABRES-L'ABBAYE";"Mât béton"; 10.0;"Etat, Ministère"
1273397;3.07583;44.09222;"03° 04' 33.00'' Est, 44° 05' 32.00'' Nord";"12145";;"RIVE GAUCHE PONT LEROUGE";"12100";"MILLAU";"Mât métallique"; 10.0;"Etat, Ministère"
1273399;2.99000;43.88000;"02° 59' 24.00'' Est, 43° 52' 48.00'' Nord";"12222";"LE CLAUZET";"RG DE LA SORGUE AMONT DU PONT (2 ARCHES)";"12400";"SAINT-FELIX-DE-SORGUES";"Mât"; 8.0;"Etat, Ministère"
1273401;2.88000;43.82167;"02° 52' 48.00'' Est, 43° 49' 18.00'' Nord";"12044";;"RUE DU PONT VIEUX";"12360";"CAMARES";"Mât métallique"; 7.0;"Etat, Ministère"
1273661;2.60222;43.88667;"02° 36' 08.00'' Est, 43° 53' 12.00'' Nord";"12248";;"PONT D ALBI RIVE DROITE DE LA RANCE";"12380";"SAINT-SERNIN-SUR-RANCE";"Mât béton"; 15.0;"Etat, Ministère"
1273975;3.30444;44.02306;"03° 18' 16.00'' Est, 44° 01' 23.00'' Nord";"12168";;"PONT DE LA PRADE";"12230";"NANT";"Bâtiment"; 13.0;"Etat, Ministère"
1275277;2.62417;44.03528;"02° 37' 27.00'' Est, 44° 02' 07.00'' Nord";"12129";;"BOUXOULIS RESERVOIR";"12430";"LESTRADE-ET-THOUELS";"Pylône haubané"; 25.0;"Etat, Ministère"
1277540;2.97500;44.45972;"02° 58' 30.00'' Est, 44° 27' 35.00'' Nord";"12224";;"LA FON NEGRE";"12130";"SAINT-GENIEZ-D'OLT";"Pylône autostable"; 22.5;"BOUYGUES"
1282351;2.53528;44.35250;"02° 32' 07.00'' Est, 44° 21' 09.00'' Nord";"12174";;"CTRE HOSPITALIER STE MARIE";"12510";"OLEMPS";"Bâtiment"; 20.0;"Etablissement de soins"
1289740;2.03861;44.36111;"02° 02' 19.00'' Est, 44° 21' 40.00'' Nord";"12300";;"AVENUE DE TOULOUSE CFM";"12200";"VILLEFRANCHE-DE-ROUERGUE";"Immeuble"; 8.0;"Société Privée SA"
1316796;2.08028;44.39778;"02° 04' 49.00'' Est, 44° 23' 52.00'' Nord";"12136";;"ZA DE MARCOULY DE LA BALLINA";"12350";"MALEVILLE";"Bâtiment"; 7.0;"Société Privée SA"
1325463;2.70611;44.32306;"02° 42' 22.00'' Est, 44° 19' 23.00'' Nord";"12297";"CROIX DE LA GARDE";;"12290";"LE VIBAL";"Pylône autostable"; 30.0;"Titulaire programme Radio/TV"
1347096;2.33111;44.65361;"02° 19' 52.00'' Est, 44° 39' 13.00'' Nord";"12114";;"LESQUILLE";"12320";"GRAND-VABRE";"Pylône tubulaire"; 35.0;"EDF GDF"
1347164;2.57056;44.63750;"02° 34' 14.00'' Est, 44° 38' 15.00'' Nord";"12094";"RODIEZ";"AVENUE DE RODIEZ BUREAUX GU VALLÉE D'OLT";"12140";"ENTRAYGUES-SUR-TRUYERE";"Bâtiment"; 4.0;"EDF GDF"
1353445;2.87944;44.14972;"02° 52' 46.00'' Est, 44° 08' 59.00'' Nord";"12253";"LA GALINOUSE";;"12410";"SALLES-CURAN";"Pylône autostable"; 30.0;"SDIS, secours, incendie"
1405350;3.06806;44.09111;"03° 04' 05.00'' Est, 44° 05' 28.00'' Nord";"12145";;"BOULEVARD JEAN GABRIAC";"12100";"MILLAU";"Pylône tubulaire"; 25.0;"ORANGE"
1408600;2.05861;44.35750;"02° 03' 31.00'' Est, 44° 21' 27.00'' Nord";"12300";;"LE BOY";"12200";"VILLEFRANCHE-DE-ROUERGUE";"Pylône autostable"; 25.0;"Association"
1408604;2.42472;44.27389;"02° 25' 29.00'' Est, 44° 16' 26.00'' Nord";"12056";;"RUE DE L ARBRE DE LAGARDE RESERVOIR";"12160";"BARAQUEVILLE";"Pylône autostable"; 15.0;"Commune, communauté de commune"
1424874;2.09361;44.56278;"02° 05' 37.00'' Est, 44° 33' 46.00'' Nord";"12052";;"CAUSSE BLANC";"12700";"CAPDENAC-GARE";"Pylône autostable"; 25.0;"Towercast"
1424895;2.74000;44.27444;"02° 44' 24.00'' Est, 44° 16' 28.00'' Nord";"12185";;"ALARET";"12290";"PONT-DE-SALARS";"Pylône autostable"; 26.0;"Towercast"
1440577;2.67472;44.54917;"02° 40' 29.00'' Est, 44° 32' 57.00'' Nord";"12265";"LIAUZI";"SITE ITAS TIM";"12190";"SEBRAZAC";"Pylône autostable"; 19.0;"Itas Tim"
1442775;2.04250;44.34528;"02° 02' 33.00'' Est, 44° 20' 43.00'' Nord";"12300";;"LE RELAIS";"12200";"VILLEFRANCHE-DE-ROUERGUE";"Pylône autostable"; 12.0;"BOUYGUES"
1444273;2.30500;44.55389;"02° 18' 18.00'' Est, 44° 33' 14.00'' Nord";"12100";;"LE PUY DE VOLF";"12300";"FIRMI";"Pylône autostable"; 14.5;"FPS TOWERS"
1447514;2.79250;44.48583;"02° 47' 33.00'' Est, 44° 29' 09.00'' Nord";"12106";"PUECH DE LA FRAYSSE";;"12340";"GABRIAC";"Pylône autostable"; 35.0;"Société Privée SA"
1458000;2.82444;44.38778;"02° 49' 28.00'' Est, 44° 23' 16.00'' Nord";"12120";;"RTE DE PALMAS D28";"12310";"LAISSAC";"Bâtiment"; 12.0;"Etat, Ministère"
1462847;3.05611;44.24833;"03° 03' 22.00'' Est, 44° 14' 54.00'' Nord";"12291";"BEL AIR";"A75";"12520";"VERRIERES";"Pylône autostable"; 15.0;"Etat, Ministère"
1463172;2.54917;44.54722;"02° 32' 57.00'' Est, 44° 32' 50.00'' Nord";"12161";"LE PUECH DE POLISSAL";"SITE ITAS TIM";"12330";"MOURET";"Pylône autostable"; 31.0;"Itas Tim"
1463253;3.14417;44.01000;"03° 08' 39.00'' Est, 44° 00' 36.00'' Nord";"12063";;"ROUTE SAINT ROME DE FERRAND";"12230";"LA CAVALERIE";"Pylône autostable"; 20.0;"Etat, Ministère"
