Numéro du support;Longitude;Latitude;"Position";"Insee";"Lieu dit";"Adresse";"Code postal";"Commune";"Nature du support";Hauteur en m;"Propriétaire"
6274;0.49667;45.66444;"00° 29' 48.00'' Est, 45° 39' 52.00'' Nord";"16223";;"AV DU GAL DE GAULLE RTE D'ANGOULÈME CENTRAL TELEPHONIQUE";"16220";"MONTBRON";"Pylône autostable"; 12.0;"ORANGE Services Fixes"
6284;0.41361;45.54083;"00° 24' 49.00'' Est, 45° 32' 27.00'' Nord";"16084";"CHEZ FREQUANT";"CENTRAL TÉLÉPHONIQUE";"16380";"CHARRAS";"Pylône autostable"; 35.0;"ORANGE Services Fixes"
6304;0.14444;45.65139;"00° 08' 40.00'' Est, 45° 39' 05.00'' Nord";"16015";;"226 RTE DE BORDEAUX";"16000";"ANGOULEME";"Monument religieux"; 30.0;"Commune, communauté de commune"
26385;0.39167;45.76694;"00° 23' 30.00'' Est, 45° 46' 01.00'' Nord";"16280";"LA CROIX ROUGE";;"16110";"RIVIERES";"Pylône autostable"; 39.0;"SFR"
26393;0.15167;45.44333;"00° 09' 06.00'' Est, 45° 26' 36.00'' Nord";"16004";"VIGNES DE L'ABEILLE";"CHEM RURAL N° 13";"16190";"AIGNES-ET-PUYPEROUX";"Pylône autostable"; 42.0;"SFR"
26407;-0.20111;45.36889;"00° 12' 04.00'' Ouest, 45° 22' 08.00'' Nord";"16384";;"BAGUILANT";"16360";"TOUVERAC";"Pylône autostable"; 42.0;"SFR"
26415;0.18917;45.93194;"00° 11' 21.00'' Est, 45° 55' 55.00'' Nord";"16191";"LES ESSARDS";;"16230";"LONNES";"Pylône autostable"; 39.0;"SFR"
26419;0.63056;45.86583;"00° 37' 50.00'' Est, 45° 51' 57.00'' Nord";"16259";"LA GRANDE BOUEGE";;"16270";"LA PERUSE";"Pylône autostable"; 39.0;"SFR"
26421;0.80417;45.89333;"00° 48' 15.00'' Est, 45° 53' 36.00'' Nord";"16132";"BOS DE BREGEAS";;"16150";"ETAGNAC";"Pylône autostable"; 36.5;"SFR"
26439;0.15722;45.69944;"00° 09' 26.00'' Est, 45° 41' 58.00'' Nord";"16154";"PUYRENAUD";;"16160";"GOND-PONTOUVRE";"Pylône autostable"; 33.0;"SFR"
26441;0.13583;45.81528;"00° 08' 09.00'' Est, 45° 48' 55.00'' Nord";"16295";"LA BERNARDE";;"16330";"SAINT-AMANT-DE-BOIXE";"Pylône autostable"; 30.0;"SFR"
26449;0.15972;45.98361;"00° 09' 35.00'' Est, 45° 59' 01.00'' Nord";"16110";"LES BARBATERIES";;"16240";"COURCOME";"Pylône autostable"; 30.0;"SFR"
26453;0.16500;46.01194;"00° 09' 54.00'' Est, 46° 00' 43.00'' Nord";"16136";"BOIS DE LICHE";;"16700";"LA FAYE";"Pylône autostable"; 20.0;"SFR"
26479;-0.27000;45.67778;"00° 16' 12.00'' Ouest, 45° 40' 40.00'' Nord";"16304";"LES CAVERNES";;"16100";"SAINT-BRICE";"Pylône tubulaire"; 20.8;"SFR"
44227;0.17750;45.64222;"00° 10' 39.00'' Est, 45° 38' 32.00'' Nord";"16015";;"STADE CHANZY BD  COLONEL CAMPAGNE";"16000";"ANGOULEME";"Pylône autostable"; 35.0;"Commune, communauté de commune"
70883;0.14917;45.75000;"00° 08' 57.00'' Est, 45° 45' 00.00'' Nord";"16393";"FOUR LACHAUD/LE BRANCHER";;"16330";"VARS";"Pylône autostable"; 12.0;"TDF"
70893;0.15028;45.97944;"00° 09' 01.00'' Est, 45° 58' 46.00'' Nord";"16391";"LA COUTURE";;"16700";"TUZIE";"Pylône autostable"; 31.0;"TDF"
70895;0.15250;46.01417;"00° 09' 09.00'' Est, 46° 00' 51.00'' Nord";"16136";"L'OUCHE DU BOIS/LE CHIROU";;"16700";"LA FAYE";"Pylône autostable"; 30.0;
74167;0.35528;46.00361;"00° 21' 19.00'' Est, 46° 00' 13.00'' Nord";"16404";"LA RANGE";;"16350";"VIEUX-RUFFEC";"Pylône autostable"; 41.0;"ORANGE Services Fixes"
74185;-0.21083;45.35000;"00° 12' 39.00'' Ouest, 45° 21' 00.00'' Nord";"16025";"LA GARENNE";;"16360";"BAIGNES-SAINTE-RADEGONDE";"Pylône autostable"; 36.0;"ORANGE"
74189;0.74917;45.91333;"00° 44' 57.00'' Est, 45° 54' 48.00'' Nord";"16071";"PIECE DE BIERE";"CHATEAU D'EAU";"16150";"CHABRAC";"Château d'eau - réservoir"; 28.0;"ORANGE"
74239;0.59667;46.05306;"00° 35' 48.00'' Est, 46° 03' 11.00'' Nord";"16164";"LE BANQUÉ";"LE STADE MUNICIPAL";"16490";"HIESSE";"Pylône autostable"; 30.0;"ORANGE"
74261;0.41250;45.59528;"00° 24' 45.00'' Est, 45° 35' 43.00'' Nord";"16158";"LES RESERVATS";;"16380";"GRASSAC";"Pylône autostable"; 30.0;"ORANGE"
128420;0.66444;46.01667;"00° 39' 52.00'' Est, 46° 00' 60.00'' Nord";"16106";"ST BARTHÉLÉMY";;"16500";"CONFOLENS";"Pylône haubané"; 10.0;"Titulaire programme Radio/TV"
141188;0.16389;45.64750;"00° 09' 50.00'' Est, 45° 38' 51.00'' Nord";"16015";;"VOIE DE L'EUROPE";"16000";"ANGOULEME";"Tunnel"; 7.0;
150468;-0.33472;45.69750;"00° 20' 05.00'' Ouest, 45° 41' 51.00'' Nord";"16102";;"HOTEL DE VILLE";"16100";"COGNAC";"Support non décrit"; 18.0;
171736;0.86056;45.95306;"00° 51' 38.00'' Est, 45° 57' 11.00'' Nord";"16064";;"LE BOURG";"16420";"BRIGUEUIL";"Support non décrit"; 8.0;
173625;-0.17389;45.68139;"00° 10' 26.00'' Ouest, 45° 40' 53.00'' Nord";"16167";;"PLACE JEAN JAURES MAIRIE";"16200";"JARNAC";"Bâtiment"; 25.0;"Commune, communauté de commune"
175992;0.00167;45.24778;"00° 00' 06.00'' Est, 45° 14' 52.00'' Nord";"16279";;"LE BOURG";"16210";"RIOUX-MARTIN";"Support non décrit"; 12.0;
205575;0.61528;45.82583;"00° 36' 55.00'' Est, 45° 49' 33.00'' Nord";"16183";"LES LANDES";;"16310";"LESIGNAC-DURAND";"Pylône autostable"; 48.0;"FPS TOWERS"
208892;0.22583;46.08611;"00° 13' 33.00'' Est, 46° 05' 10.00'' Nord";"16378";;"RST LES ADJOTS EX PN 261 PK 396.240";"16700";"TAIZE-AIZIE";"Mât"; 22.0;"SNCF Réseau"
208896;0.17083;46.01667;"00° 10' 15.00'' Est, 46° 00' 60.00'' Nord";"16136";;"RST TUNNEL DES PLANS NORD PK 404.210";"16700";"LA FAYE";"Mât"; 6.0;"SNCF Réseau"
208900;0.16639;46.01222;"00° 09' 59.00'' Est, 46° 00' 44.00'' Nord";"16136";;"RST TUNNEL DES PLANS SUD PK 404.700";"16700";"LA FAYE";"Mât"; 6.0;"SNCF Réseau"
208904;0.14306;45.96639;"00° 08' 35.00'' Est, 45° 57' 59.00'' Nord";"16391";;"RST SALLES MOUSSAC PK 410.500";"16700";"TUZIE";"Mât"; 22.0;"SNCF Réseau"
208908;0.10972;45.88806;"00° 06' 35.00'' Est, 45° 53' 17.00'' Nord";"16196";;"RST LUXE PK 420.360";"16230";"LUXE";"Mât"; 22.0;"SNCF Réseau"
208912;0.15111;45.80889;"00° 09' 04.00'' Est, 45° 48' 32.00'' Nord";"16295";;"RST ST AMANT DE BOIXE PK 430.630";"16330";"SAINT-AMANT-DE-BOIXE";"Mât"; 22.0;"SNCF Réseau"
208914;0.13667;45.76583;"00° 08' 12.00'' Est, 45° 45' 57.00'' Nord";"16393";;"RST VARS PK 435.810";"16330";"VARS";"Mât"; 22.0;"SNCF Réseau"
208919;0.17194;45.66389;"00° 10' 19.00'' Est, 45° 39' 50.00'' Nord";"16154";;"RST ANGOULEME NORD PK 448.040";"16160";"GOND-PONTOUVRE";"Mât"; 5.0;"SNCF Réseau"
208924;0.15028;45.64694;"00° 09' 01.00'' Est, 45° 38' 49.00'' Nord";"16015";;"RST TUNNEL D'ANGOULEME PK 450.710";"16000";"ANGOULEME";"Mât"; 6.0;"SNCF Réseau"
208928;0.10806;45.61806;"00° 06' 29.00'' Est, 45° 37' 05.00'' Nord";"16113";;"RST BREUTY PS PK 455.190";"16400";"LA COURONNE";"Mât"; 22.0;"SNCF Réseau"
208932;0.12222;45.55250;"00° 07' 20.00'' Est, 45° 33' 09.00'' Nord";"16236";;"RST MOUTHIERS PK 463.540";"16440";"MOUTHIERS-SUR-BOEME";"Mât"; 22.0;"SNCF Réseau"
208936;0.16194;45.49750;"00° 09' 43.00'' Est, 45° 29' 51.00'' Nord";"16082";;"RST CHARMANT PK 470.650";"16320";"CHARMANT";"Mât"; 22.0;"SNCF Réseau"
208940;0.16917;45.46694;"00° 10' 09.00'' Est, 45° 28' 01.00'' Nord";"16082";;"RST TUNNEL LIVERNAN PK 474.160";"16320";"CHARMANT";"Mât"; 6.0;"SNCF Réseau"
208944;0.11417;45.36972;"00° 06' 51.00'' Est, 45° 22' 11.00'' Nord";"16170";;"RST PERROTINS PN291 PK 487.300";"16190";"JUIGNAC";"Mât"; 10.0;"SNCF Réseau"
208948;0.04139;45.26250;"00° 02' 29.00'' Est, 45° 15' 45.00'' Nord";"16073";;"RST CHALAIS PN 305 PK 500.820";"16210";"CHALAIS";"Mât"; 22.0;"SNCF Réseau"
240373;-0.25306;45.72028;"00° 15' 11.00'' Ouest, 45° 43' 13.00'' Nord";"16243";"LES LOGES";;"16200";"NERCILLAC";"Pylône tubulaire"; 27.0;"ORANGE"
253485;0.15667;45.70361;"00° 09' 24.00'' Est, 45° 42' 13.00'' Nord";"16078";;"RST PUYRENAUD POSTE PK 443.230 (1) & (2)";"16430";"CHAMPNIERS";"Mât"; 22.0;"SNCF Réseau"
253487;0.17194;45.43806;"00° 10' 19.00'' Est, 45° 26' 17.00'' Nord";"16092";;"RST AIGNES PN 287 PK 478.300 (1) & (2)";"16320";"CHAVENAT";"Mât"; 22.0;"SNCF Réseau"
253489;0.09000;45.31306;"00° 05' 24.00'' Est, 45° 18' 47.00'' Nord";"16112";;"RST MONTBOYER PK 494.010 (1) & (2)";"16210";"COURLAC";"Mât"; 21.0;"SNCF Réseau"
261387;0.11250;45.39750;"00° 06' 45.00'' Est, 45° 23' 51.00'' Nord";"16328";"LES MARCHAIS";;"16190";"SAINT-LAURENT-DE-BELZAGOT";"Pylône autostable"; 28.0;"SFR"
263450;-0.35611;45.74472;"00° 21' 22.00'' Ouest, 45° 44' 41.00'' Nord";"16097";;"R MORAL DE CALATRAVA  TERRAIN DE SPORT";"16370";"CHERVES-RICHEMONT";"Pylône autostable"; 30.0;"SFR"
265596;0.20167;45.70806;"00° 12' 06.00'' Est, 45° 42' 29.00'' Nord";"16078";"PUY ROBERT";;"16430";"CHAMPNIERS";"Pylône autostable"; 31.0;"SFR"
273038;0.17167;45.65833;"00° 10' 18.00'' Est, 45° 39' 30.00'' Nord";"16015";;"BD  DU 8 MAI 1945 PL DE PISANY";"16000";"ANGOULEME";"Immeuble"; 19.0;"Copropriété, Syndic, SCI"
274322;-0.32472;45.68583;"00° 19' 29.00'' Ouest, 45° 41' 09.00'' Nord";"16102";;"PL DE LA GARE";"16100";"COGNAC";"Pylône tubulaire"; 25.0;"ORANGE"
285825;0.11139;45.64556;"00° 06' 41.00'' Est, 45° 38' 44.00'' Nord";"16341";;"R DU CHÊNE CHEM DE LA GRANDE COMBE";"16470";"SAINT-MICHEL";"Pylône tubulaire"; 24.0;"ORANGE"
288712;0.88083;45.94611;"00° 52' 51.00'' Est, 45° 56' 46.00'' Nord";"16064";"LES LOGES";"STATION TDF";"16420";"BRIGUEUIL";"Pylône autostable"; 62.0;"TDF"
289392;0.17472;45.65417;"00° 10' 29.00'' Est, 45° 39' 15.00'' Nord";"16015";;"R DE GERGOVIE IMM IBIS";"16000";"ANGOULEME";"Immeuble"; 20.3;"Société HLM"
299123;0.15222;45.66833;"00° 09' 08.00'' Est, 45° 40' 06.00'' Nord";"16358";;"RTE DE BELLEVUE";"16710";"SAINT-YRIEIX-SUR-CHARENTE";"Pylône tubulaire"; 22.0;"ORANGE"
301632;-0.35806;45.66667;"00° 21' 29.00'' Ouest, 45° 39' 60.00'' Nord";"16217";;"AVENUE DE GIMEUX ZI UNITÉ CONDITIONNEMENT";"16100";"MERPINS";"Bâtiment"; 33.0;"Société Privée SA"
301634;-0.33083;45.68917;"00° 19' 51.00'' Ouest, 45° 41' 21.00'' Nord";"16102";;"20 R. DE LA STÉ VINICOLE";"16100";"COGNAC";"Bâtiment"; 16.0;"Société Privée SA"
301636;-0.34694;45.72500;"00° 20' 49.00'' Ouest, 45° 43' 30.00'' Nord";"16097";;"CHATEAU DE CHANTELOUP";"16370";"CHERVES-RICHEMONT";"Support non décrit";;
311570;0.13056;45.64056;"00° 07' 50.00'' Est, 45° 38' 26.00'' Nord";"16015";"LES ALLIERS";"R LOUIS PERGAUD";"16000";"ANGOULEME";"Pylône tubulaire"; 24.0;"ORANGE"
312597;0.12778;45.67528;"00° 07' 40.00'' Est, 45° 40' 31.00'' Nord";"16358";;"19 AV DE L UNION MAIRIE DE ST YRIEIX";"16710";"SAINT-YRIEIX-SUR-CHARENTE";"Bâtiment"; 13.0;"Société Privée SA"
320950;-0.05444;45.80639;"00° 03' 16.00'' Ouest, 45° 48' 23.00'' Nord";"16286";"LE BREUIL";"CHÂTEAU LIGNÈRES";"16170";"ROUILLAC";"Bâtiment"; 20.0;"Particulier"
320952;0.66722;45.89389;"00° 40' 02.00'' Est, 45° 53' 38.00'' Nord";"16134";"LES RIVAUDS";"VERS DÉPARTEMENT 165 ATELIER LA COLDEBOUYE";"16150";"EXIDEUIL";"Bâtiment"; 6.0;"Société Privée SA"
322306;-0.05389;45.79667;"00° 03' 14.00'' Ouest, 45° 47' 48.00'' Nord";"16286";"VALLON DES BRANDES";"VERS DÉPARTEMENT 736";"16170";"ROUILLAC";"Immeuble"; 18.0;
329217;0.46833;46.02583;"00° 28' 06.00'' Est, 46° 01' 33.00'' Nord";"16038";"LES LOGES";"PRÈS D171 CHEM COMMUNAL";"16350";"BENEST";"Pylône autostable"; 36.0;"ORANGE"
329219;0.54306;45.99028;"00° 32' 35.00'' Est, 45° 59' 25.00'' Nord";"16009";"PUYNODE HAUT";;"16490";"AMBERNAC";"Pylône autostable"; 30.0;"ORANGE"
333760;-0.32528;45.69306;"00° 19' 31.00'' Ouest, 45° 41' 35.00'' Nord";"16102";;"6, PL JEAN MONNET STUDIO  MIXX FM";"16100";"COGNAC";"Immeuble"; 10.0;"Titulaire programme Radio/TV"
340300;0.16472;45.65194;"00° 09' 53.00'' Est, 45° 39' 07.00'' Nord";"16015";"LA GRAND FONT";"VOIE DE L'EUROPE TUNNEL DE LA GATINE";"16000";"ANGOULEME";"Tunnel"; 5.0;"Commune, communauté de commune"
348814;0.60083;45.83667;"00° 36' 03.00'' Est, 45° 50' 12.00'' Nord";"16149";"LES MOUILLÈRES";"PRÈS DE LA D 86 CARRIÈRE DES FAYARDS";"16270";"GENOUILLAC";"Mât"; 7.0;"ORANGE"
349794;-0.18722;45.66194;"00° 11' 14.00'' Ouest, 45° 39' 43.00'' Nord";"16202";"LA FORÊT";;"16200";"MAINXE";"Pylône autostable"; 39.0;"SFR"
350594;-0.40972;45.75417;"00° 24' 35.00'' Ouest, 45° 45' 15.00'' Nord";"16355";"LE CARTIER";;"16370";"SAINT-SULPICE-DE-COGNAC";"Pylône autostable"; 38.0;"SFR"
350894;0.67917;45.97806;"00° 40' 45.00'' Est, 45° 58' 41.00'' Nord";"16337";"LA BROUTERIE";"VOIE COMMUNALE";"16500";"SAINT-MAURICE-DES-LIONS";"Pylône autostable"; 34.0;"ORANGE"
355895;0.16833;45.64306;"00° 10' 06.00'' Est, 45° 38' 35.00'' Nord";"16015";;"ALLÉE DE BELLEVUE RÉSIDENCE BELLEVUE";"16000";"ANGOULEME";"Immeuble"; 32.0;"Copropriété, Syndic, SCI"
358208;0.06194;45.27056;"00° 03' 43.00'' Est, 45° 16' 14.00'' Nord";"16073";"LE RENFERMÉ";"D2 CHÂTEAU D'EAU DE FARZIOU";"16210";"CHALAIS";"Château d'eau - réservoir"; 23.0;"Syndicat des eaux, Adduction"
358454;0.10222;45.61472;"00° 06' 08.00'' Est, 45° 36' 53.00'' Nord";"16113";;"RTE DE BORDEAUX";"16400";"LA COURONNE";"Bâtiment"; 35.0;
389697;-0.35444;45.69056;"00° 21' 16.00'' Ouest, 45° 41' 26.00'' Nord";"16102";"CITÉ DE CROUIN";"R. DE LA GROIE";"16100";"COGNAC";"Pylône tubulaire"; 27.0;"ORANGE"
395616;0.61806;45.94972;"00° 37' 05.00'' Est, 45° 56' 59.00'' Nord";"16205";"LAVENAUD";"D.170";"16500";"MANOT";"Pylône autostable"; 32.0;"ORANGE"
400652;0.22167;45.67611;"00° 13' 18.00'' Est, 45° 40' 34.00'' Nord";"16291";;"R RENÉ GILLARDIE PL DE LA GARE";"16600";"RUELLE-SUR-TOUVRE";"Pylône tubulaire"; 20.0;"ORANGE"
401347;-0.31111;45.67944;"00° 18' 40.00'' Ouest, 45° 40' 46.00'' Nord";"16089";;"R PIERRE LATÉCOÈRE Z.I CHATEAUBERNARD";"16100";"CHATEAUBERNARD";"Pylône autostable"; 12.0;"ORANGE"
423480;0.13833;45.99722;"00° 08' 18.00'' Est, 45° 59' 50.00'' Nord";"16110";"LA CULOUBE";"VOIE COMMUNALE";"16240";"COURCOME";"Pylône autostable"; 37.0;"ORANGE"
424656;0.22389;45.98750;"00° 13' 26.00'' Est, 45° 59' 15.00'' Nord";"16400";"LA GARE";"R DU CHATEAU  D26 STADE";"16510";"VERTEUIL-SUR-CHARENTE";"Pylône autostable"; 17.0;"Commune, communauté de commune"
425330;0.03167;45.77361;"00° 01' 54.00'' Est, 45° 46' 25.00'' Nord";"16148";"LES HOUILLERS";;"16170";"GENAC";"Pylône autostable"; 40.0;"SFR"
435058;0.17944;45.65194;"00° 10' 46.00'' Est, 45° 39' 07.00'' Nord";"16015";;"85 R BELLEGARDE RÉS. BEAUSÉJOUR";"16000";"ANGOULEME";"Immeuble"; 12.0;"Copropriété, Syndic, SCI"
435344;0.18056;45.66556;"00° 10' 50.00'' Est, 45° 39' 56.00'' Nord";"16166";;"3 AV MAL JUIN ZI";"16340";"L'ISLE-D'ESPAGNAC";"Pylône autostable"; 39.0;"TDF"
438016;0.09417;45.66194;"00° 05' 39.00'' Est, 45° 39' 43.00'' Nord";"16138";"LES PLANTES";"R DU CH D'EAU";"16730";"FLEAC";"Château d'eau - réservoir"; 44.0;"Syndicat des eaux, Adduction"
438135;0.29139;45.67528;"00° 17' 29.00'' Est, 45° 40' 31.00'' Nord";"16232";"LES COUDRASSES";"LES BRANDES C R N°5 DIT DE SENS";"16600";"MORNAC";"Pylône autostable"; 35.0;"ORANGE"
440292;-0.15806;45.45778;"00° 09' 29.00'' Ouest, 45° 27' 28.00'' Nord";"16028";"LE GRAND FIEF";"CHEM RURAL N°15 DE PEUGEMARD À BARBEZIEUX";"16300";"BARBEZIEUX-SAINT-HILAIRE";"Pylône autostable"; 42.0;"TDF"
440552;0.33500;45.50639;"00° 20' 06.00'' Est, 45° 30' 23.00'' Nord";"16125";"BEAUREGARD";"CHEM RURAL";"16320";"EDON";"Pylône autostable"; 43.0;"SFR"
443063;-0.32083;45.71639;"00° 19' 15.00'' Ouest, 45° 42' 59.00'' Nord";"16102";;"BAGNOLET";"16100";"COGNAC";"Château d'eau - réservoir"; 23.0;"Syndicat des eaux, Adduction"
443327;0.16028;45.62583;"00° 09' 37.00'' Est, 45° 37' 33.00'' Nord";"16271";"MA CAMPAGNE";"IMP DE LA CHAUME";"16400";"PUYMOYEN";"Château d'eau - réservoir"; 67.0;"Commune, communauté de commune"
443809;0.20417;46.09417;"00° 12' 15.00'' Est, 46° 05' 39.00'' Nord";"16002";"LES BOIS DE LA PORTERIE";;"16700";"LES ADJOTS";"Pylône autostable"; 35.0;"SFR"
444505;0.19000;45.64556;"00° 11' 24.00'' Est, 45° 38' 44.00'' Nord";"16374";;"IMM W2 - R ROMAIN ROLLAND";"16800";"SOYAUX";"Immeuble"; 68.0;"Société HLM"
450492;0.40361;45.73861;"00° 24' 13.00'' Est, 45° 44' 19.00'' Nord";"16281";"LES GRANDS CHAMPS";;"16110";"LA ROCHEFOUCAULD";"Pylône autostable"; 49.0;"TDF"
451446;0.20028;46.01611;"00° 12' 01.00'' Est, 46° 00' 58.00'' Nord";"16292";"BOIS DU LAC - TROTTE CHIEN";"RTE VERTEUIL - D26";"16700";"RUFFEC";"Château d'eau - réservoir"; 28.5;"Syndicat des eaux, Adduction"
456301;0.37167;45.90556;"00° 22' 18.00'' Est, 45° 54' 20.00'' Nord";"16068";"LA BEUDOU";"CHEM RURAL";"16260";"CELLEFROUIN";"Pylône autostable"; 38.0;"FPS TOWERS"
456364;0.30778;45.86000;"00° 18' 28.00'' Est, 45° 51' 36.00'' Nord";"16296";"CHEZ DAVID";"CHEM RURAL";"16230";"SAINT-AMANT-DE-BONNIEURE";"Pylône autostable"; 35.0;"FPS TOWERS"
457224;0.67250;45.99583;"00° 40' 21.00'' Est, 45° 59' 45.00'' Nord";"16106";"JALLAIS";"RD948 CHATEAU D EAU";"16500";"CONFOLENS";"Château d'eau - réservoir"; 36.0;"Syndicat des eaux, Adduction"
457756;-0.09056;45.73556;"00° 05' 26.00'' Ouest, 45° 44' 08.00'' Nord";"16395";"CHEZ PEUTIER-LE PARC";"CHEM RURAL";"16170";"VAUX-ROUILLAC";"Pylône autostable"; 38.0;"FPS TOWERS"
458215;-0.38833;45.71250;"00° 23' 18.00'' Ouest, 45° 42' 45.00'' Nord";"16193";"LA CROIX-FRAINGANT";;"16100";"LOUZAC-SAINT-ANDRE";"Château d'eau - réservoir"; 46.0;"Syndicat des eaux, Adduction"
458587;0.03472;45.66556;"00° 02' 05.00'' Est, 45° 39' 56.00'' Nord";"16348";"LE FOUR LACHAUX";;"16290";"SAINT-SATURNIN";"Pylône autostable"; 68.0;"TDF"
458604;0.33111;45.94722;"00° 19' 52.00'' Est, 45° 56' 50.00'' Nord";"16325";"CHEZ GUILLOUX - LE LAC";;"16700";"SAINT-GOURSON";"Pylône autostable"; 38.0;"FPS TOWERS"
459376;0.24000;45.67861;"00° 14' 24.00'' Est, 45° 40' 43.00'' Nord";"16291";;"R DE PUYGUILLEN RÉSERVOIR D'EAU";"16600";"RUELLE-SUR-TOUVRE";"Pylône autostable"; 32.0;"TDF"
459893;-0.35806;45.66444;"00° 21' 29.00'' Ouest, 45° 39' 52.00'' Nord";"16217";;"AV DE GIMEUX ZI";"16100";"MERPINS";"Bâtiment"; 22.0;"Société Privée SA"
462371;-0.06667;45.60528;"00° 04' 00.00'' Ouest, 45° 36' 19.00'' Nord";"16090";"CHAMPS MONSIEUR";;"16120";"CHATEAUNEUF-SUR-CHARENTE";"Pylône autostable"; 37.0;"TDF"
462417;0.65722;46.02972;"00° 39' 26.00'' Est, 46° 01' 47.00'' Nord";"16106";"LA LOGE BOIREAU";;"16500";"CONFOLENS";"Pylône autostable"; 69.0;"TDF"
462959;0.16167;45.57750;"00° 09' 42.00'' Est, 45° 34' 39.00'' Nord";"16418";"LE PLESSIS";"DÉPARTEMENTALE 674";"16400";"VOEUIL-ET-GIGET";"Pylône autostable"; 40.0;"TDF"
463491;0.03889;45.56694;"00° 02' 20.00'' Est, 45° 34' 01.00'' Nord";"16101";"BUTTE À FUSILLER";"D 7";"16440";"CLAIX";"Pylône autostable"; 42.0;"TDF"
464049;-0.32194;45.68889;"00° 19' 19.00'' Ouest, 45° 41' 20.00'' Nord";"16102";;"35 R DE L'AVENIR -9 R SAUTE GRENOUILLE RÉSIDENCE FRANÇOIS PREMIER";"16100";"COGNAC";"Immeuble"; 30.8;"Copropriété, Syndic, SCI"
464077;0.19222;45.61556;"00° 11' 32.00'' Est, 45° 36' 56.00'' Nord";"16120";"LA PERRIERE";"BOIS D'HURTEBISE";"16410";"DIRAC";"Pylône autostable"; 66.0;"TDF"
466743;-0.26917;45.58528;"00° 16' 09.00'' Ouest, 45° 35' 07.00'' Nord";"16171";;"LA POUYADE";"16130";"JUILLAC-LE-COQ";"Château d'eau - réservoir"; 51.0;"Syndicat des eaux, Adduction"
468416;0.19389;45.28500;"00° 11' 38.00'' Est, 45° 17' 06.00'' Nord";"16240";"BONNAUD";"CHEM RURAL N°15 - D.17 DÉCHETTERIE";"16390";"NABINAUD";"Pylône autostable"; 35.0;"ORANGE"
468666;0.20194;46.04000;"00° 12' 07.00'' Est, 46° 02' 24.00'' Nord";"16292";"LES GORDINS";"CHÂTEAU D'EAU";"16700";"RUFFEC";"Château d'eau - réservoir"; 42.0;"Syndicat des eaux, Adduction"
469154;0.04861;45.26500;"00° 02' 55.00'' Est, 45° 15' 54.00'' Nord";"16073";;"LE HOUME LE MACHENET";"16210";"CHALAIS";"Pylône autostable"; 41.0;"TDF"
496522;0.14444;45.65778;"00° 08' 40.00'' Est, 45° 39' 28.00'' Nord";"16015";;"R DE STES RÉSIDENCE DE LA CROIX ST CYBARD";"16000";"ANGOULEME";"Immeuble"; 25.3;"Copropriété, Syndic, SCI"
498818;0.16500;45.46056;"00° 09' 54.00'' Est, 45° 27' 38.00'' Nord";"16092";"LES BRANDES";"D.439";"16320";"CHAVENAT";"Pylône autostable"; 30.0;"SFR"
508849;0.13000;45.64806;"00° 07' 48.00'' Est, 45° 38' 53.00'' Nord";"16015";"LA GRANDE GARENNE";"R DU DR SCHWEITZER/RENÉ PAJOT TOUR GRANDE GARENNE";"16000";"ANGOULEME";"Immeuble"; 54.0;"Société HLM"
511660;0.17583;45.68889;"00° 10' 33.00'' Est, 45° 41' 20.00'' Nord";"16078";"PLANTIER DE DENAT";"CHEM DE FONTENILLE AU PONTOUVRE";"16430";"CHAMPNIERS";"Pylône autostable"; 30.0;"SFR"
512941;0.18806;45.64528;"00° 11' 17.00'' Est, 45° 38' 43.00'' Nord";"16374";"LE CHAMP DE MANOEUVRE";"3 R DES FRÈRES PELISSIER TOUR W3";"16800";"SOYAUX";"Immeuble"; 56.2;"Société HLM"
522281;-0.33944;45.70250;"00° 20' 22.00'' Ouest, 45° 42' 09.00'' Nord";"16102";"LA COMMODITÉ";"AV DE ST JEAN D'ANGELY CHÂTEAU D'EAU";"16100";"COGNAC";"Château d'eau - réservoir"; 63.0;"Commune, communauté de commune"
522940;0.18833;46.01917;"00° 11' 18.00'' Est, 46° 01' 09.00'' Nord";"16136";;"RTE D'AIGRE NORD CHARENTE BOIS";"16700";"LA FAYE";"Pylône autostable"; 42.0;"TDF"
534057;0.14806;45.67389;"00° 08' 53.00'' Est, 45° 40' 26.00'' Nord";"16358";"LA GRANGE A L'ABBE";;"16710";"SAINT-YRIEIX-SUR-CHARENTE";"Pylône autostable"; 20.0;"SFR"
538160;0.03306;45.63056;"00° 01' 59.00'' Est, 45° 37' 50.00'' Nord";"16370";"BOIS DE LA ROCHE";;"16440";"SIREUIL";"Pylône autostable"; 40.9;"FPS TOWERS"
540175;0.35056;45.73833;"00° 21' 02.00'' Est, 45° 44' 18.00'' Nord";"16344";"LIBOURNE";;"16110";"SAINT-PROJET-SAINT-CONSTANT";"Pylône autostable"; 35.0;"TDF"
544838;-0.30889;45.68417;"00° 18' 32.00'' Ouest, 45° 41' 03.00'' Nord";"16089";;"R DE L'ANISSERIE PARKING BRICO-LOISIRS GIFI";"16100";"CHATEAUBERNARD";"Pylône tubulaire"; 29.0;"TDF"
546210;0.15083;45.63306;"00° 09' 03.00'' Est, 45° 37' 59.00'' Nord";"16015";;"PL HILDESHEIM  RES DORAT";"16000";"ANGOULEME";"Immeuble"; 27.0;"Société HLM"
548662;-0.32667;45.69278;"00° 19' 36.00'' Ouest, 45° 41' 34.00'' Nord";"16102";;"19 PL MONNET CENTRE DES CONGRÈS LA SALAMANDRE";"16100";"COGNAC";"Bâtiment"; 18.0;"Commune, communauté de commune"
548678;-0.15556;45.46944;"00° 09' 20.00'' Ouest, 45° 28' 10.00'' Nord";"16028";;"R DU CHÂTEAU D'EAU";"16300";"BARBEZIEUX-SAINT-HILAIRE";"Château d'eau - réservoir"; 33.0;"Commune, communauté de commune"
549826;0.18083;45.70306;"00° 10' 51.00'' Est, 45° 42' 11.00'' Nord";"16078";"LES CHAUVAUDS";;"16430";"CHAMPNIERS";"Pylône autostable"; 42.0;"FPS TOWERS"
555308;-0.33694;45.62806;"00° 20' 13.00'' Ouest, 45° 37' 41.00'' Nord";"16359";"LA POTENCE";"RÉSERVOIRS ACCÈS PAR ROUTE DE PRUNEAU À GENLÉ";"16130";"SALLES-D'ANGLES";"Pylône autostable"; 9.0;"ORANGE"
560019;0.14861;45.39917;"00° 08' 55.00'' Est, 45° 23' 57.00'' Nord";"16294";;"LA CHAISE";"16190";"SAINT-AMANT";"Pylône autostable"; 35.0;"TDF"
560156;0.12722;45.78056;"00° 07' 38.00'' Est, 45° 46' 50.00'' Nord";"16226";"LA PRADE";;"16330";"MONTIGNAC-CHARENTE";"Pylône autostable"; 22.0;"TDF"
560535;0.12222;45.55694;"00° 07' 20.00'' Est, 45° 33' 25.00'' Nord";"16236";"TERRAIN DE SPORT";"AV DU 28 AOUT 1944";"16440";"MOUTHIERS-SUR-BOEME";"Mât béton"; 19.2;"TDF"
561476;0.04889;45.47083;"00° 02' 56.00'' Est, 45° 28' 15.00'' Nord";"16258";;"L'AUMONERIE";"16250";"PERIGNAC";"Pylône autostable"; 22.0;"TDF"
561488;-0.22667;45.37056;"00° 13' 36.00'' Ouest, 45° 22' 14.00'' Nord";"16025";;"LES GRANGES NEUVES D 132";"16360";"BAIGNES-SAINTE-RADEGONDE";"Pylône autostable"; 43.0;"TDF"
561704;0.68472;46.01944;"00° 41' 05.00'' Est, 46° 01' 10.00'' Nord";"16106";;"LA PRECHILLE";"16500";"CONFOLENS";"Pylône autostable"; 45.0;"TDF"
563422;-0.16667;45.69500;"00° 10' 00.00'' Ouest, 45° 41' 42.00'' Nord";"16167";"LES CORNETTES";"CHEM DE LA FONTAINE BODIT";"16200";"JARNAC";"Pylône autostable"; 40.0;"ORANGE"
563541;0.16222;45.65000;"00° 09' 44.00'' Est, 45° 38' 60.00'' Nord";"16015";;"30 R ST ROCH CINEMA MEGA CGR";"16000";"ANGOULEME";"Bâtiment"; 13.0;"Société Privée SA"
580257;-0.00222;45.40222;"00° 00' 08.00'' Ouest, 45° 24' 08.00'' Nord";"16267";"LE FIEF DE CHEZ COURGEAU";"D.24";"16190";"POULLIGNAC";"Pylône autostable"; 34.0;"Conseil Général"
581884;0.06194;45.94889;"00° 03' 43.00'' Est, 45° 56' 56.00'' Nord";"16390";"LES GRANDES VERSENNES";;"16140";"TUSSON";"Pylône autostable"; 30.0;"FPS TOWERS"
593528;0.15000;45.76778;"00° 09' 00.00'' Est, 45° 46' 04.00'' Nord";"16393";"FONSAZI";;"16330";"VARS";"Pylône autostable"; 30.0;"SFR"
593534;0.36472;45.67000;"00° 21' 53.00'' Est, 45° 40' 12.00'' Nord";"16269";"FLAMENAC - LA FUSADE";"CHEM COMMUNAL N° 106 ANGLE D.699";"16110";"PRANZAC";"Pylône autostable"; 30.0;"ORANGE"
594853;-0.04556;45.58667;"00° 02' 44.00'' Ouest, 45° 35' 12.00'' Nord";"16090";"LE TERRIER";"VOIE COMMUNALE DE RICHAVENT";"16120";"CHATEAUNEUF-SUR-CHARENTE";"Pylône autostable"; 30.0;"ORANGE"
596209;0.23500;45.62889;"00° 14' 06.00'' Est, 45° 37' 44.00'' Nord";"16146";"LA PENOTTE";"ZE VC N°205 ANGLE RTE DE BASSAC";"16410";"GARAT";"Pylône autostable"; 36.0;"ORANGE"
598963;0.26472;45.30139;"00° 15' 53.00'' Est, 45° 18' 05.00'' Nord";"16350";;"LE PETIT MARCHAIS USINE";"16390";"SAINT-SEVERIN";"Bâtiment"; 10.0;"Particulier"
598965;0.26472;45.33444;"00° 15' 53.00'' Est, 45° 20' 04.00'' Nord";"16350";;"FONT DE GOUR STATION DE POMPAGE";"16390";"SAINT-SEVERIN";"Bâtiment"; 10.0;"Particulier"
604604;-0.40639;45.75111;"00° 24' 23.00'' Ouest, 45° 45' 04.00'' Nord";"16355";"LE PETIT PLANTIS";"CHEZ MASSON PRÈS D.55";"16370";"SAINT-SULPICE-DE-COGNAC";"Château d'eau - réservoir"; 44.0;"Commune, communauté de commune"
607160;-0.13444;45.83472;"00° 08' 04.00'' Ouest, 45° 50' 05.00'' Nord";"16017";"LES SEUILS";"CHEM RURAL DIT DU VIEUX FOUR";"16170";"ANVILLE";"Tour hertzienne"; 73.0;"TDF"
614028;-0.04250;45.53222;"00° 02' 33.00'' Ouest, 45° 31' 56.00'' Nord";"16175";"LE GRAND BUISSON";"D.130 - CHEM RURAL";"16250";"JURIGNAC";"Pylône autostable"; 36.0;"SFR"
614054;0.48889;45.65861;"00° 29' 20.00'' Est, 45° 39' 31.00'' Nord";"16223";"LE GRAND PLANTIER";"CHEM DU FRAISSE";"16220";"MONTBRON";"Château d'eau - réservoir"; 39.0;"Syndicat des eaux, Adduction"
614886;0.15028;45.72472;"00° 09' 01.00'' Est, 45° 43' 29.00'' Nord";"16026";"LES FOUGEROUSSES";"CHEM D'EXPLOITATION N° 9 PUYLEBIN";"16430";"BALZAC";"Pylône autostable"; 34.0;"TDF"
617711;0.68444;46.05139;"00° 41' 04.00'' Est, 46° 03' 05.00'' Nord";"16322";"LES VIGNES DU CHÂTEAU";;"16500";"SAINT-GERMAIN-DE-CONFOLENS";"Bâtiment"; 6.0;"ORANGE Services Fixes"
617715;0.76806;46.01417;"00° 46' 05.00'' Est, 46° 00' 51.00'' Nord";"16182";"LES FRAISSES";;"16420";"LESTERPS";"Château d'eau - réservoir"; 54.0;"Syndicat des eaux, Adduction"
617717;0.77861;46.00972;"00° 46' 43.00'' Est, 46° 00' 35.00'' Nord";"16182";;"LE BOURG RD 30 CENTRAL TÉLÉPHONIQUE";"16420";"LESTERPS";"Mât métallique"; 8.0;"ORANGE Services Fixes"
619786;0.15528;45.64028;"00° 09' 19.00'' Est, 45° 38' 25.00'' Nord";"16015";"PETIT BEAUREGARD";"SQ GASTON BOUCARD 3-5 R MONTCALM";"16000";"ANGOULEME";"Pylône autostable"; 33.0;"TDF"
620220;0.49000;45.90667;"00° 29' 24.00'' Est, 45° 54' 24.00'' Nord";"16308";"LES BRUYÈRES";"RTE COMMUNALE N°5";"16450";"SAINT-CLAUD";"Pylône autostable"; 30.0;"SFR"
621013;0.50556;45.85694;"00° 30' 20.00'' Est, 45° 51' 25.00'' Nord";"16375";"LES BEAUX RIGOUX";"CHEM RURAL N°9 STADE MUNICIPAL LES BRANDES";"16260";"SUAUX";"Pylône tubulaire"; 30.0;"ORANGE"
623006;0.25944;45.69889;"00° 15' 34.00'' Est, 45° 41' 56.00'' Nord";"16291";"ROULE DINER";"VIVILLE";"16600";"RUELLE-SUR-TOUVRE";"Pylône autostable"; 33.0;"FPS TOWERS"
628303;0.14806;45.47944;"00° 08' 53.00'' Est, 45° 28' 46.00'' Nord";"16072";"BOIS ROND";"D 674";"16250";"CHADURIE";"Tour hertzienne"; 83.0;"ORANGE Services Fixes"
638308;0.10111;45.68333;"00° 06' 04.00'' Est, 45° 40' 60.00'' Nord";"16138";"LES VOUTES";"CHEM PIERRE LADRE";"16730";"FLEAC";"Pylône autostable"; 48.0;"ORANGE"
646668;0.21111;46.06333;"00° 12' 40.00'' Est, 46° 03' 48.00'' Nord";"16292";"LE CHAMP RIPEAU";;"16700";"RUFFEC";"Pylône autostable"; 33.0;"ORANGE"
647294;0.43333;45.81889;"00° 26' 00.00'' Est, 45° 49' 08.00'' Nord";"16085";"LA BERGERIE";"BOIS DU CHATEAU D'EAU";"16260";"CHASSENEUIL-SUR-BONNIEURE";"Château d'eau - réservoir"; 42.0;"Commune, communauté de commune"
647886;0.56944;45.87306;"00° 34' 10.00'' Est, 45° 52' 23.00'' Nord";"16192";"LES VIGNAUDS";;"16270";"ROUMAZIERES-LOUBERT";"Pylône autostable"; 44.0;"TDF"
655468;0.07306;45.27056;"00° 04' 23.00'' Est, 45° 16' 14.00'' Nord";"16252";"TERRE À LA CLAIE";"PRÈS D.2";"16210";"ORIVAL";"Pylône autostable"; 49.0;"ORANGE Services Fixes"
658267;-0.19861;45.60722;"00° 11' 55.00'' Ouest, 45° 36' 26.00'' Nord";"16366";"LE PIBLE";;"16130";"SEGONZAC";"Château d'eau - réservoir"; 37.0;"Syndicat des eaux, Adduction"
659927;0.39583;45.74111;"00° 23' 45.00'' Est, 45° 44' 28.00'' Nord";"16281";"LES COURRES";"RTE DE L'ARBRE D 13";"16110";"LA ROCHEFOUCAULD";"Château d'eau - réservoir"; 39.0;"Commune, communauté de commune"
660006;0.04083;45.28389;"00° 02' 27.00'' Est, 45° 17' 02.00'' Nord";"16073";"CHEZ FAUVET";;"16210";"CHALAIS";"Château d'eau - réservoir"; 44.8;"Syndicat des eaux, Adduction"
667242;0.01750;45.88417;"00° 01' 03.00'' Est, 45° 53' 03.00'' Nord";"16207";"CHARRONS MICHAUD";"CHEM RURAL N° 4 - POMMERIT";"16140";"MARCILLAC-LANVILLE";"Pylône autostable"; 32.0;"ORANGE Services Fixes"
678171;-0.19278;45.66389;"00° 11' 34.00'' Ouest, 45° 39' 50.00'' Nord";"16202";"L'ABBAYE";"D.10";"16200";"MAINXE";"Château d'eau - réservoir"; 56.3;"Syndicat des eaux, Adduction"
680254;0.07444;45.68389;"00° 04' 28.00'' Est, 45° 41' 02.00'' Nord";"16138";"BOIS DE LANDRY LES COUTURES";;"16730";"FLEAC";"Pylône autostable"; 55.0;"TDF"
681940;0.65611;45.87333;"00° 39' 22.00'' Est, 45° 52' 24.00'' Nord";"16134";"LES GRANDS CHAMPS";"LES ECUREUILS";"16150";"EXIDEUIL";"Pylône autostable"; 49.0;"TDF"
683728;0.16861;45.65472;"00° 10' 07.00'' Est, 45° 39' 17.00'' Nord";"16015";;"LA GRAND FONT";"16000";"ANGOULEME";"Pylône haubané"; 33.5;"TDF"
685578;0.24167;45.73444;"00° 14' 30.00'' Est, 45° 44' 04.00'' Nord";"16061";"LE RENCLOS";"RUE DU STADE";"16590";"BRIE";"Pylône tubulaire"; 20.0;"SFR"
686517;0.04167;45.70750;"00° 02' 30.00'' Est, 45° 42' 27.00'' Nord";"16019";"PRAIRIE DE ROUANE";"DÉPARTEMENTALE 96 STADE MUNICIPAL";"16290";"ASNIERES-SUR-NOUERE";"Pylône tubulaire"; 20.0;"SFR"
686558;0.32778;45.72222;"00° 19' 40.00'' Est, 45° 43' 20.00'' Nord";"16344";"LE POINT DU JOUR";"VC N°221 PRÈS N141";"16110";"SAINT-PROJET-SAINT-CONSTANT";"Pylône autostable"; 46.0;"SFR"
693913;0.10167;45.89194;"00° 06' 06.00'' Est, 45° 53' 31.00'' Nord";"16196";"LA HAUTE TERNE";"R DU CHATEAU D'EAU VOIE COMMUNALE N° 214";"16230";"LUXE";"Château d'eau - réservoir"; 43.0;"Syndicat des eaux, Adduction"
695228;0.16778;45.66472;"00° 10' 04.00'' Est, 45° 39' 53.00'' Nord";"16154";"LE TERRIER";"70 RTE DE PARIS SCI DU TERRIER";"16160";"GOND-PONTOUVRE";"Pylône autostable"; 30.0;"ORANGE"
695262;0.72889;45.88778;"00° 43' 44.00'' Est, 45° 53' 16.00'' Nord";"16070";"LA CORNUDE - LES TAILLIS";"D.29";"16150";"CHABANAIS";"Pylône autostable"; 50.0;"ORANGE"
696583;-0.31028;45.68889;"00° 18' 37.00'' Ouest, 45° 41' 20.00'' Nord";"16102";;"R FELIX GAILLARD";"16100";"COGNAC";"Pylône haubané"; 31.8;"Copropriété, Syndic, SCI"
697676;0.12556;45.52972;"00° 07' 32.00'' Est, 45° 31' 47.00'' Nord";"16236";"LES ROUSSELIÈRES";"PRÈS VOIE FERRÉE";"16440";"MOUTHIERS-SUR-BOEME";"Pylône tubulaire"; 12.0;"ORANGE"
705263;0.18528;45.86833;"00° 11' 07.00'' Est, 45° 52' 06.00'' Nord";"16272";"LES PASTOURETS";"N.10 - CR N°4";"16230";"PUYREAUX";"Pylône autostable"; 28.0;"ORANGE Services Fixes"
706069;0.50194;45.84389;"00° 30' 07.00'' Est, 45° 50' 38.00'' Nord";"16375";"LES PRADELLES";;"16260";"SUAUX";"Pylône autostable"; 39.0;"SFR"
708826;0.52389;45.93806;"00° 31' 26.00'' Est, 45° 56' 17.00'' Nord";"16329";"LE COMMUNAL";;"16450";"SAINT-LAURENT-DE-CERIS";"Pylône autostable"; 45.0;"SFR"
711099;0.66861;45.90472;"00° 40' 07.00'' Est, 45° 54' 17.00'' Nord";"16100";"PEYRAS";"PRÈS RÉSERVOIR";"16150";"CHIRAC";"Pylône autostable"; 16.0;"Titulaire programme Radio/TV"
711101;0.73583;45.91056;"00° 44' 09.00'' Est, 45° 54' 38.00'' Nord";"16071";"LA MOTTE";"RÉSERVOIR";"16150";"CHABRAC";"Château d'eau - réservoir"; 12.0;"Syndicat des eaux, Adduction"
712175;0.54778;45.74194;"00° 32' 52.00'' Est, 45° 44' 31.00'' Nord";"16213";"L'ARBRE";;"16310";"MAZEROLLES";"Pylône haubané"; 31.0;"Titulaire programme Radio/TV"
714178;0.10833;45.82972;"00° 06' 30.00'' Est, 45° 49' 47.00'' Nord";"16423";"L'AIGUILLE";"VOIE COMMUNALE N°104";"16330";"XAMBES";"Pylône autostable"; 30.0;"TDF"
714552;0.73111;45.86750;"00° 43' 52.00'' Est, 45° 52' 03.00'' Nord";"16070";"LES GRANDES VIGNES";"RTE DE BELLEVUE";"16150";"CHABANAIS";"Pylône autostable"; 35.0;"SFR"
715643;0.22917;46.07083;"00° 13' 45.00'' Est, 46° 04' 15.00'' Nord";"16378";"LES AVERRAGES";;"16700";"TAIZE-AIZIE";"Pylône autostable"; 30.0;"TDF"
716416;0.10361;45.59972;"00° 06' 13.00'' Est, 45° 35' 59.00'' Nord";"16113";"LES ROCS DES GALANTS";"R R SIMARD";"16400";"LA COURONNE";"Château d'eau - réservoir"; 28.0;"Commune, communauté de commune"
717583;0.19361;45.89056;"00° 11' 37.00'' Est, 45° 53' 26.00'' Nord";"16140";"LE MAINGOT";;"16230";"FONTCLAIREAU";"Pylône autostable"; 49.0;"TDF"
717735;0.11694;45.67889;"00° 07' 01.00'' Est, 45° 40' 44.00'' Nord";"16358";"LES ROCHETTES";"255 RTE DE ST-JEAN D'ANGELY";"16710";"SAINT-YRIEIX-SUR-CHARENTE";"Pylône autostable"; 25.0;"ORANGE"
721803;0.23361;45.62833;"00° 14' 01.00'' Est, 45° 37' 42.00'' Nord";"16146";"MAISON NEUVE";"PRÈS RÉSERVOIRS ROUTE D'ANGOULÈME";"16410";"GARAT";"Pylône haubané"; 43.0;"Lagardère Active Média"
724971;-0.06222;45.76861;"00° 03' 44.00'' Ouest, 45° 46' 07.00'' Nord";"16286";"LE BREUIL";;"16170";"ROUILLAC";"Pylône autostable"; 27.0;"ORANGE Services Fixes"
726830;0.30861;45.99611;"00° 18' 31.00'' Est, 45° 59' 46.00'' Nord";"16242";"GRANDE VIGNES";;"16700";"NANTEUIL-EN-VALLEE";"Château d'eau - réservoir"; 50.0;"Syndicat des eaux, Adduction"
727288;0.15194;45.58306;"00° 09' 07.00'' Est, 45° 34' 59.00'' Nord";"16418";;"CHEZ SALES";"16400";"VOEUIL-ET-GIGET";"Pylône autostable"; 18.0;"TDF"
727681;0.27778;45.54083;"00° 16' 40.00'' Est, 45° 32' 27.00'' Nord";"16119";"LA POINTE DU CHEM ROUGE";;"16410";"DIGNAC";"Pylône autostable"; 48.0;"FPS TOWERS"
728370;0.39917;45.98611;"00° 23' 57.00'' Est, 45° 59' 10.00'' Nord";"16076";"LE CHAMPVAILLIER";;"16350";"CHAMPAGNE-MOUTON";"Pylône autostable"; 31.0;"SFR"
729774;0.81111;45.89111;"00° 48' 40.00'' Est, 45° 53' 28.00'' Nord";"16132";"SAUVARIN";;"16150";"ETAGNAC";"Pylône haubané"; 20.0;"DDE"
730963;0.20306;45.93528;"00° 12' 11.00'' Est, 45° 56' 07.00'' Nord";"16095";"LES MAISONS ROUGES";"D 27";"16460";"CHENON";"Pylône haubané"; 20.0;"DDE"
731036;0.14083;45.67139;"00° 08' 27.00'' Est, 45° 40' 17.00'' Nord";"16358";"LE CHAMP DE LA FOSSE";"N 10";"16710";"SAINT-YRIEIX-SUR-CHARENTE";"Pylône haubané"; 20.0;"DDE"
732243;0.20833;45.73917;"00° 12' 30.00'' Est, 45° 44' 21.00'' Nord";"16078";"LE GRAND ROCHEBERTIER";"TERRAIN COMMUNAL";"16430";"CHAMPNIERS";"Pylône autostable"; 33.0;"ORANGE"
735623;0.59778;45.87167;"00° 35' 52.00'' Est, 45° 52' 18.00'' Nord";"16192";"LA BRANDE";;"16270";"ROUMAZIERES-LOUBERT";"Château d'eau - réservoir"; 45.0;"Syndicat des eaux, Adduction"
735629;0.08889;46.02250;"00° 05' 20.00'' Est, 46° 01' 21.00'' Nord";"16409";"CHEM D'EMPURÉ";"PRÈS D19";"16240";"VILLEFAGNAN";"Pylône autostable"; 24.0;"ORANGE"
738251;0.59833;45.79583;"00° 35' 54.00'' Est, 45° 47' 45.00'' Nord";"16239";"CHEZ LA CATY";;"16310";"MOUZON";"Pylône autostable"; 30.0;"FPS TOWERS"
752896;0.27694;45.58028;"00° 16' 37.00'' Est, 45° 34' 49.00'' Nord";"16120";"LES LANDES";"CHEM RURAL";"16410";"DIRAC";"Pylône autostable"; 38.0;"ORANGE"
764132;0.14889;45.39917;"00° 08' 56.00'' Est, 45° 23' 57.00'' Nord";"16294";"LA CHAISE";"BOIS DE LA CHAISE";"16190";"SAINT-AMANT";"Pylône tubulaire"; 40.0;"ORANGE"
764634;0.26667;45.54528;"00° 16' 00.00'' Est, 45° 32' 43.00'' Nord";"16119";"LA COTE";;"16410";"DIGNAC";"Pylône autostable"; 51.0;"EDF GDF"
764716;0.17694;45.94000;"00° 10' 37.00'' Est, 45° 56' 24.00'' Nord";"16191";"LES BOSSES";"CHEM RURAL DU CIMETIÈRE";"16230";"LONNES";"Château d'eau - réservoir"; 66.0;"Syndicat des eaux, Adduction"
765116;0.14083;45.67667;"00° 08' 27.00'' Est, 45° 40' 36.00'' Nord";"16358";;"ZE EPINEUIL";"16710";"SAINT-YRIEIX-SUR-CHARENTE";"Pylône autostable"; 27.0;"ORANGE"
765208;-0.17861;45.38583;"00° 10' 43.00'' Ouest, 45° 23' 09.00'' Nord";"16384";"CHEZ LUTARD";"N 10 ET D 58";"16360";"TOUVERAC";"Pylône autostable"; 47.0;"TDF"
765210;0.16417;45.65028;"00° 09' 51.00'' Est, 45° 39' 01.00'' Nord";"16015";;"R ST-ROCH";"16000";"ANGOULEME";"Bâtiment"; 32.0;"ORANGE Services Fixes"
765212;0.19944;45.81528;"00° 11' 58.00'' Est, 45° 48' 55.00'' Nord";"16024";"LE GRAND PLANTIER";"D115";"16560";"AUSSAC-VADALLE";"Château d'eau - réservoir"; 31.4;"Syndicat des eaux, Adduction"
765214;0.20000;45.67000;"00° 12' 00.00'' Est, 45° 40' 12.00'' Nord";"16166";;"BD SALVADOR ALLENDE BÂTIMENT FRANCE TELECOM";"16340";"L'ISLE-D'ESPAGNAC";"Immeuble"; 26.0;"ORANGE Services Fixes"
765216;-0.31306;45.69778;"00° 18' 47.00'' Ouest, 45° 41' 52.00'' Nord";"16102";;"RUE DE MELBOURNE RUE ROLLAND GARROS";"16100";"COGNAC";"Château d'eau - réservoir"; 47.0;"Syndicat des eaux, Adduction"
765218;0.17639;45.68389;"00° 10' 35.00'' Est, 45° 41' 02.00'' Nord";"16154";"CROIX BLANCHE";"RTE DE PARIS - CR 23 -D910 - LES AVENAUDS CONFORT HOTEL RESTAURANT";"16160";"GOND-PONTOUVRE";"Pylône autostable"; 20.0;"ORANGE"
765220;0.17694;45.64667;"00° 10' 37.00'' Est, 45° 38' 48.00'' Nord";"16015";;"17, BD  DE L'ARMÉE RÉSIDENCE LES BLANCHETTES";"16000";"ANGOULEME";"Immeuble"; 15.0;"Copropriété, Syndic, SCI"
765222;0.17444;45.65472;"00° 10' 28.00'' Est, 45° 39' 17.00'' Nord";"16015";;"R DE GEORGIE BD D'AUVERGNE ADM. : RUE MARGUERITE D'ANGOULÈME";"16000";"ANGOULEME";"Immeuble"; 15.0;"Copropriété, Syndic, SCI"
765228;0.14972;45.65194;"00° 08' 59.00'' Est, 45° 39' 07.00'' Nord";"16015";;"21, R DES REMPARTS DE BEAULIEU RÉSIDENCE LES HARMONIALES";"16000";"ANGOULEME";"Immeuble"; 21.0;"Copropriété, Syndic, SCI"
765230;0.09833;45.62000;"00° 05' 54.00'' Est, 45° 37' 12.00'' Nord";"16113";"LA CROISADE";"CHATEAU D'EAU PRÉS D103  RTE DE ST MICHEL LYCÉE DE L'OISELLERIE";"16400";"LA COURONNE";"Château d'eau - réservoir"; 32.0;"Etat, Ministère"
765232;0.19444;45.64389;"00° 11' 40.00'' Est, 45° 38' 38.00'' Nord";"16374";;"R DU 11 NOVEMBRE ALLÉE DE LA CHÂTAIGNERAIE CHÂTEAU D'EAU";"16800";"SOYAUX";"Château d'eau - réservoir"; 32.0;"Commune, communauté de commune"
765234;-0.32611;45.68333;"00° 19' 34.00'' Ouest, 45° 40' 60.00'' Nord";"16089";;"R DE LA CITÉ RÉSERVOIR DE ST GOBAIN";"16100";"CHATEAUBERNARD";"Château d'eau - réservoir"; 41.0;"Syndicat des eaux, Adduction"
765236;0.20306;45.63444;"00° 12' 11.00'' Est, 45° 38' 04.00'' Nord";"16374";"LA CROIX BLANCHE";"RTE DE LA BROUSSE ZONE ARTISANALE";"16800";"SOYAUX";"Pylône autostable"; 25.0;"ORANGE"
766043;-0.09278;45.28889;"00° 05' 34.00'' Ouest, 45° 17' 20.00'' Nord";"16357";"LES CAILLOUX";"D.7 - CHEM RURAL";"16480";"SAINT-VALLIER";"Pylône autostable"; 34.0;"Conseil Général"
766049;-0.04778;45.33583;"00° 02' 52.00'' Ouest, 45° 20' 09.00'' Nord";"16066";"LA CÔTE";"CHEM COMMUNAL 207";"16480";"BROSSAC";"Château d'eau - réservoir"; 37.0;"Conseil Général"
766085;0.09083;45.32889;"00° 05' 27.00'' Est, 45° 19' 44.00'' Nord";"16222";"LES MAUCENNERIES";"VOIE COMMUNALE";"16620";"MONTBOYER";"Pylône autostable"; 37.0;"SFR"
769404;0.60333;45.98583;"00° 36' 12.00'' Est, 45° 59' 09.00'' Nord";"16016";"LES GRANDS TERMES";;"16500";"ANSAC-SUR-VIENNE";"Pylône autostable"; 34.5;"TDF"
769425;0.14167;45.95861;"00° 08' 30.00'' Est, 45° 57' 31.00'' Nord";"16361";"L E COURADEAU";;"16700";"SALLES-DE-VILLEFAGNAN";"Pylône autostable"; 23.0;"SFR"
771821;0.37972;45.65750;"00° 22' 47.00'' Est, 45° 39' 27.00'' Nord";"16093";"LES TERRES";;"16380";"CHAZELLES";"Château d'eau - réservoir"; 39.0;"Syndicat des eaux, Adduction"
779814;0.26361;45.79583;"00° 15' 49.00'' Est, 45° 47' 45.00'' Nord";"16168";"LES BERGÈRES";;"16560";"JAULDES";"Pylône autostable"; 30.0;"SFR"
795152;-0.31528;45.61944;"00° 18' 55.00'' Ouest, 45° 37' 10.00'' Nord";"16359";"LES VILLARS";;"16130";"SALLES-D'ANGLES";"Pylône autostable"; 18.0;"FPS TOWERS"
795211;0.68472;45.75972;"00° 41' 05.00'' Est, 45° 45' 35.00'' Nord";"16212";"PETIT PUYJEAN";;"16310";"MASSIGNAC";"Pylône autostable"; 32.0;"FPS TOWERS"
798996;-0.04000;46.00611;"00° 02' 24.00'' Ouest, 46° 00' 22.00'' Nord";"16190";"LA SABLIERE";"LA VERSEINE TORSE";"16240";"LONGRE";"Pylône autostable"; 34.0;"Conseil Général"
799020;0.78444;46.06806;"00° 47' 04.00'' Est, 46° 04' 05.00'' Nord";"16065";"LA CROIX DES MALTRIES";;"16500";"BRILLAC";"Pylône autostable"; 39.0;"Conseil Général"
799069;0.84389;45.99750;"00° 50' 38.00'' Est, 45° 59' 51.00'' Nord";"16306";"LES CHARTENILLES";;"16420";"SAINT-CHRISTOPHE";"Pylône autostable"; 30.0;"Conseil Général"
801556;0.50333;45.78861;"00° 30' 12.00'' Est, 45° 47' 19.00'' Nord";"16416";"CHEZ JOURDES";"LES GRANDES PIECES";"16310";"VITRAC-SAINT-VINCENT";"Pylône autostable"; 32.0;"FPS TOWERS"
807573;-0.17722;45.67722;"00° 10' 38.00'' Ouest, 45° 40' 38.00'' Nord";"16202";"LES ILES DE JARNAC";"R ILE MADAME";"16200";"MAINXE";"Pylône tubulaire"; 28.0;"ORANGE"
812738;-0.24583;45.58306;"00° 14' 45.00'' Ouest, 45° 34' 59.00'' Nord";"16171";;"LES GABLOTEAUX";"16130";"JUILLAC-LE-COQ";"Bâtiment"; 10.0;"Particulier"
817982;-0.05083;45.74500;"00° 03' 03.00'' Ouest, 45° 44' 42.00'' Nord";"16312";"LE CHAMP DES PONTS";"STE CATHERINE";"16170";"SAINT-CYBARDEAUX";"Château d'eau - réservoir"; 62.5;"Syndicat des eaux, Adduction"
817998;0.69028;46.03722;"00° 41' 25.00'' Est, 46° 02' 14.00'' Nord";"16131";"PERISSAC";"CHÂTEAU D'EAU";"16500";"ESSE";"Château d'eau - réservoir"; 72.0;"Syndicat des eaux, Adduction"
818020;0.19333;45.79556;"00° 11' 36.00'' Est, 45° 47' 44.00'' Nord";"16383";"R DE BOUFFANAIS";"LE BOURG";"16560";"TOURRIERS";"Château d'eau - réservoir"; 42.0;"SFR"
818433;0.54778;45.74194;"00° 32' 52.00'' Est, 45° 44' 31.00'' Nord";"16213";"L'ARBRE";"D13 CHEZ ROUDELIÈRE";"16310";"MAZEROLLES";"Pylône autostable"; 34.0;"EDF GDF"
828164;0.75528;45.88944;"00° 45' 19.00'' Est, 45° 53' 22.00'' Nord";"16132";"LA CROIX";;"16150";"ETAGNAC";"Pylône autostable"; 39.0;"BOUYGUES"
828186;0.41583;45.53528;"00° 24' 57.00'' Est, 45° 32' 07.00'' Nord";"16084";"BORDERIE DU MOULIN À VENT";;"16380";"CHARRAS";"Pylône autostable"; 40.0;"Conseil Général"
828754;-0.01111;45.88778;"00° 00' 40.00'' Ouest, 45° 53' 16.00'' Nord";"16005";"BOIS DE LA SABLIÈRE";;"16140";"AIGRE";"Pylône autostable"; 30.0;"SFR"
831631;0.18194;45.86528;"00° 10' 55.00'' Est, 45° 51' 55.00'' Nord";"16200";"LE MOULIN À VENT";;"16230";"MAINE-DE-BOIXE";"Château d'eau - réservoir"; 24.0;"SFR"
834365;-0.36694;45.71333;"00° 22' 01.00'' Ouest, 45° 42' 48.00'' Nord";"16169";;"DISTILLERIE DOMAINE DE GALLIENNE";"16100";"JAVREZAC";"Pylône autostable"; 30.0;"Société Privée SA"
834752;0.39278;45.73833;"00° 23' 34.00'' Est, 45° 44' 18.00'' Nord";"16281";"LES VILLARDS ET MONTPLAISIR";;"16110";"LA ROCHEFOUCAULD";"Pylône autostable"; 30.0;"SFR"
836900;-0.21000;45.60444;"00° 12' 36.00'' Ouest, 45° 36' 16.00'' Nord";"16366";"CHEZ BILHOUET";;"16130";"SEGONZAC";"Pylône autostable"; 30.0;"SFR"
846397;0.08944;45.64917;"00° 05' 22.00'' Est, 45° 38' 57.00'' Nord";"16187";"LE CLOUX";"CHEM DES BOUILLAUDS";"16730";"LINARS";"Pylône autostable"; 30.0;"SFR"
846401;0.16861;45.66000;"00° 10' 07.00'' Est, 45° 39' 36.00'' Nord";"16154";"LE TERRIER";"R DU DR ROUX VOIE DE LA MARINE";"16160";"GOND-PONTOUVRE";"Pylône autostable"; 26.0;"SFR"
846418;0.16361;45.67667;"00° 09' 49.00'' Est, 45° 40' 36.00'' Nord";"16154";"LES SABLONS";"CHEM RURAL N°18 DU PETIT VOUILLAC";"16160";"GOND-PONTOUVRE";"Pylône autostable"; 30.0;"SFR"
846422;0.17306;45.64750;"00° 10' 23.00'' Est, 45° 38' 51.00'' Nord";"16015";;"35 BD  RENÉ CHABASSE";"16000";"ANGOULEME";"Immeuble"; 24.1;"Copropriété, Syndic, SCI"
853720;0.89972;45.99056;"00° 53' 59.00'' Est, 45° 59' 26.00'' Nord";"16231";"FONTENELLE";;"16420";"MONTROLLET";"Pylône autostable"; 34.0;"BOUYGUES"
856089;0.50417;45.58250;"00° 30' 15.00'' Est, 45° 34' 57.00'' Nord";"16372";"LES PLATERIES";;"16380";"SOUFFRIGNAC";"Pylône autostable"; 34.0;"BOUYGUES"
869210;0.17528;45.26972;"00° 10' 31.00'' Est, 45° 16' 11.00'' Nord";"16180";;"D 2";"16390";"LAPRADE";"Bâtiment"; 10.0;"Etat, Ministère"
871744;0.07111;45.34500;"00° 04' 16.00'' Est, 45° 20' 42.00'' Nord";"16222";"CHEZ RENAUDEAU";;"16620";"MONTBOYER";"Pylône autostable"; 35.6;"TDF"
876005;0.12111;45.62333;"00° 07' 16.00'' Est, 45° 37' 24.00'' Nord";"16113";;"ROUTE DE BORDEAUX EPSML DE LA CHARENTE";"16400";"LA COURONNE";"Bâtiment"; 13.0;"Etablissement de soins"
893853;0.09972;45.27861;"00° 05' 59.00'' Est, 45° 16' 43.00'' Nord";"16347";"FONTCHARRIÈRE";"D2";"16210";"SAINT-ROMAIN";"Pylône autostable"; 42.0;"EDF GDF"
897833;0.52250;45.75444;"00° 31' 21.00'' Est, 45° 45' 16.00'' Nord";"16213";"LE ROC";"LES RIVAUX D 396";"16310";"MAZEROLLES";"Pylône autostable"; 33.0;"FPS TOWERS"
898423;-0.19667;45.53667;"00° 11' 48.00'' Ouest, 45° 32' 12.00'' Nord";"16116";"CHEZ GUERIN";;"16300";"CRITEUIL-LA-MAGDELEINE";"Château d'eau - réservoir"; 54.0;"Syndicat des eaux, Adduction"
898489;-0.12194;45.34806;"00° 07' 19.00'' Ouest, 45° 20' 53.00'' Nord";"16251";"CHEZ BAUDUT";;"16480";"ORIOLLES";"Château d'eau - réservoir"; 54.0;"Syndicat des eaux, Adduction"
898815;0.14861;45.65167;"00° 08' 55.00'' Est, 45° 39' 06.00'' Nord";"16015";;"R TURGOT";"16000";"ANGOULEME";"Bâtiment"; 21.0;"Société Privée SA"
899310;-0.13861;45.69556;"00° 08' 19.00'' Ouest, 45° 41' 44.00'' Nord";"16145";;"LA TOUCHE CHAI COGNAC COURVOISIER";"16200";"FOUSSIGNAC";"Bâtiment"; 6.0;"Société Privée SA"
899312;0.02417;45.63028;"00° 01' 27.00'' Est, 45° 37' 49.00'' Nord";"16370";;"CHEZ DECOUX LE GRAND PLANTIER ROUTE DES CARRIÈRES";"16440";"SIREUIL";"Bâtiment"; 10.0;"Société Privée SA"
906929;0.67333;46.01417;"00° 40' 24.00'' Est, 46° 00' 51.00'' Nord";"16106";;"PL DE L'HOTEL DE VILLE";"16500";"CONFOLENS";"Bâtiment"; 10.0;"Commune, communauté de commune"
917939;0.19444;45.64444;"00° 11' 40.00'' Est, 45° 38' 40.00'' Nord";"16374";;"CHATEAU D'EAU DE TOUTIFAUT";"16800";"SOYAUX";"Château d'eau - réservoir"; 57.0;"TDF"
924797;0.54083;46.06528;"00° 32' 27.00'' Est, 46° 03' 55.00'' Nord";"16128";"LA GRANDE TERRE";"D. 30";"16490";"EPENEDE";"Pylône tubulaire"; 27.0;"ORANGE"
941315;0.16278;45.65222;"00° 09' 46.00'' Est, 45° 39' 08.00'' Nord";"16015";;"24 AV GAMBETTA";"16000";"ANGOULEME";"Bâtiment"; 35.0;"Conseil Général"
941318;0.27333;45.69361;"00° 16' 24.00'' Est, 45° 41' 37.00'' Nord";"16232";"LES GENTILS";;"16600";"MORNAC";"Mât béton"; 12.0;"Société Privée SA"
958644;-0.08583;45.69528;"00° 05' 09.00'' Ouest, 45° 41' 43.00'' Nord";"16216";"LE MAS DE RENTE";;"16200";"MERIGNAC";"Pylône tubulaire"; 30.0;"ORANGE"
965882;0.26806;45.74167;"00° 16' 05.00'' Est, 45° 44' 30.00'' Nord";"16061";"RUE PIERRE RENOUARD";"LA JAUVIGERE";"16590";"BRIE";"Château d'eau - réservoir"; 29.0;"EDF GDF"
970900;-0.17167;45.68194;"00° 10' 18.00'' Ouest, 45° 40' 55.00'' Nord";"16167";;"10B RUE DE DOGLIANI CENTRE DE SECOURS";"16200";"JARNAC";"Bâtiment"; 31.0;"SDIS, secours, incendie"
990784;0.16500;46.01194;"00° 09' 54.00'' Est, 46° 00' 43.00'' Nord";"16136";"BOIS DE SICHE";;"16700";"LA FAYE";"Pylône autostable"; 30.0;"ORANGE"
1002688;0.27722;45.54111;"00° 16' 38.00'' Est, 45° 32' 28.00'' Nord";"16119";"LA MARRONNIÈRE";;"16410";"DIGNAC";"Château d'eau - réservoir"; 30.0;"Syndicat des eaux, Adduction"
1008114;0.24056;45.78861;"00° 14' 26.00'' Est, 45° 47' 19.00'' Nord";"16168";;"PUIGUICHARD";"16560";"JAULDES";"Pylône autostable"; 37.7;"BOUYGUES"
1012971;0.16111;45.50028;"00° 09' 40.00'' Est, 45° 30' 01.00'' Nord";"16082";"GRANDE PIÈCE";;"16320";"CHARMANT";"Pylône autostable"; 35.0;"SFR"
1015752;0.25722;46.03389;"00° 15' 26.00'' Est, 46° 02' 02.00'' Nord";"16044";"CHEZ BILLOT";"CHÂTEAU D'EAU OYER";"16700";"BIOUSSAC";"Château d'eau - réservoir"; 42.0;"Commune, communauté de commune"
1023237;0.11722;45.24472;"00° 07' 02.00'' Est, 45° 14' 41.00'' Nord";"16130";"LA TRAVERSERIE";;"16210";"LES ESSARDS";"Pylône autostable"; 36.0;"EDF GDF"
1038179;-0.33722;45.62750;"00° 20' 14.00'' Ouest, 45° 37' 39.00'' Nord";"16359";"LA POTENCE";"AU COIN SUD-OUEST DE LA PARCELLE DU RÉSERVOIR DE LA POTENCE";"16130";"SALLES-D'ANGLES";"Pylône autostable"; 14.0;"Société Privée SA"
1038258;-0.30028;45.71278;"00° 18' 01.00'' Ouest, 45° 42' 46.00'' Nord";"16058";"CHATEAU D'EAU";"LE BOURG";"16100";"BOUTIERS-SAINT-TROJAN";"Château d'eau - réservoir"; 20.0;"Syndicat des eaux, Adduction"
1040237;0.14111;45.98389;"00° 08' 28.00'' Est, 45° 59' 02.00'' Nord";"16110";"LES GROS CHIRONS";;"16240";"COURCOME";"Pylône autostable"; 25.0;"SNCF Réseau"
1040239;0.10667;45.33111;"00° 06' 24.00'' Est, 45° 19' 52.00'' Nord";"16052";;"ROUTE TUDE DU LEVRAUD";"16190";"BORS(CANTON DE MONTMOREAU-SAINT-CYBARD)";"Pylône autostable"; 25.0;"SNCF Réseau"
1044903;0.11000;45.83833;"00° 06' 36.00'' Est, 45° 50' 18.00'' Nord";"16423";"VERRIÈRE";;"16330";"XAMBES";"Pylône autostable"; 35.0;"SNCF Réseau"
1044935;0.04278;45.26806;"00° 02' 34.00'' Est, 45° 16' 05.00'' Nord";"16073";;"46 ROUTE DE BORDEAUX";"16210";"CHALAIS";"Pylône tubulaire"; 25.0;"SNCF Réseau"
1056672;0.13806;45.39750;"00° 08' 17.00'' Est, 45° 23' 51.00'' Nord";"16294";"LA STATION";;"16190";"SAINT-AMANT";"Pylône tubulaire"; 30.0;"SNCF Réseau"
1058592;0.12806;45.92028;"00° 07' 41.00'' Est, 45° 55' 13.00'' Nord";"16173";"DARCHIRE";;"16230";"JUILLE";"Pylône autostable"; 25.0;"SNCF Réseau"
1059288;0.15194;45.80167;"00° 09' 07.00'' Est, 45° 48' 06.00'' Nord";"16295";"LES PETITES PIERRIÈRES";;"16330";"SAINT-AMANT-DE-BOIXE";"Pylône autostable"; 20.0;"SNCF Réseau"
1066405;0.18556;45.76750;"00° 11' 08.00'' Est, 45° 46' 03.00'' Nord";"16393";"LES CÔTEAUX DE LA TOUCHE";;"16330";"VARS";"Pylône autostable"; 44.0;"TDF"
1082750;0.22278;46.06667;"00° 13' 22.00'' Est, 46° 04' 00.00'' Nord";"16378";"PETITS CHILLOTS";;"16700";"TAIZE-AIZIE";"Pylône autostable"; 20.0;"SNCF Réseau"
1084701;0.15722;45.74500;"00° 09' 26.00'' Est, 45° 44' 42.00'' Nord";"16078";;"GRANDE BROUSSE";"16430";"CHAMPNIERS";"Pylône autostable"; 30.0;"SNCF Réseau"
1084703;0.14306;45.64500;"00° 08' 35.00'' Est, 45° 38' 42.00'' Nord";"16015";;"RUE DE CLÉRAC À SILAC";"16000";"ANGOULEME";"Pylône autostable"; 25.0;"SNCF Réseau"
1101711;0.67056;46.01917;"00° 40' 14.00'' Est, 46° 01' 09.00'' Nord";"16106";;"9 RUE DE LA MERLIE";"16500";"CONFOLENS";"Bâtiment"; 15.0;"EDF GDF"
1101725;0.20222;45.67000;"00° 12' 08.00'' Est, 45° 40' 12.00'' Nord";"16166";;"BD SALVADOR ALLENDE";"16340";"L'ISLE-D'ESPAGNAC";"Bâtiment"; 10.0;"EDF GDF"
1104753;-0.12361;45.58722;"00° 07' 25.00'' Ouest, 45° 35' 14.00'' Nord";"16050";"LE MONTET";"CHEMIN RURAL  NR3";"16120";"BONNEUIL";"Château d'eau - réservoir"; 36.9;"Syndicat des eaux, Adduction"
1107541;0.12222;45.55000;"00° 07' 20.00'' Est, 45° 32' 60.00'' Nord";"16236";;"LA GARENNE DE GAGNIER";"16440";"MOUTHIERS-SUR-BOEME";"Pylône autostable"; 30.0;"SNCF Réseau"
1107545;0.16889;45.46806;"00° 10' 08.00'' Est, 45° 28' 05.00'' Nord";"16082";"LIVERNAN";;"16320";"CHARMANT";"Pylône autostable"; 20.0;"SNCF Réseau"
1107625;0.20361;45.96028;"00° 12' 13.00'' Est, 45° 57' 37.00'' Nord";"16400";"LES GENÊTONS";;"16510";"VERTEUIL-SUR-CHARENTE";"Pylône autostable"; 49.0;"TDF"
1107653;0.16056;45.87667;"00° 09' 38.00'' Est, 45° 52' 36.00'' Nord";"16206";;"RTE DE LUXE";"16230";"MANSLE";"Bâtiment"; 7.0;"EDF GDF"
1107655;0.19417;46.02861;"00° 11' 39.00'' Est, 46° 01' 43.00'' Nord";"16292";;"2 RUE DU DOCTEUR MAURICE TUTARD";"16700";"RUFFEC";"Bâtiment"; 10.0;"EDF GDF"
1121219;-0.34917;45.69528;"00° 20' 57.00'' Ouest, 45° 41' 43.00'' Nord";"16102";;"BOULEVARD JAVREZAC";"16100";"COGNAC";"Mât béton"; 15.0;"EDF GDF"
1121239;0.13083;45.63722;"00° 07' 51.00'' Est, 45° 38' 14.00'' Nord";"16015";;"RUE DE LA BRIGADE RAC";"16000";"ANGOULEME";"Bâtiment"; 8.0;"EDF GDF"
1122257;-0.31417;45.69028;"00° 18' 51.00'' Ouest, 45° 41' 25.00'' Nord";"16102";;"28 R VORPSAL";"16100";"COGNAC";"Bâtiment"; 10.0;"EDF GDF"
1132994;0.65361;46.02667;"00° 39' 13.00'' Est, 46° 01' 36.00'' Nord";"16106";;"LOT ZAE TERRE NEUVE";"16500";"CONFOLENS";"Pylône autostable"; 51.0;"BOUYGUES"
1157429;-0.32139;45.67778;"00° 19' 17.00'' Ouest, 45° 40' 40.00'' Nord";"16089";"LES QUILLETTES";"RUE JEAN MONNET";"16100";"CHATEAUBERNARD";"Bâtiment"; 7.0;"EDF GDF"
1157433;-0.15194;45.46000;"00° 09' 07.00'' Ouest, 45° 27' 36.00'' Nord";"16028";"LA FONT DU CLOU";"RTE DE CHALAIS";"16300";"BARBEZIEUX-SAINT-HILAIRE";"Mât"; 15.0;"EDF GDF"
1159939;-0.14667;45.47139;"00° 08' 48.00'' Ouest, 45° 28' 17.00'' Nord";"16028";;"3 RUE HENRI LA FAUCONNIER";"16300";"BARBEZIEUX-SAINT-HILAIRE";"Bâtiment"; 15.0;"EDF GDF"
1160168;0.08833;45.69861;"00° 05' 18.00'' Est, 45° 41' 55.00'' Nord";"16138";"COMBE CADUC";"RUE DE LA COMBE CADUC";"16730";"FLEAC";"Bâtiment"; 37.0;"EDF GDF"
1163057;0.00139;45.88750;"00° 00' 05.00'' Est, 45° 53' 15.00'' Nord";"16005";"CESSAC";"ROUTE DE MONS";"16140";"AIGRE";"Mât"; 15.0;"EDF GDF"
1174365;0.13583;45.63944;"00° 08' 09.00'' Est, 45° 38' 22.00'' Nord";"16015";"RABION";"13 RUE DE LA BRIGADE RAC";"16000";"ANGOULEME";"Bâtiment"; 15.0;"EDF GDF"
1174382;0.18222;46.02667;"00° 10' 56.00'' Est, 46° 01' 36.00'' Nord";"16292";"LONGCHAMP";"D212";"16700";"RUFFEC";"Mât"; 12.0;"EDF GDF"
1174384;0.21972;45.68139;"00° 13' 11.00'' Est, 45° 40' 53.00'' Nord";"16291";"VAUGELINE";"RUE DU PONT NEUF";"16600";"RUELLE-SUR-TOUVRE";"Bâtiment"; 18.0;"EDF GDF"
1174390;0.49361;45.67389;"00° 29' 37.00'' Est, 45° 40' 26.00'' Nord";"16223";"LE MAURY";"ROUTE D'ORGEDEUIL";"16220";"MONTBRON";"Bâtiment"; 8.0;"EDF GDF"
1174402;-0.07444;45.76417;"00° 04' 28.00'' Ouest, 45° 45' 51.00'' Nord";"16286";"BOIS DE MONHOMME";"LA ROCHE";"16170";"ROUILLAC";"Bâtiment"; 6.0;"EDF GDF"
1174405;0.06417;45.60917;"00° 03' 51.00'' Est, 45° 36' 33.00'' Nord";"16287";"LES CHAGNERASSES";"LE BOIS DE BARILLON";"16440";"ROULLET-SAINT-ESTEPHE";"Bâtiment"; 6.0;"EDF GDF"
1174410;0.39083;45.72750;"00° 23' 27.00'' Est, 45° 43' 39.00'' Nord";"16281";"LES CROIX BLANCHES";"BOIS DE FONCEAU";"16110";"LA ROCHEFOUCAULD";"Bâtiment"; 10.0;"EDF GDF"
1174412;0.56889;45.89194;"00° 34' 08.00'' Est, 45° 53' 31.00'' Nord";"16192";"LA GARENNE";"RUE DES CHATAIGNIERS";"16270";"ROUMAZIERES-LOUBERT";"Bâtiment"; 8.0;"EDF GDF"
1174414;0.18556;45.69472;"00° 11' 08.00'' Est, 45° 41' 41.00'' Nord";"16078";"FEUILLADE";"RUE DE L'AUVERT";"16430";"CHAMPNIERS";"Bâtiment"; 8.0;"EDF GDF"
1174416;-0.03333;45.59111;"00° 02' 00.00'' Ouest, 45° 35' 28.00'' Nord";"16090";"BAPAUME";"LE GRAND BOIS-DURAND";"16120";"CHATEAUNEUF-SUR-CHARENTE";"Bâtiment"; 8.0;"EDF GDF"
1174419;-0.17250;45.69583;"00° 10' 21.00'' Ouest, 45° 41' 45.00'' Nord";"16167";"LES CORNETTES";"ROUTE DE ROUILLAC";"16200";"JARNAC";"Bâtiment"; 6.0;"EDF GDF"
1174671;0.69444;45.87583;"00° 41' 40.00'' Est, 45° 52' 33.00'' Nord";"16134";"LA COTE-EXIDEUIL";"D370";"16150";"EXIDEUIL";"Mât"; 15.0;"EDF GDF"
1174673;0.40083;45.99083;"00° 24' 03.00'' Est, 45° 59' 27.00'' Nord";"16076";"LE PETOURET";"ROUTE DE  LA VERRIERE";"16350";"CHAMPAGNE-MOUTON";"Mât"; 20.0;"EDF GDF"
1174675;0.04667;45.27472;"00° 02' 48.00'' Est, 45° 16' 29.00'' Nord";"16073";"LA COURTILLERE";"RUE DE LA COURTILLERE";"16210";"CHALAIS";"Mât"; 12.0;"EDF GDF"
1174758;-0.31389;45.69000;"00° 18' 50.00'' Ouest, 45° 41' 24.00'' Nord";"16102";"FAUB D'ANGOULEME";"28 RUE VORPSAL";"16100";"COGNAC";"Bâtiment"; 15.0;"EDF GDF"
1174966;0.19417;45.66667;"00° 11' 39.00'' Est, 45° 39' 60.00'' Nord";"16166";"CHAUMONTET";"108 RUE DE LA QUINTINIE";"16340";"L'ISLE-D'ESPAGNAC";"Bâtiment"; 7.0;"EDF GDF"
1174968;0.19361;45.66639;"00° 11' 37.00'' Est, 45° 39' 59.00'' Nord";"16166";"LE BUISSON";"108 RUE DE LA QUITINE  S2";"16340";"L'ISLE-D'ESPAGNAC";"Bâtiment"; 7.0;"EDF GDF"
1193552;-0.23639;45.38278;"00° 14' 11.00'' Ouest, 45° 22' 58.00'' Nord";"16025";;"RUE SAINT NICOLAS";"16360";"BAIGNES-SAINTE-RADEGONDE";"Bâtiment"; 6.0;"ORANGE Services Fixes"
1194812;-0.23000;45.61639;"00° 13' 48.00'' Ouest, 45° 36' 59.00'' Nord";"16366";;"CHEM DES MALESTRIERS";"16130";"SEGONZAC";"Pylône autostable"; 38.0;"TDF"
1195825;-0.22722;45.67722;"00° 13' 38.00'' Ouest, 45° 40' 38.00'' Nord";"16056";;"R DE LA CERAMIQUE";"16200";"BOURG-CHARENTE";"Bâtiment"; 11.8;"Société Privée SA"
1280241;-0.33028;45.69306;"00° 19' 49.00'' Ouest, 45° 41' 35.00'' Nord";"16102";;"PL EDOUARD MARTELL";"16100";"COGNAC";"Bâtiment"; 20.0;"Société Privée SA"
1293258;0.15056;45.64778;"00° 09' 02.00'' Est, 45° 38' 52.00'' Nord";"16015";;"RUE DE CLÉRAC À SILLAC";"16000";"ANGOULEME";"Ouvrage d'art (pont, viaduc)"; 5.1;"SNCF Réseau"
1293260;0.16722;46.01389;"00° 10' 02.00'' Est, 46° 00' 50.00'' Nord";"16136";"BOIS DE SICHE";"TÊTE DE TUNNEL COTÉ SUD";"16700";"LA FAYE";"Ouvrage d'art (pont, viaduc)"; 11.0;"SNCF Réseau"
1293264;0.16833;45.47667;"00° 10' 06.00'' Est, 45° 28' 36.00'' Nord";"16082";"EN TUNNEL";"TUNNEL LIVERNANT";"16320";"CHARMANT";"Tunnel"; 6.0;"SNCF Réseau"
1293266;0.16861;45.47250;"00° 10' 07.00'' Est, 45° 28' 21.00'' Nord";"16082";"EN TUNNEL";"TUNNEL LIVERNANT";"16320";"CHARMANT";"Tunnel"; 6.0;"SNCF Réseau"
1301042;0.15944;45.65083;"00° 09' 34.00'' Est, 45° 39' 03.00'' Nord";"16015";;"RUE DE CLÉRAC À SILLAC";"16000";"ANGOULEME";"Ouvrage d'art (pont, viaduc)"; 11.3;"SNCF Réseau"
1301044;0.16806;45.48111;"00° 10' 05.00'' Est, 45° 28' 52.00'' Nord";"16082";"LIVERNAN LES FORÊTS";;"16320";"CHARMANT";"Ouvrage d'art (pont, viaduc)"; 13.5;"SNCF Réseau"
1323872;0.15611;45.70500;"00° 09' 22.00'' Est, 45° 42' 18.00'' Nord";"16078";"PLANTIERS DE PUYRENAUD";;"16430";"CHAMPNIERS";"Pylône autostable"; 15.0;"SNCF Réseau"
1345768;0.04194;45.75444;"00° 02' 31.00'' Est, 45° 45' 16.00'' Nord";"16320";"GROSBOT";"RUE DU CHATEAU D'EAU";"16570";"SAINT-GENIS-D'HIERSAC";"Château d'eau - réservoir"; 42.0;"Syndicat des eaux, Adduction"
1347559;0.15028;45.65194;"00° 09' 01.00'' Est, 45° 39' 07.00'' Nord";"16015";;"17 R REMPARTS DE BEAULIEU";"16000";"ANGOULEME";"Immeuble"; 23.8;"Copropriété, Syndic, SCI"
1351148;-0.22556;45.37000;"00° 13' 32.00'' Ouest, 45° 22' 12.00'' Nord";"16025";"LES GRANGES";"SITE ITAS TIM";"16360";"BAIGNES-SAINTE-RADEGONDE";"Pylône autostable"; 48.0;"Itas Tim"
1351165;0.11417;45.63472;"00° 06' 51.00'' Est, 45° 38' 05.00'' Nord";"16341";;"13 BD DE BRETAGNE";"16470";"SAINT-MICHEL";"Château d'eau - réservoir"; 39.0;"Commune, communauté de commune"
1353821;0.37083;45.59333;"00° 22' 15.00'' Est, 45° 35' 36.00'' Nord";"16422";"LE TROU DE LA PENELLE";;"16410";"VOUZAN";"Pylône autostable"; 42.5;"Conseil Général"
1371516;0.14944;45.72444;"00° 08' 58.00'' Est, 45° 43' 28.00'' Nord";"16026";"LES FOUGEROUSSES";;"16430";"BALZAC";"Pylône autostable"; 25.0;"ORANGE"
1373711;0.11583;45.87083;"00° 06' 57.00'' Est, 45° 52' 15.00'' Nord";"16414";"COMBE DES LOGES";"BASE TRAVAUX COSEA SGS";"16230";"VILLOGNON";"Pylône haubané"; 15.0;"Société Privée SA"
1373859;0.00806;45.37222;"00° 00' 29.00'' Est, 45° 22' 20.00'' Nord";"16315";;"LA BARRIÈRE";"16480";"SAINT-FELIX";"Pylône haubané"; 50.0;"Société Privée SA"
1373913;-0.10056;45.27778;"00° 06' 02.00'' Ouest, 45° 16' 40.00'' Nord";"16357";;"BORESSE ET MARTRON";"16480";"SAINT-VALLIER";"Pylône haubané"; 50.0;"Société Privée SA"
1377263;-0.15806;45.45750;"00° 09' 29.00'' Ouest, 45° 27' 27.00'' Nord";"16028";"LE GRAND FIEF";"LA GARENNE";"16300";"BARBEZIEUX-SAINT-HILAIRE";"Pylône autostable"; 52.0;"TDF"
1378011;0.17139;45.43806;"00° 10' 17.00'' Est, 45° 26' 17.00'' Nord";"16092";"LE MAINE MEUNIER";"VOIE COMMUNALE N°124";"16320";"CHAVENAT";"Pylône autostable"; 24.2;"SNCF Réseau"
1378071;0.16861;45.46778;"00° 10' 07.00'' Est, 45° 28' 04.00'' Nord";"16082";"LIVERNAN LES FORÊTS";;"16320";"CHARMANT";"Ouvrage d'art (pont, viaduc)"; 12.0;"SNCF Réseau"
1381060;0.04889;45.26528;"00° 02' 56.00'' Est, 45° 15' 55.00'' Nord";"16073";"LE COLOMBIER";;"16210";"CHALAIS";"Pylône autostable"; 92.0;"Towercast"
1381385;0.11278;45.87250;"00° 06' 46.00'' Est, 45° 52' 21.00'' Nord";"16414";;"CHEM DES VIGNES BASE TRAVAUX VILLOGNON";"16230";"VILLOGNON";"Pylône autostable"; 15.0;"Société Privée SA"
1381448;0.03500;45.48806;"00° 02' 06.00'' Est, 45° 29' 17.00'' Nord";"16046";"LE TÉLÉGRAPHE";"ORANGE PYLONE FT D7";"16250";"BLANZAC-PORCHERESSE";"Pylône autostable"; 38.0;"ORANGE"
1393880;0.47306;45.88111;"00° 28' 23.00'' Est, 45° 52' 52.00'' Nord";"16308";"CHEZ CHADIAT";;"16450";"SAINT-CLAUD";"Pylône autostable"; 35.0;"TDF"
1393891;-0.23083;45.32417;"00° 13' 51.00'' Ouest, 45° 19' 27.00'' Nord";"16079";;"PEUCHATAN";"16360";"CHANTILLAC";"Pylône autostable"; 49.0;"TDF"
1397357;-0.03222;45.66056;"00° 01' 56.00'' Ouest, 45° 39' 38.00'' Nord";"16234";"MÉTAIRIES";"CHÂTEAU D'EAU";"16290";"MOULIDARS";"Château d'eau - réservoir"; 30.8;"Syndicat des eaux, Adduction"
1399055;-0.39083;45.69222;"00° 23' 27.00'' Ouest, 45° 41' 32.00'' Nord";"16330";"MATEBOEUF";;"16100";"SAINT-LAURENT-DE-COGNAC";"Pylône autostable"; 18.3;"TDF"
1413385;0.17111;46.01750;"00° 10' 16.00'' Est, 46° 01' 03.00'' Nord";"16136";;"VALLÉE À BARBEAU";"16700";"LA FAYE";"Tunnel"; 9.2;"SNCF Réseau"
1414607;-0.35361;45.66556;"00° 21' 13.00'' Ouest, 45° 39' 56.00'' Nord";"16217";;"AVENUE DE GIMEUX ZONE INDUSTRIEL";"16100";"MERPINS";"Bâtiment"; 36.0;"Société Privée SA"
1417252;0.12333;45.79861;"00° 07' 24.00'' Est, 45° 47' 55.00'' Nord";"16295";"MAUGRAT";"MAUGRAT";"16330";"SAINT-AMANT-DE-BOIXE";"Pylône autostable"; 32.0;"TDF"
1418811;0.18083;45.76917;"00° 10' 51.00'' Est, 45° 46' 09.00'' Nord";"16393";;"LIEU-DIT LA TOUCHE - D11";"16330";"VARS";"Bâtiment"; 12.6;"Société Privée SA"
1422962;0.18556;45.76750;"00° 11' 08.00'' Est, 45° 46' 03.00'' Nord";"16393";"LES CÔTEAUX DE LA TOUCHE";;"16330";"VARS";"Pylône autostable"; 44.0;"TDF"
1423403;0.18694;45.63139;"00° 11' 13.00'' Est, 45° 37' 53.00'' Nord";"16374";"LE LION DE SAINT-MARC";"POSTE ELECTRIQUE SAINT MARC";"16800";"SOYAUX";"Bâtiment"; 12.0;"EDF GDF"
1423405;0.67194;45.99306;"00° 40' 19.00'' Est, 45° 59' 35.00'' Nord";"16106";"LES PATURAGES DU BOSC";"LE FOUR A CHAUX";"16500";"CONFOLENS";"Mât béton"; 15.0;"EDF GDF"
1424876;0.12222;45.55694;"00° 07' 20.00'' Est, 45° 33' 25.00'' Nord";"16236";"TERRAIN DE SPORT";"AV DU 28 AOUT 1944";"16440";"MOUTHIERS-SUR-BOEME";"Mât béton"; 19.2;"TDF"
1443482;0.15833;45.59778;"00° 09' 30.00'' Est, 45° 35' 52.00'' Nord";"16418";"LA LOGE";"VC N°205";"16400";"VOEUIL-ET-GIGET";"Pylône autostable"; 40.6;"SFR"
1444228;0.12944;45.62306;"00° 07' 46.00'' Est, 45° 37' 23.00'' Nord";"16113";;"HIPPODROME DE LA TOURETTE";"16400";"LA COURONNE";"Pylône autostable"; 25.0;"SFR"
1446765;0.26222;45.61472;"00° 15' 44.00'' Est, 45° 36' 53.00'' Nord";"16146";;"LES PETITES CHAUMES";"16410";"GARAT";"Pylône autostable"; 40.0;"TDF"
1452115;0.30611;45.65806;"00° 18' 22.00'' Est, 45° 39' 29.00'' Nord";"16232";"LES CHAMPS DE GOUTTIÈRE";;"16600";"MORNAC";"Pylône autostable"; 40.0;"SFR"
1463519;0.18694;45.69556;"00° 11' 13.00'' Est, 45° 41' 44.00'' Nord";"16078";;"4 RUE DE L AUVENT";"16430";"CHAMPNIERS";"Pylône autostable"; 35.0;"IFW-FREE"
1465357;0.14944;45.66083;"00° 08' 58.00'' Est, 45° 39' 39.00'' Nord";"16015";;"15 RUE DU CLOS DU MAINE BRIE";"16000";"ANGOULEME";"Immeuble"; 24.0;"Copropriété, Syndic, SCI"
1467208;0.12556;46.02667;"00° 07' 32.00'' Est, 46° 01' 36.00'' Nord";"16409";"LES PERRIERES";;"16240";"VILLEFAGNAN";"Pylône autostable"; 15.0;"SNCF Réseau"
1467210;0.12278;45.97778;"00° 07' 22.00'' Est, 45° 58' 40.00'' Nord";"16110";"LA BROUETTE";;"16240";"COURCOME";"Pylône autostable"; 20.0;"SNCF Réseau"
1467212;0.09528;45.81361;"00° 05' 43.00'' Est, 45° 48' 49.00'' Nord";"16419";"LES FONTENELLES";;"16330";"VOUHARTE";"Pylône autostable"; 20.0;"SNCF Réseau"
1467214;0.05639;45.73806;"00° 03' 23.00'' Est, 45° 44' 17.00'' Nord";"16210";"LES PETITS BOIS";;"16570";"MARSAC";"Pylône autostable"; 25.0;"SNCF Réseau"
1467216;0.07528;45.67889;"00° 04' 31.00'' Est, 45° 40' 44.00'' Nord";"16138";"PRABONNE";;"16730";"FLEAC";"Pylône autostable"; 20.0;"SNCF Réseau"
1467218;0.07056;45.63667;"00° 04' 14.00'' Est, 45° 38' 12.00'' Nord";"16244";"COMBE DU CHÊNE";;"16440";"NERSAC";"Pylône autostable"; 20.0;"SNCF Réseau"
1468386;0.12722;46.07306;"00° 07' 38.00'' Est, 46° 04' 23.00'' Nord";"16229";"CHAMPS DU PEUX";;"16240";"MONTJEAN";"Pylône autostable"; 15.0;"SNCF Réseau"
1468388;0.06333;45.55583;"00° 03' 48.00'' Est, 45° 33' 21.00'' Nord";"16101";"BELLEVUE";;"16440";"CLAIX";"Pylône autostable"; 30.0;"SNCF Réseau"
1473407;0.16944;45.64333;"00° 10' 10.00'' Est, 45° 38' 36.00'' Nord";"16015";;"6 R DU PIAVE";"16000";"ANGOULEME";"Bâtiment"; 11.6;"Société Privée SA"
1474304;0.05444;45.50750;"00° 03' 16.00'' Est, 45° 30' 27.00'' Nord";"16075";"CHAMPS SUREAUX";;"16250";"CHAMPAGNE-VIGNY";"Pylône autostable"; 30.0;"SNCF Réseau"
1475077;0.15722;45.65056;"00° 09' 26.00'' Est, 45° 39' 02.00'' Nord";"16015";;"23 BOULEVARD PASTEUR";"16000";"ANGOULEME";"Bâtiment"; 21.0;"Particulier"
1478624;0.16389;45.62528;"00° 09' 50.00'' Est, 45° 37' 31.00'' Nord";"16271";;"28ZALESBRANDEAUX";"16400";"PUYMOYEN";"Pylône tubulaire"; 31.3;"IFW-FREE"
1481570;0.04528;45.47528;"00° 02' 43.00'' Est, 45° 28' 31.00'' Nord";"16258";"TERRE DE L'AUMÔNERIE";;"16250";"PERIGNAC";"Pylône autostable"; 25.0;"SNCF Réseau"
1481572;-0.00917;45.40389;"00° 00' 33.00'' Ouest, 45° 24' 14.00'' Nord";"16041";"LES GRANDS BOIS";;"16250";"BESSAC";"Pylône autostable"; 20.0;"SNCF Réseau"
1481574;-0.02528;45.36639;"00° 01' 31.00'' Ouest, 45° 21' 59.00'' Nord";"16354";"COMBE DES MOUCHES";;"16480";"SAINTE-SOULINE";"Pylône autostable"; 30.0;"SNCF Réseau"
1481576;-0.03778;45.32500;"00° 02' 16.00'' Ouest, 45° 19' 30.00'' Nord";"16066";"LA GRELIÈRE";;"16480";"BROSSAC";"Pylône autostable"; 30.0;"SNCF Réseau"
1484849;0.17778;45.64167;"00° 10' 40.00'' Est, 45° 38' 30.00'' Nord";"16015";;"STADE LEBON BD DU COLONEL CAMPAGNE";"16000";"ANGOULEME";"Pylône tubulaire"; 25.0;"Commune, communauté de commune"
1486393;0.04833;45.55806;"00° 02' 54.00'' Est, 45° 33' 29.00'' Nord";"16101";;"2 ROUTE DE CHEZ SEAU";"16440";"CLAIX";"Bâtiment"; 6.0;"Société Privée SA"
1489734;0.09417;45.58722;"00° 05' 39.00'' Est, 45° 35' 14.00'' Nord";"16113";"LE GALEROT";;"16400";"LA COURONNE";"Pylône autostable"; 30.0;"SNCF Réseau"
1490840;0.19944;46.03861;"00° 11' 58.00'' Est, 46° 02' 19.00'' Nord";"16292";"LES PINATS";"ZI NORD";"16700";"RUFFEC";"Pylône autostable"; 37.0;"FPS TOWERS"
1500302;-0.07139;45.29500;"00° 04' 17.00'' Ouest, 45° 17' 42.00'' Nord";"16357";"CHEZ BODIT";;"16480";"SAINT-VALLIER";"Pylône autostable"; 25.0;"SNCF Réseau"
1502872;-0.15389;45.36000;"00° 09' 14.00'' Ouest, 45° 21' 36.00'' Nord";"16251";;"D131 CHEZ BOUTILLET";"16480";"ORIOLLES";"Bâtiment"; 5.0;"Société Privée SA"
1534825;0.48694;45.72056;"00° 29' 13.00'' Est, 45° 43' 14.00'' Nord";"16425";"LES HAUTE FONTENELLES";;"16110";"YVRAC-ET-MALLEYRAND";"Pylône haubané"; 30.0;"DDE"
1538058;0.19444;45.77861;"00° 11' 40.00'' Est, 45° 46' 43.00'' Nord";"16011";;"LES COTEAUX DE LA TOUCHE";"16560";"ANAIS";"Bâtiment"; 20.0;"TDF"
1539494;-0.21028;45.69167;"00° 12' 37.00'' Ouest, 45° 41' 30.00'' Nord";"16088";"LES PIERRIERES";;"16200";"CHASSORS";"Pylône autostable"; 30.0;"SFR"
1539588;0.15611;45.64861;"00° 09' 22.00'' Est, 45° 38' 55.00'' Nord";"16015";;"1 PLACE DE L'HÔTEL DE VILLE";"16000";"ANGOULEME";"Monument religieux"; 65.0;"Commune, communauté de commune"
1541007;0.27306;45.69389;"00° 16' 23.00'' Est, 45° 41' 38.00'' Nord";"16232";"LE PUY DE NANTEUIL";"LE GRAND PLANTIER";"16600";"MORNAC";"Pylône autostable"; 47.0;"Gendarmerie"
1545288;-0.29778;45.68500;"00° 17' 52.00'' Ouest, 45° 41' 06.00'' Nord";"16089";;"65 AV D ANGOULEME CH DE COGNAC";"16100";"CHATEAUBERNARD";"Bâtiment"; 22.0;"Etablissement de soins"
1545290;0.67306;46.00250;"00° 40' 23.00'' Est, 46° 00' 09.00'' Nord";"16106";;"ALLEE DE LA QUINTE RP AV DU GAL DE GAULLE";"16500";"CONFOLENS";"Pylône autostable"; 25.0;"Société Privée SA"
1545292;0.12000;45.63472;"00° 07' 12.00'' Est, 45° 38' 05.00'' Nord";"16341";;"ROND POINT DE GIRAC  CH ANGOULEME SAMU CENTRE 15";"16470";"SAINT-MICHEL";"Bâtiment"; 35.0;"Etablissement de soins"
1545294;-0.13806;45.47361;"00° 08' 17.00'' Ouest, 45° 28' 25.00'' Nord";"16028";;"15 RTE DE ST BONNET CH BARBEZIEUX";"16300";"BARBEZIEUX-SAINT-HILAIRE";"Bâtiment"; 12.0;"Etablissement de soins"
1545296;0.19556;46.02778;"00° 11' 44.00'' Est, 46° 01' 40.00'' Nord";"16292";;"15 RUE DE L HOPITAL CH DE RUFFEC";"16700";"RUFFEC";"Bâtiment"; 10.0;"Etablissement de soins"
1566623;0.20194;45.67250;"00° 12' 07.00'' Est, 45° 40' 21.00'' Nord";"16166";;"85 AV MARYSE BASTIE";"16340";"L'ISLE-D'ESPAGNAC";"Pylône tubulaire"; 26.3;"IFW-FREE"
1568635;-0.06778;45.78139;"00° 04' 04.00'' Ouest, 45° 46' 53.00'' Nord";"16286";;"LOUMEAU - LA PLANTE";"16170";"ROUILLAC";"Pylône tubulaire"; 28.0;"FPS TOWERS"
1571161;0.13250;45.93472;"00° 07' 57.00'' Est, 45° 56' 05.00'' Nord";"16173";;"LA GRANDE RIVIERE LA SAILLIE";"16230";"JUILLE";"Pylône autostable"; 30.0;"TDF"
1573112;0.35833;45.64611;"00° 21' 30.00'' Est, 45° 38' 46.00'' Nord";"16093";"LES RADOURS";"STADE MUNICIPAL";"16380";"CHAZELLES";"Pylône autostable"; 27.0;"SFR"
1573144;0.22083;45.57139;"00° 13' 15.00'' Est, 45° 34' 17.00'' Nord";"16382";"CHAMP DES LAURIERS";"TER R";"16410";"TORSAC";"Pylône autostable"; 42.6;"SFR"
1573176;-0.04583;45.62250;"00° 02' 45.00'' Ouest, 45° 37' 21.00'' Nord";"16351";"LES OSINES ET LA GARENNE";"TER CHEM";"16120";"SAINT-SIMEUX";"Pylône autostable"; 40.9;"SFR"
1573962;0.27194;45.57278;"00° 16' 19.00'' Est, 45° 34' 22.00'' Nord";"16119";"LES BOIS";"5 TER LOT TERRE DU MAS";"16410";"DIGNAC";"Pylône autostable"; 51.0;"SFR"
1573968;0.46694;45.68500;"00° 28' 01.00'' Est, 45° 41' 06.00'' Nord";"16353";"LA RITOYE";"TER CHEM";"16220";"SAINT-SORNIN";"Pylône autostable"; 32.0;"SFR"
1573979;0.32806;45.61389;"00° 19' 41.00'' Est, 45° 36' 50.00'' Nord";"16055";"LES MINARETS";"TER CHEM";"16410";"BOUEX";"Pylône autostable"; 32.0;"SFR"
1573990;0.13917;45.53917;"00° 08' 21.00'' Est, 45° 32' 21.00'' Nord";"16236";"CHEZ RATILLON";"V COM.";"16440";"MOUTHIERS-SUR-BOEME";"Pylône autostable"; 35.9;"SFR"
1573999;0.23500;45.59667;"00° 14' 06.00'' Est, 45° 35' 48.00'' Nord";"16120";"LES CHAUMES";"RTE DE LA BOISSIÈRE RD 429";"16410";"DIRAC";"Pylône autostable"; 25.0;"SFR"
1574073;0.04528;45.60472;"00° 02' 43.00'' Est, 45° 36' 17.00'' Nord";"16287";"CHAMP BILE";"CHEM RURAL";"16440";"ROULLET-SAINT-ESTEPHE";"Pylône autostable"; 35.0;"SFR"
1574728;0.57750;45.68806;"00° 34' 39.00'' Est, 45° 41' 17.00'' Nord";"16124";"LE PLANTIER";"TER R";"16220";"ECURAS";"Pylône autostable"; 33.0;"SFR"
1576239;0.73917;45.93944;"00° 44' 21.00'' Est, 45° 56' 22.00'' Nord";"16071";"VIGNES DES LOGES";;"16150";"CHABRAC";"Pylône autostable"; 39.1;"TDF"
1576246;0.21111;45.71222;"00° 12' 40.00'' Est, 45° 42' 44.00'' Nord";"16078";"LE TERRIER";"PARKING SALLE DES FÊTES";"16430";"CHAMPNIERS";"Pylône tubulaire"; 30.0;"FPS TOWERS"
1576300;0.19250;45.61500;"00° 11' 33.00'' Est, 45° 36' 54.00'' Nord";"16120";"LA PIERRIERE";"D 81 - ROUTE DE TORSAC";"16410";"DIRAC";"Pylône autostable"; 44.1;"BOUYGUES"
1576359;0.10361;45.61417;"00° 06' 13.00'' Est, 45° 36' 51.00'' Nord";"16113";"COTE DE CHAMPAGNE";"CIMENTERIE LAFARGE";"16400";"LA COURONNE";"Bâtiment"; 74.1;"Société Privée SA"
1577293;0.15139;45.58944;"00° 09' 05.00'' Est, 45° 35' 22.00'' Nord";"16418";"CHAMPS DES TURRINS";"CH. COM. N°104";"16400";"VOEUIL-ET-GIGET";"Pylône autostable"; 13.0;"SFR"
1577530;0.16611;45.64750;"00° 09' 58.00'' Est, 45° 38' 51.00'' Nord";"16015";;"47 BOULEVARD DE BURY";"16000";"ANGOULEME";"Immeuble"; 34.0;"Copropriété, Syndic, SCI"
1580671;-0.04250;45.53250;"00° 02' 33.00'' Ouest, 45° 31' 57.00'' Nord";"16175";"LE GRAND BUISSON";"LE BOIS JANSÉ";"16250";"JURIGNAC";"Pylône autostable"; 48.0;"TDF"
1582057;0.12306;45.94972;"00° 07' 23.00'' Est, 45° 56' 59.00'' Nord";"16083";"LES GRANDES PIÈCES";;"16140";"CHARME";"Pylône autostable"; 30.0;"ORANGE"
1582059;0.12611;45.89056;"00° 07' 34.00'' Est, 45° 53' 26.00'' Nord";"16196";"LES ACCOURANTS";;"16230";"LUXE";"Pylône autostable"; 30.0;"ORANGE"
1582354;-0.01306;45.39889;"00° 00' 47.00'' Ouest, 45° 23' 56.00'' Nord";"16267";"GRANDE PIÈCE DE CAILLÈRE";;"16190";"POULLIGNAC";"Pylône autostable"; 36.0;"ORANGE"
1582669;0.17000;45.63444;"00° 10' 12.00'' Est, 45° 38' 04.00'' Nord";"16015";"LA CROIX BRANDET";"CHAUMES DE LA TOUR GARNIER";"16000";"ANGOULEME";"Pylône autostable"; 14.0;"BOUYGUES"
1582906;0.11111;45.85833;"00° 06' 40.00'' Est, 45° 51' 30.00'' Nord";"16414";"MAUBATI";;"16230";"VILLOGNON";"Pylône autostable"; 30.0;"ORANGE"
1582908;-0.06056;45.30083;"00° 03' 38.00'' Ouest, 45° 18' 03.00'' Nord";"16357";"CHEZ GRUET";;"16480";"SAINT-VALLIER";"Pylône autostable"; 30.0;"ORANGE"
1582910;0.02250;45.44611;"00° 01' 21.00'' Est, 45° 26' 46.00'' Nord";"16115";;"LA FORÊT ET BOIS DE CHEZ ROCHEFORT";"16250";"CRESSAC-SAINT-GENIS";"Pylône autostable"; 30.0;"ORANGE"
1584059;0.19417;45.54667;"00° 11' 39.00'' Est, 45° 32' 48.00'' Nord";"16143";"PUIMARD";;"16410";"FOUQUEBRUNE";"Pylône autostable"; 36.0;"SFR"
1589698;0.24083;45.73472;"00° 14' 27.00'' Est, 45° 44' 05.00'' Nord";"16061";"LE RENCLOS";;"16590";"BRIE";"Pylône tubulaire"; 29.4;"BOUYGUES"
1592327;0.13361;45.56250;"00° 08' 01.00'' Est, 45° 33' 45.00'' Nord";"16236";"LE BOIS DES BRANDES";"CHEM RURAL DE LA ROCHANDRY A LA FOIX";"16440";"MOUTHIERS-SUR-BOEME";"Pylône autostable"; 29.5;"TDF"
