Numéro du support;Longitude;Latitude;"Position";"Insee";"Lieu dit";"Adresse";"Code postal";"Commune";"Nature du support";Hauteur en m;"Propriétaire"
6417;-0.81167;46.24278;"00° 48' 42.00'' Ouest, 46° 14' 34.00'' Nord";"17127";;"R DE LA PROCESSION";"17170";"COURCON";"Mât"; 12.0;"ORANGE Services Fixes"
6423;-1.17361;46.01278;"01° 10' 25.00'' Ouest, 46° 00' 46.00'' Nord";"17004";"MAIRIE";"R GOURGAUD";"17123";"ILE-D'AIX";"Bâtiment"; 11.0;"Commune, communauté de commune"
6433;-0.87056;45.82917;"00° 52' 14.00'' Ouest, 45° 49' 45.00'' Nord";"17284";;"AV ANDRÉ MALRAUX CENTRAL TÉLÉPHONIQUE";"17250";"PONT-L'ABBE-D'ARNOULT";"Bâtiment"; 12.0;"ORANGE Services Fixes"
6435;-0.86583;45.82611;"00° 51' 57.00'' Ouest, 45° 49' 34.00'' Nord";"17284";"MOULIN DU FORT";;"17250";"PONT-L'ABBE-D'ARNOULT";"Château d'eau - réservoir"; 38.0;"Syndicat des eaux, Adduction"
6437;-0.19056;45.88167;"00° 11' 26.00'' Ouest, 45° 52' 54.00'' Nord";"17037";;"R DE L'IMAGE";"17490";"BEAUVAIS-SUR-MATHA";"Pylône autostable"; 25.0;"ORANGE Services Fixes"
6443;-0.21667;45.98944;"00° 13' 00.00'' Ouest, 45° 59' 22.00'' Nord";"17149";;"R DU CHÂTEAU D'EAU";"17510";"LES EDUTS";"Pylône autostable"; 25.0;"ORANGE Services Fixes"
55565;-0.60778;45.44000;"00° 36' 28.00'' Ouest, 45° 26' 24.00'' Nord";"17317";"AIRE DE REPOS N.O. A10";"SITE ASF A10";"17240";"SAINT-CIERS-DU-TAILLON";"Pylône autostable"; 30.0;"Sociétés d'Autoroutes"
55613;-0.58528;45.35556;"00° 35' 07.00'' Ouest, 45° 21' 20.00'' Nord";"17236";"PUYBAILLER A10";"SITE ASF A10";"17150";"MIRAMBEAU";"Pylône autostable"; 12.0;"Sociétés d'Autoroutes"
74321;-0.48917;45.73222;"00° 29' 21.00'' Ouest, 45° 43' 56.00'' Nord";"17395";"BELLEVUE";"CHEM VICINAL N°6";"17610";"SAINT-SAUVANT";"Château d'eau - réservoir"; 29.0;"Syndicat des eaux, Adduction"
74323;-0.61833;45.82639;"00° 37' 06.00'' Ouest, 45° 49' 35.00'' Nord";"17436";"LA MAROTERIE";"CHEM RURAL N°26";"17350";"TAILLEBOURG";"Château d'eau - réservoir"; 33.0;"Conseil Départemental"
74327;-0.55806;45.31833;"00° 33' 29.00'' Ouest, 45° 19' 06.00'' Nord";"17052";"L'ETANG";"D.145 - CHEM D'EXPLOITATION";"17150";"BOISREDON";"Pylône autostable"; 36.0;"ORANGE"
74351;-0.74194;45.71000;"00° 44' 31.00'' Ouest, 45° 42' 36.00'' Nord";"17460";"LA SANSONNERIE";"R DU COURAUD";"17460";"VARZAY";"Pylône autostable"; 30.0;"ORANGE Services Fixes"
74357;-0.14944;45.99139;"00° 08' 58.00'' Ouest, 45° 59' 29.00'' Nord";"17477";"LE PÈRE BROUIN";"D.132 E2";"17510";"VILLIERS-COUTURE";"Pylône autostable"; 30.0;"ORANGE"
74371;-0.95167;45.86056;"00° 57' 06.00'' Ouest, 45° 51' 38.00'' Nord";"17308";"LES FONTAINES";"SILO COOPÉRATIVE AGRICOLE";"17620";"SAINT-AGNANT";"Silo"; 44.0;"Coopérative Agricole, Vinicole"
74395;-0.41167;45.28444;"00° 24' 42.00'' Ouest, 45° 17' 04.00'' Nord";"17240";;"LE CHÂTEAU LE BOURG OUEST";"17130";"MONTENDRE";"Monument historique"; 20.0;"Commune, communauté de commune"
74405;-0.43972;45.79944;"00° 26' 23.00'' Ouest, 45° 47' 58.00'' Nord";"17470";"LE BOURG";"RUE DES GRELOTS CHÂTEAU D'EAU";"17770";"VILLARS-LES-BOIS";"Château d'eau - réservoir"; 26.3;"Syndicat des eaux, Adduction"
114445;-1.12444;46.13222;"01° 07' 28.00'' Ouest, 46° 07' 56.00'' Nord";"17300";;"R DES PÂQUERETTES COLLÈGE LE FIEF DES GALÈRES";"17000";"LA ROCHELLE";"Immeuble"; 35.0;"Conseil Départemental"
143300;-0.65417;45.73833;"00° 39' 15.00'' Ouest, 45° 44' 18.00'' Nord";"17415";;"AV DE TOMBOUCTOU";"17100";"SAINTES";"Immeuble"; 10.0;"Commune, communauté de commune"
150556;-1.14389;46.16000;"01° 08' 38.00'' Ouest, 46° 09' 36.00'' Nord";"17300";;"60 R THIERS HÔPITAL ST LOUIS";"17000";"LA ROCHELLE";"Bâtiment"; 35.0;"Etablissement de soins"
160387;-1.49750;46.25000;"01° 29' 51.00'' Ouest, 46° 15' 00.00'' Nord";"17286";;"MAIRIE LOCAL TECHNIQUE";"17880";"LES PORTES-EN-RE";"Support non décrit"; 10.0;
174646;-0.98556;45.72611;"00° 59' 08.00'' Ouest, 45° 43' 34.00'' Nord";"17185";"SOUHE";"20 R METAIRIE SOUHE";"17600";"LE GUA";"Support non décrit"; 4.0;
175782;-1.32667;46.18806;"01° 19' 36.00'' Ouest, 46° 11' 17.00'' Nord";"17161";;"COURS FELIX FAURE";"17630";"LA FLOTTE";"Support non décrit"; 10.0;
239982;-1.12417;46.17139;"01° 07' 27.00'' Ouest, 46° 10' 17.00'' Nord";"17300";"LE MOULIN DES JUSTICES";"175, BD A. SAUTEL";"17000";"LA ROCHELLE";"Immeuble"; 35.0;
252762;-1.38889;46.23389;"01° 23' 20.00'' Ouest, 46° 14' 02.00'' Nord";"17207";;"TOUR DES ISLATTES";"17111";"LOIX";"Tour hertzienne"; 17.0;
256174;-0.95250;45.94694;"00° 57' 09.00'' Ouest, 45° 56' 49.00'' Nord";"17299";;"ECLUSE BASSIN N° 3";"17300";"ROCHEFORT";"Pylône autostable"; 10.0;
256177;-1.32806;45.91389;"01° 19' 41.00'' Ouest, 45° 54' 50.00'' Nord";"17385";;"PORT DE LA COTINIERE";"17310";"SAINT-PIERRE-D'OLERON";"Bâtiment"; 5.0;
256179;-1.17778;45.85361;"01° 10' 40.00'' Ouest, 45° 51' 13.00'' Nord";"17058";;"DUC DALL";"17560";"BOURCEFRANC-LE-CHAPUS";"Bâtiment"; 7.0;
256181;-1.02806;45.62028;"01° 01' 41.00'' Ouest, 45° 37' 13.00'' Nord";"17306";;"PORT DE ROYAN";"17200";"ROYAN";"Pylône autostable"; 10.0;
273783;-1.42694;46.19222;"01° 25' 37.00'' Ouest, 46° 11' 32.00'' Nord";"17121";;"PL DU MARCHÉ";"17670";"LA COUARDE-SUR-MER";"Local technique"; 8.0;"ORANGE Services Fixes"
276052;-1.10639;46.16361;"01° 06' 23.00'' Ouest, 46° 09' 49.00'' Nord";"17274";;"68, AV LOUIS LUMIÈRE ENTRÉE DU SITE  R DE VAUCANSON";"17180";"PERIGNY";"Pylône tubulaire"; 25.0;"ORANGE"
289197;-0.62583;45.74000;"00° 37' 33.00'' Ouest, 45° 44' 24.00'' Nord";"17415";"PRAIRIE DE LA PALUE";"CHEM DE LA PRAIRIE";"17100";"SAINTES";"Pylône tubulaire"; 25.0;"ORANGE"
289281;-0.96444;45.93722;"00° 57' 52.00'' Ouest, 45° 56' 14.00'' Nord";"17299";;"1 R DE L'ECHAUGUETTE";"17300";"ROCHEFORT";"Immeuble"; 19.0;"ORANGE Services Fixes"
298534;-1.10917;46.15417;"01° 06' 33.00'' Ouest, 46° 09' 15.00'' Nord";"17274";;"R LOUIS PASTEUR ZI PERIGNY";"17180";"PERIGNY";"Pylône tubulaire"; 24.0;"ORANGE"
305719;-0.56694;45.44417;"00° 34' 01.00'' Ouest, 45° 26' 39.00'' Nord";"17279";"LE PLESSIS";"RN 137";"17240";"PLASSAC";"Pylône autostable"; 30.0;"ORANGE"
312483;-1.10056;46.16111;"01° 06' 02.00'' Ouest, 46° 09' 40.00'' Nord";"17274";;"1 RUE ARISTIDE BERGES";"17180";"PERIGNY";"Pylône autostable"; 34.5;"EDF ou GDF"
312601;-1.22028;46.16083;"01° 13' 13.00'' Ouest, 46° 09' 39.00'' Nord";"17300";;"182 BD DELMAS";"17000";"LA ROCHELLE";"Bâtiment"; 18.0;"Particulier"
315849;-0.66417;45.75278;"00° 39' 51.00'' Ouest, 45° 45' 10.00'' Nord";"17415";;"LA RANCONNERIE GARE DE PEAGE STES";"17100";"SAINTES";"Local technique"; 7.0;"Sociétés d'Autoroutes"
317622;-1.47833;45.62611;"01° 28' 42.00'' Ouest, 45° 37' 34.00'' Nord";"17306";;"BXA-BOUEE FLOTTANTE";"17200";"ROYAN";"Mât"; 8.0;"Phares et balises"
320887;-0.99611;46.07611;"00° 59' 46.00'' Ouest, 46° 04' 34.00'' Nord";"17443";;"22 R JASSE PERDRIX";"17290";"THAIRE";"Silo"; 29.0;"Coopérative Agricole, Vinicole"
321779;-1.00889;45.60556;"01° 00' 32.00'' Ouest, 45° 36' 20.00'' Nord";"17333";;"R OCEANIC RES DES DEUX PLAGES";"17110";"SAINT-GEORGES-DE-DIDONNE";"Immeuble"; 28.0;"Particulier"
324246;-0.88333;46.17389;"00° 53' 00.00'' Ouest, 46° 10' 26.00'' Nord";"17007";;"LES RIVIERES D ANAIS POMPAGE DE MILLE ECUS";"17540";"ANAIS";"Bâtiment"; 12.0;
324248;-0.92417;46.17778;"00° 55' 27.00'' Ouest, 46° 10' 40.00'' Nord";"17466";;"D 107 STATION POMPAGE DE FRAISE";"17540";"VERINES";"Bâtiment"; 12.0;
329061;-1.11750;46.17528;"01° 07' 03.00'' Ouest, 46° 10' 31.00'' Nord";"17291";;"ZAC BEAULIEU 22 , ROUTE NATIONALE 11";"17138";"PUILBOREAU";"Bâtiment"; 2.8;"Société Privée SA"
329373;-0.50389;45.74972;"00° 30' 14.00'' Ouest, 45° 44' 59.00'' Nord";"17314";"PALEOSITE";"CHEM RURAL";"17770";"SAINT-CESAIRE";"Mât"; 11.0;"ORANGE"
348794;-0.58583;45.89944;"00° 35' 09.00'' Ouest, 45° 53' 58.00'' Nord";"17157";"LA PITIÈRE, LA BÉVINIÈRE";"CHEM RURAL";"17350";"FENIOUX";"Pylône autostable"; 33.0;"ORANGE Services Fixes"
353546;-0.47444;45.59472;"00° 28' 28.00'' Ouest, 45° 35' 41.00'' Nord";"17145";"LES GRANDS BOIS";"R DE LA FOND DES PRATS";"17800";"ECHEBRUNE";"Pylône autostable"; 42.0;"ORANGE Services Fixes"
358426;-0.54528;45.58167;"00° 32' 43.00'' Ouest, 45° 34' 54.00'' Nord";"17283";;"44 AV GAMBETTA";"17800";"PONS";"Bâtiment"; 17.0;"Commune, communauté de commune"
361231;-0.28139;45.41639;"00° 16' 53.00'' Ouest, 45° 24' 59.00'' Nord";"17357";;"LE BOURG D 152";"17520";"SAINT-MAIGRIN";"Bâtiment"; 2.0;
365767;-0.02167;45.16194;"00° 01' 18.00'' Ouest, 45° 09' 43.00'' Nord";"17309";"LA CROIX DE VARACHAUD";"CENTRAL TÉLÉPHONIQUE";"17360";"SAINT-AIGULIN";"Pylône autostable"; 8.0;"ORANGE Services Fixes"
398329;-0.59861;45.64417;"00° 35' 55.00'' Ouest, 45° 38' 39.00'' Nord";"17044";"LE MOULIN";"R DU CHATEAU D'EAU";"17460";"BERNEUIL";"Château d'eau - réservoir"; 35.0;"Syndicat des eaux, Adduction"
398655;-0.02111;45.16194;"00° 01' 16.00'' Ouest, 45° 09' 43.00'' Nord";"17309";"LA CROIX VACHAUD";;"17360";"SAINT-AIGULIN";"Château d'eau - réservoir"; 26.0;"Syndicat des eaux, Adduction"
398667;-0.29083;46.01944;"00° 17' 27.00'' Ouest, 46° 01' 10.00'' Nord";"17358";"CHANTE OISEAU";;"17470";"SAINT-MANDE-SUR-BREDOIRE";"Château d'eau - réservoir"; 25.0;"Syndicat des eaux, Adduction"
425926;-0.47833;45.66917;"00° 28' 42.00'' Ouest, 45° 40' 09.00'' Nord";"17242";"LES LOGES";;"17800";"MONTILS";"Pylône autostable"; 22.0;"Société Privée SA"
430424;-1.08056;45.94306;"01° 04' 50.00'' Ouest, 45° 56' 35.00'' Nord";"17484";"PORT DES BARQUES";;"17730";"PORT-DES-BARQUES";"Château d'eau - réservoir"; 23.0;"Syndicat des eaux, Adduction"
431692;-0.95944;45.73222;"00° 57' 34.00'' Ouest, 45° 43' 56.00'' Nord";"17185";"LE FIEF DE CHALONS";;"17600";"LE GUA";"Pylône autostable"; 18.0;"Société Privée SA"
437366;-0.96222;45.56694;"00° 57' 44.00'' Ouest, 45° 34' 01.00'' Nord";"17230";"PIECE DE LA GARENNE";"R DU CHATEAU D'EAU";"17132";"MESCHERS-SUR-GIRONDE";"Pylône autostable"; 50.5;"TDF"
439456;-1.03028;45.79083;"01° 01' 49.00'' Ouest, 45° 47' 27.00'' Nord";"17351";"PILLERIT";"FIEF DE CABLANC CHÂTEAU D'EAU";"17320";"SAINT-JUST-LUZAC";"Château d'eau - réservoir"; 34.0;"Syndicat des eaux, Adduction"
440188;-1.14972;46.15361;"01° 08' 59.00'' Ouest, 46° 09' 13.00'' Nord";"17300";;"QUAI LOUIS PRUNIER HÔTEL MERCURE";"17000";"LA ROCHELLE";"Immeuble"; 22.0;"Société Privée SA"
443930;-1.06306;45.63611;"01° 03' 47.00'' Ouest, 45° 38' 10.00'' Nord";"17461";"FIEF DES HAUTES FOLIES";"39 R DE L'OCÉAN";"17640";"VAUX-SUR-MER";"Pylône autostable"; 75.0;"TDF"
445548;-1.08722;45.98778;"01° 05' 14.00'' Ouest, 45° 59' 16.00'' Nord";"17168";"LES ROSIERS";"R PAUL BÉHU";"17450";"FOURAS";"Pylône autostable"; 35.0;"ORANGE Services Fixes"
445638;-0.81333;46.13667;"00° 48' 48.00'' Ouest, 46° 08' 12.00'' Nord";"17293";;"R DU STADE CHÂTEAU D'EAU";"17700";"PUYRAVAULT";"Château d'eau - réservoir"; 39.0;"Syndicat des eaux, Adduction"
446035;-0.57722;45.37694;"00° 34' 38.00'' Ouest, 45° 22' 37.00'' Nord";"17362";"LES TONNELLES";"CHEM RURAL";"17150";"SAINT-MARTIAL-DE-MIRAMBEAU";"Mât"; 12.0;"ORANGE"
450545;-0.44750;45.48583;"00° 26' 51.00'' Ouest, 45° 29' 09.00'' Nord";"17108";"CHEZ FERCHAUD";;"17500";"CLAM";"Château d'eau - réservoir"; 26.5;"Syndicat des eaux, Adduction"
450599;-1.07583;45.72639;"01° 04' 33.00'' Ouest, 45° 43' 35.00'' Nord";"17079";"MAINE AURIOUX";;"17890";"CHAILLEVETTE";"Château d'eau - réservoir"; 41.0;"Syndicat des eaux, Adduction"
450814;-1.15111;46.16250;"01° 09' 04.00'' Ouest, 46° 09' 45.00'' Nord";"17300";;"43 R DU MINAGE RÉSIDENCE DE FRANCE";"17000";"LA ROCHELLE";"Immeuble"; 27.0;"Copropriété, Syndic, SCI"
450915;-1.13472;45.83861;"01° 08' 05.00'' Ouest, 45° 50' 19.00'' Nord";"17058";"FIEF DES SABLES";"ZI";"17560";"BOURCEFRANC-LE-CHAPUS";"Pylône autostable"; 39.0;"TDF"
451242;-1.11417;46.19417;"01° 06' 51.00'' Ouest, 46° 11' 39.00'' Nord";"17291";"ABBAYE ST HILLAIRE";"LES PARADIS";"17138";"PUILBOREAU";"Château d'eau - réservoir"; 60.7;"Syndicat des eaux, Adduction"
451284;-1.31583;45.93194;"01° 18' 57.00'' Ouest, 45° 55' 55.00'' Nord";"17385";"L'AUBIER";"170 ROUTE DE LA COTINIÈRE D274";"17310";"SAINT-PIERRE-D'OLERON";"Château d'eau - réservoir"; 59.0;"Syndicat des eaux, Adduction"
451323;-0.66944;45.88306;"00° 40' 10.00'' Ouest, 45° 52' 59.00'' Nord";"17397";"LE PUIVINEUX";"VOIE COMMUNALE NUMERO 3";"17350";"SAINT-SAVINIEN";"Château d'eau - réservoir"; 16.0;"Syndicat des eaux, Adduction"
451357;-0.95611;45.57472;"00° 57' 22.00'' Ouest, 45° 34' 29.00'' Nord";"17230";"FIEF DE LA CURE";"CIMETIÈRE";"17132";"MESCHERS-SUR-GIRONDE";"Château d'eau - réservoir"; 48.0;"Syndicat des eaux, Adduction"
451643;-0.67750;46.13333;"00° 40' 39.00'' Ouest, 46° 07' 60.00'' Nord";"17394";"FIEF DE LA CURE";"CHATEAU D'EAU";"17700";"SAINT-SATURNIN-DU-BOIS";"Château d'eau - réservoir"; 29.0;"Syndicat des eaux, Adduction"
451681;-0.88306;46.21972;"00° 52' 59.00'' Ouest, 46° 13' 11.00'' Nord";"17396";"LE ROMPI";"R DU CHAMPS DE SUE CHÂTEAU D'EAU";"17540";"SAINT-SAUVEUR-D'AUNIS";"Château d'eau - réservoir"; 31.0;"Syndicat des eaux, Adduction"
452098;-1.18778;46.16833;"01° 11' 16.00'' Ouest, 46° 10' 06.00'' Nord";"17300";"MIREUIL";"R EUGÈNE LABICHE IMM LINCOLN";"17000";"LA ROCHELLE";"Immeuble"; 75.2;"TDF"
452106;-1.15083;45.77083;"01° 09' 03.00'' Ouest, 45° 46' 15.00'' Nord";"17452";"LE JARD";"R DU CHÂTEAU D'EAU";"17390";"LA TREMBLADE";"Château d'eau - réservoir"; 60.0;"Syndicat des eaux, Adduction"
453168;-0.44028;45.44944;"00° 26' 25.00'' Ouest, 45° 26' 58.00'' Nord";"17197";"CHEZ GODET";"210 AV FAIDHERBE";"17500";"JONZAC";"Bâtiment"; 9.0;"Société Privée SA"
453170;-0.71611;46.13500;"00° 42' 58.00'' Ouest, 46° 08' 06.00'' Nord";"17338";"FIEF DU CHAILLÉ";"R DES FOUGÈRES";"17700";"SAINT-GEORGES-DU-BOIS";"Château d'eau - réservoir"; 35.0;"Syndicat des eaux, Adduction"
454635;-0.79611;45.75944;"00° 47' 46.00'' Ouest, 45° 45' 34.00'' Nord";"17431";"L'ENCLOUSE DU BOIS";"PRÈS D119";"17250";"SOULIGNONNE";"Pylône tubulaire"; 29.0;"ORANGE"
454961;-0.53472;45.57722;"00° 32' 05.00'' Ouest, 45° 34' 38.00'' Nord";"17283";"LA TERRIÈRE";"R DE JONZAC STADE MUNICIPAL";"17800";"PONS";"Pylône autostable"; 31.0;"SFR"
455134;-0.30472;45.52028;"00° 18' 17.00'' Ouest, 45° 31' 13.00'' Nord";"17016";"LE BOURG";"R DU PATIS";"17520";"ARCHIAC";"Château d'eau - réservoir"; 41.0;"Syndicat des eaux, Adduction"
455829;-1.15389;46.19611;"01° 09' 14.00'' Ouest, 46° 11' 46.00'' Nord";"17200";;"RTE DE NIEUL FIEF ROULLET PRÈS DE LA RD 104";"17140";"LAGORD";"Pylône autostable"; 37.5;"CELLNEX"
455870;-0.96944;45.96583;"00° 58' 10.00'' Ouest, 45° 57' 57.00'' Nord";"17299";"BELIGON LES QUATRE ANES";"PRÈS D.116";"17300";"ROCHEFORT";"Pylône autostable"; 51.0;"TDF"
456332;-0.60389;45.40167;"00° 36' 14.00'' Ouest, 45° 24' 06.00'' Nord";"17424";"CELLERIT-CHEZ RAPET";;"17150";"SEMOUSSAC";"Pylône autostable"; 42.0;"TDF"
457244;-1.10194;46.15889;"01° 06' 07.00'' Ouest, 46° 09' 32.00'' Nord";"17274";;"ZI DE PÉRIGNY AV LOUIS LUMIÈRE";"17180";"PERIGNY";"Pylône autostable"; 42.0;"Towercast"
457309;-0.80111;45.96556;"00° 48' 04.00'' Ouest, 45° 57' 56.00'' Nord";"17246";"LES VERGERS";;"17430";"MORAGNE";"Pylône haubané"; 53.0;"Towercast"
460176;-0.63972;45.73806;"00° 38' 23.00'' Ouest, 45° 44' 17.00'' Nord";"17415";;"IMP DU VÉLODROME";"17100";"SAINTES";"Pylône autostable"; 52.0;"TDF"
462463;-1.15889;46.15083;"01° 09' 32.00'' Ouest, 46° 09' 03.00'' Nord";"17300";"BOUT BLANC";"AVENUE MICHEL CRÉPEAU RUE DE LA BONETTE SCI CESIM";"17000";"LA ROCHELLE";"Pylône tubulaire"; 30.0;"ORANGE"
463468;-0.55500;45.33389;"00° 33' 18.00'' Ouest, 45° 20' 02.00'' Nord";"17052";"BRET";"MARBOEUF";"17150";"BOISREDON";"Pylône autostable"; 44.0;"TDF"
463487;-0.90139;45.77167;"00° 54' 05.00'' Ouest, 45° 46' 18.00'' Nord";"17330";"CHEZ DEVAUD";"CHÂTEAU D'EAU";"17250";"SAINTE-GEMME";"Château d'eau - réservoir"; 58.2;"Syndicat des eaux, Adduction"
464112;-0.86917;45.96028;"00° 52' 09.00'' Ouest, 45° 57' 37.00'' Nord";"17449";"LA BRULÉE";;"17430";"TONNAY-CHARENTE";"Pylône autostable"; 50.0;"TDF"
467633;-0.91528;45.61056;"00° 54' 55.00'' Ouest, 45° 36' 38.00'' Nord";"17425";"FIEF DE LA VALADE";"PRÈS D.117";"17120";"SEMUSSAC";"Pylône tubulaire"; 30.0;"ORANGE"
467817;-0.65333;45.73139;"00° 39' 12.00'' Ouest, 45° 43' 53.00'' Nord";"17415";"LES BOIFFIERS";"R DES GUEURLETS";"17100";"SAINTES";"Château d'eau - réservoir"; 57.0;"Commune, communauté de commune"
468682;-0.41556;45.44333;"00° 24' 56.00'' Ouest, 45° 26' 36.00'' Nord";"17197";"LE FIEF DE CHAILLE";"ROUTE DE BARBEZIEUX";"17500";"JONZAC";"Pylône autostable"; 80.0;"ORANGE Services Fixes"
468884;-0.52833;45.96222;"00° 31' 42.00'' Ouest, 45° 57' 44.00'' Nord";"17347";"FONTORBE";;"17400";"SAINT-JEAN-D'ANGELY";"Pylône autostable"; 40.0;"TDF"
470269;-1.35639;45.97861;"01° 21' 23.00'' Ouest, 45° 58' 43.00'' Nord";"17337";"LA FILASSE";"RD 734 TERRAIN DE SPORT STADE DE ST GEORGES";"17190";"SAINT-GEORGES-D'OLERON";"Pylône autostable"; 48.0;"CELLNEX"
470918;-1.15556;46.17167;"01° 09' 20.00'' Ouest, 46° 10' 18.00'' Nord";"17300";;"PL DU CURÉ CRAMPETTE";"17000";"LA ROCHELLE";"Monument religieux"; 33.2;"Association"
473315;-1.00000;46.18417;"01° 00' 00.00'' Ouest, 46° 11' 03.00'' Nord";"17407";"CHANTEMERLE";"ROUTE DE ST COUX";"17220";"SAINTE-SOULLE";"Château d'eau - réservoir"; 43.0;"Commune, communauté de commune"
475598;-0.52694;45.71472;"00° 31' 37.00'' Ouest, 45° 42' 53.00'' Nord";"17086";;"PLANVINIEUX 11 CHEM DESRUE";"17610";"CHANIERS";"Pylône autostable"; 45.0;"TDF"
477526;-1.22222;46.16528;"01° 13' 20.00'' Ouest, 46° 09' 55.00'' Nord";"17300";;"AV BOUQUET DE LA GRYE LA PALLICE PORT";"17000";"LA ROCHELLE";"Pylône autostable"; 42.5;"SFR"
480077;-1.11667;46.20583;"01° 07' 00.00'' Ouest, 46° 12' 21.00'' Nord";"17414";"LA RIBOTELIERE";"FIEF LES ANGLETERRES";"17138";"SAINT-XANDRE";"Tour hertzienne"; 79.0;"TDF"
483264;-1.10389;46.13861;"01° 06' 14.00'' Ouest, 46° 08' 19.00'' Nord";"17028";"LES TENNIS";"RUE DES ROUHAUDS QUARTIER DES OLIVIERS";"17440";"AYTRE";"Château d'eau - réservoir"; 53.0;"Syndicat des eaux, Adduction"
496684;-1.01028;45.62361;"01° 00' 37.00'' Ouest, 45° 37' 25.00'' Nord";"17306";;"3 BD  DES CLOCHETTES";"17200";"ROYAN";"Bâtiment"; 11.0;"Particulier"
507099;-0.99333;45.94917;"00° 59' 36.00'' Ouest, 45° 56' 57.00'' Nord";"17299";;"100 R DES PÉCHEURS D'ISLANDE";"17300";"ROCHEFORT";"Pylône autostable"; 20.0;"SFR"
507137;-1.09611;46.16278;"01° 05' 46.00'' Ouest, 46° 09' 46.00'' Nord";"17274";"FIEF GODET";;"17180";"PERIGNY";"Pylône autostable"; 82.0;"TDF"
507555;-0.61944;45.82667;"00° 37' 10.00'' Ouest, 45° 49' 36.00'' Nord";"17436";"LA MAROTERIE";"RTE DE ST VAIZE";"17350";"TAILLEBOURG";"Pylône autostable"; 49.3;"TDF"
507559;-1.53472;46.21472;"01° 32' 05.00'' Ouest, 46° 12' 53.00'' Nord";"17019";"LES FAUX";"RN";"17590";"ARS-EN-RE";"Pylône autostable"; 51.0;"TDF"
511650;-0.97528;46.22806;"00° 58' 31.00'' Ouest, 46° 13' 41.00'' Nord";"17208";"LE PEU";"RTE DE LONGEVES";"17230";"LONGEVES";"Pylône autostable"; 44.0;"TDF"
512840;-1.14361;46.15972;"01° 08' 37.00'' Ouest, 46° 09' 35.00'' Nord";"17300";;"R DU DR SCHWEITZER HÔPITAL ST-LOUIS";"17000";"LA ROCHELLE";"Immeuble"; 50.0;"Etablissement de soins"
514283;-1.15444;45.79583;"01° 09' 16.00'' Ouest, 45° 47' 45.00'' Nord";"17452";;"19 R DES ERABLES";"17390";"LA TREMBLADE";"Pylône tubulaire"; 36.6;"ORANGE"
516198;-1.44167;46.22194;"01° 26' 30.00'' Ouest, 46° 13' 19.00'' Nord";"17207";"LES TOURETTES";"R DU PERTUIS";"17111";"LOIX";"Château d'eau - réservoir"; 40.0;"Syndicat des eaux, Adduction"
520722;-1.26167;45.90333;"01° 15' 42.00'' Ouest, 45° 54' 12.00'' Nord";"17140";"DELIDON";"Z.A LA JARRIE";"17550";"DOLUS-D'OLERON";"Pylône tubulaire"; 26.5;"ORANGE"
520910;-0.34583;46.03194;"00° 20' 45.00'' Ouest, 46° 01' 55.00'' Nord";"17024";"L'ORMEAU";"951 RTE DE LA VILLEDIEU";"17470";"AULNAY";"Pylône autostable"; 29.1;"TDF"
522189;-0.99694;45.62639;"00° 59' 49.00'' Ouest, 45° 37' 35.00'' Nord";"17306";"BELMONT";"N 150";"17200";"ROYAN";"Pylône autostable"; 38.5;"ORANGE"
523023;-0.62417;45.66417;"00° 37' 27.00'' Ouest, 45° 39' 51.00'' Nord";"17289";"LA POITEVINIÈRE";"RTE DU CLONE FLANQUET";"17460";"PREGUILLAC";"Pylône haubané"; 91.0;"TDF"
523940;-1.21167;45.84000;"01° 12' 42.00'' Ouest, 45° 50' 24.00'' Nord";"17411";"LA SOULASERIE";;"17370";"SAINT-TROJAN-LES-BAINS";"Château d'eau - réservoir"; 16.0;"Syndicat des eaux, Adduction"
526149;-1.08639;46.05861;"01° 05' 11.00'' Ouest, 46° 03' 31.00'' Nord";"17094";"LES BOUCHOLEURS";"CHATEAU D'EAU DES BOUCHOLEURS";"17340";"CHATELAILLON-PLAGE";"Château d'eau - réservoir"; 34.0;"Commune, communauté de commune"
526279;-1.08500;46.10417;"01° 05' 06.00'' Ouest, 46° 06' 15.00'' Nord";"17010";"L'ISLEAU";"RUE DES CHAMPS MAILLARD";"17690";"ANGOULINS";"Pylône autostable"; 43.0;"SFR"
529465;-1.37722;46.03028;"01° 22' 38.00'' Ouest, 46° 01' 49.00'' Nord";"17323";"STADE";;"17650";"SAINT-DENIS-D'OLERON";"Mât béton"; 12.0;"Commune, communauté de commune"
529471;-1.35333;46.19500;"01° 21' 12.00'' Ouest, 46° 11' 42.00'' Nord";"17369";"STADE COMMUNAL";"LA GRANDE CROIX";"17410";"SAINT-MARTIN-DE-RE";"Pylône tubulaire"; 25.0;"Conseil Départemental"
529865;-1.09500;45.72806;"01° 05' 42.00'' Ouest, 45° 43' 41.00'' Nord";"17155";"LA GRANDERIE";"PARC DU CHEMIN DE SABLE";"17750";"ETAULES";"Pylône autostable"; 49.0;"TDF"
529923;-1.53944;46.22278;"01° 32' 22.00'' Ouest, 46° 13' 22.00'' Nord";"17019";"LA TRICHERIE";"R DU CHÂTEAU D'EAU";"17590";"ARS-EN-RE";"Château d'eau - réservoir"; 40.0;"Syndicat des eaux, Adduction"
531227;-1.52222;46.20667;"01° 31' 20.00'' Ouest, 46° 12' 24.00'' Nord";"17019";"GRIGNON";;"17590";"ARS-EN-RE";"Pylône autostable"; 17.0;"ORANGE"
531977;-1.16861;46.14000;"01° 10' 07.00'' Ouest, 46° 08' 24.00'' Nord";"17300";"PORT DES MINIMES";"R LUCILE LES SIRÈNES";"17000";"LA ROCHELLE";"Immeuble"; 22.0;"Société HLM"
532619;-1.01444;46.14500;"01° 00' 52.00'' Ouest, 46° 08' 42.00'' Nord";"17245";"L'ARDENNE";"CHEM RURAL";"17220";"MONTROY";"Pylône autostable"; 40.3;"FPS TOWERS"
533997;-1.24167;45.88778;"01° 14' 30.00'' Ouest, 45° 53' 16.00'' Nord";"17140";"LA PIECE DU DEU";"CHATEAU D'EAU";"17550";"DOLUS-D'OLERON";"Château d'eau - réservoir"; 60.0;"Syndicat des eaux, Adduction"
534516;-1.15972;46.21750;"01° 09' 35.00'' Ouest, 46° 13' 03.00'' Nord";"17264";"LES COUGNÈRES";;"17137";"NIEUL-SUR-MER";"Pylône autostable"; 32.0;"FPS TOWERS"
535424;-0.20056;45.96944;"00° 12' 02.00'' Ouest, 45° 58' 10.00'' Nord";"17422";"LE CHIRON BLANC";;"17510";"SEIGNE";"Pylône autostable"; 30.0;"CELLNEX"
547438;-1.12083;45.66194;"01° 07' 15.00'' Ouest, 45° 39' 43.00'' Nord";"17380";"LES COMBOTS";"PRÉS D141 TOUR DE SURVEILLANCE";"17420";"SAINT-PALAIS-SUR-MER";"Tour de contrôle"; 42.0;"Intérieur"
551570;-0.53250;46.00972;"00° 31' 57.00'' Ouest, 46° 00' 35.00'' Nord";"17277";"BOIS D ESSOUVERT";;"17400";"SAINT-DENIS-DU-PIN";"Pylône haubané"; 71.0;"TDF"
555899;-0.80083;45.96611;"00° 48' 03.00'' Ouest, 45° 57' 58.00'' Nord";"17246";"BELLEVUE";"VOIE COMMUNALE N°3 PRÈS DU RÉSERVOIR";"17430";"MORAGNE";"Pylône autostable"; 18.0;"Syndicat des eaux, Adduction"
558377;-1.42417;46.19417;"01° 25' 27.00'' Ouest, 46° 11' 39.00'' Nord";"17121";;"AV DE LA PLAGE GRANDE RUE EGLISE";"17670";"LA COUARDE-SUR-MER";"Monument religieux"; 36.0;"Commune, communauté de commune"
558384;-0.76222;45.81000;"00° 45' 44.00'' Ouest, 45° 48' 36.00'' Nord";"17387";"LES TONNELLES";"N.137";"17250";"SAINT-PORCHAIRE";"Château d'eau - réservoir"; 32.7;"Syndicat des eaux, Adduction"
561854;-0.96500;45.97694;"00° 57' 54.00'' Ouest, 45° 58' 37.00'' Nord";"17065";"LES GRANDES OUILLIÈRES";;"17870";"BREUIL-MAGNE";"Pylône autostable"; 52.0;"SFR"
563437;-0.91750;45.82083;"00° 55' 03.00'' Ouest, 45° 49' 15.00'' Nord";"17083";"LES PETITS AJOTS";"CHEM COMMUNAL";"17620";"CHAMPAGNE";"Pylône autostable"; 38.0;"ORANGE"
565885;-1.36667;46.20139;"01° 22' 00.00'' Ouest, 46° 12' 05.00'' Nord";"17369";;"53 R DE L'HÔPITAL";"17410";"SAINT-MARTIN-DE-RE";"Immeuble"; 26.0;"Etablissement de soins"
570768;-0.43333;45.31167;"00° 26' 00.00'' Ouest, 45° 18' 42.00'' Nord";"17130";"CHEZ GRELET";;"17130";"COUX";"Pylône autostable"; 35.3;"SFR"
571971;-0.50222;45.94944;"00° 30' 08.00'' Ouest, 45° 56' 58.00'' Nord";"17347";"MOULIN D'AUSSY";"CHEM RURAL DE PÉLOUAILLE";"17400";"SAINT-JEAN-D'ANGELY";"Pylône autostable"; 45.0;"ORANGE"
573122;-1.04889;45.70222;"01° 02' 56.00'' Ouest, 45° 42' 08.00'' Nord";"17064";"SABLES DE PIGAUTIER";"8, RTE DU CAILLEAU";"17920";"BREUILLET";"Pylône autostable"; 34.0;"ORANGE"
580276;-1.21278;45.84000;"01° 12' 46.00'' Ouest, 45° 50' 24.00'' Nord";"17411";"L'OBSERVATOIRE";;"17370";"SAINT-TROJAN-LES-BAINS";"Pylône autostable"; 29.0;"ORANGE Services Fixes"
583164;-1.22444;45.69611;"01° 13' 28.00'' Ouest, 45° 41' 46.00'' Nord";"17225";"DUNES DU VOLCAN";"CAMPING « LA CÔTE SAUVAGE »  CANTON DE BONNE ANSE";"17570";"LES MATHES";"Château d'eau - réservoir"; 21.0;"Etat, Ministère"
585933;-0.92583;45.67028;"00° 55' 33.00'' Ouest, 45° 40' 13.00'' Nord";"17421";;"2 R DU CHÂTEAU D'EAU";"17600";"SAUJON";"Château d'eau - réservoir"; 36.0;"Commune, communauté de commune"
589288;-0.80917;46.23583;"00° 48' 33.00'' Ouest, 46° 14' 09.00'' Nord";"17127";"FIEF BREUILLET";"BUTTE DES SIGNAUX";"17170";"COURCON";"Pylône autostable"; 33.0;"ORANGE Services Fixes"
590544;-0.65083;45.75333;"00° 39' 03.00'' Ouest, 45° 45' 12.00'' Nord";"17415";;"80 COURS MAL LECLERC-CC CARREFOUR";"17100";"SAINTES";"Bâtiment"; 11.0;"Société Privée SA"
592600;-0.50306;45.94750;"00° 30' 11.00'' Ouest, 45° 56' 51.00'' Nord";"17347";;"R RENE CASSIN CUISINE CENTRALE";"17400";"SAINT-JEAN-D'ANGELY";"Mât"; 9.0;"Particulier"
597614;-0.52111;45.86333;"00° 31' 16.00'' Ouest, 45° 51' 48.00'' Nord";"17344";"GROLLARD";"D 124";"17770";"SAINT-HILAIRE-DE-VILLEFRANCHE";"Pylône autostable"; 38.0;"TDF"
597692;-0.68250;46.13083;"00° 40' 57.00'' Ouest, 46° 07' 51.00'' Nord";"17394";"MINOTERIE DU CHATEAU DE SURGER";"STATION TDF DE SURGÈRES";"17700";"SAINT-SATURNIN-DU-BOIS";"Pylône autostable"; 65.5;"TDF"
598234;-0.51556;45.95361;"00° 30' 56.00'' Ouest, 45° 57' 13.00'' Nord";"17347";"LES JUSTICES";"RTE DE NIORT";"17400";"SAINT-JEAN-D'ANGELY";"Château d'eau - réservoir"; 36.7;"Commune, communauté de commune"
600302;-0.87694;45.95000;"00° 52' 37.00'' Ouest, 45° 57' 00.00'' Nord";"17449";"BEL AIR";"R DE FONTSECHE CHÂTEAU D'EAU";"17430";"TONNAY-CHARENTE";"Château d'eau - réservoir"; 33.6;"Syndicat des eaux, Adduction"
603130;-0.51556;45.94361;"00° 30' 56.00'' Ouest, 45° 56' 37.00'' Nord";"17347";;"CHAMP DE FOIRE";"17400";"SAINT-JEAN-D'ANGELY";"Pylône autostable"; 40.0;"TDF"
604180;-0.52500;45.71750;"00° 31' 30.00'' Ouest, 45° 43' 03.00'' Nord";"17086";"CHEZ BLANCHARD";;"17610";"CHANIERS";"Pylône autostable"; 36.0;"Itas Tim"
604237;-0.27194;45.23833;"00° 16' 19.00'' Ouest, 45° 14' 18.00'' Nord";"17243";"MILLAN";"N.10";"17210";"MONTLIEU-LA-GARDE";"Pylône autostable"; 72.0;"TDF"
605616;-0.81806;45.58861;"00° 49' 05.00'' Ouest, 45° 35' 19.00'' Nord";"17131";"LE MOULIN DE LA GÎTE";"12 R DU MOULIN DE ROUMIGNAC";"17120";"COZES";"Pylône autostable"; 34.0;"ORANGE Services Fixes"
606216;-1.23333;45.69667;"01° 14' 00.00'' Ouest, 45° 41' 48.00'' Nord";"17452";;"PHARE DE LA COUBRE";"17390";"LA TREMBLADE";"Phare"; 65.0;"Phares et balises"
606491;-0.63306;45.74444;"00° 37' 59.00'' Ouest, 45° 44' 40.00'' Nord";"17415";;"SQ ANDRÉ MAUDET MAIRIE";"17100";"SAINTES";"Bâtiment"; 12.0;"Commune, communauté de commune"
606493;-0.62444;45.74417;"00° 37' 28.00'' Ouest, 45° 44' 39.00'' Nord";"17415";;"PL GEOFFROY MARTEL ABBAYE AUX DAMES";"17100";"SAINTES";"Monument religieux"; 30.0;"Particulier"
610287;-0.52972;45.94667;"00° 31' 47.00'' Ouest, 45° 56' 48.00'' Nord";"17347";;"18 AV DU PORT";"17400";"SAINT-JEAN-D'ANGELY";"Pylône haubané"; 22.0;"Particulier"
614006;-1.16944;45.69417;"01° 10' 10.00'' Ouest, 45° 41' 39.00'' Nord";"17225";"LES GANNES";"CHÂTEAU D'EAU DE LA PALMYRE PRÈS DE L'HIPPODROME";"17570";"LES MATHES";"Château d'eau - réservoir"; 54.0;"Commune, communauté de commune"
614456;-0.96194;45.90111;"00° 57' 43.00'' Ouest, 45° 54' 04.00'' Nord";"17146";"LE PINIER";"RTE DU  BOIS BERNARD";"17620";"ECHILLAIS";"Pylône autostable"; 24.0;"ORANGE"
619864;-1.07417;46.19083;"01° 04' 27.00'' Ouest, 46° 11' 27.00'' Nord";"17142";;"R JACQUES ARCHAMBAULT";"17139";"DOMPIERRE-SUR-MER";"Château d'eau - réservoir"; 39.6;"Syndicat des eaux, Adduction"
621019;-0.52972;45.72750;"00° 31' 47.00'' Ouest, 45° 43' 39.00'' Nord";"17086";"MALCOMBE";"PRÉS N141";"17610";"CHANIERS";"Pylône autostable"; 27.0;"ORANGE"
621685;-0.59083;45.46694;"00° 35' 27.00'' Ouest, 45° 28' 01.00'' Nord";"17331";;"LE GRAND CHASSAC";"17240";"SAINT-GENIS-DE-SAINTONGE";"Pylône autostable"; 42.0;"TDF"
623000;-0.17333;45.22694;"00° 10' 24.00'' Ouest, 45° 13' 37.00'' Nord";"17241";"PIERRE-FOLLE";"CV N°5 LES MAINES NORD";"17270";"MONTGUYON";"Pylône autostable"; 42.0;"ORANGE Services Fixes"
627786;-0.97861;45.59278;"00° 58' 43.00'' Ouest, 45° 35' 34.00'' Nord";"17333";"LE BOCAGE";"AV DU PRESIDENT DULIN LE FOUR A TUILES";"17110";"SAINT-GEORGES-DE-DIDONNE";"Château d'eau - réservoir"; 52.0;"Commune, communauté de commune"
630577;-1.12194;46.24056;"01° 07' 19.00'' Ouest, 46° 14' 26.00'' Nord";"17222";"LES MOINDREAUX";"RD N°105";"17137";"MARSILLY";"Château d'eau - réservoir"; 51.0;"Syndicat des eaux, Adduction"
631858;-1.09444;45.64583;"01° 05' 40.00'' Ouest, 45° 38' 45.00'' Nord";"17380";;"AV DE LA GRANDE CÔTE";"17420";"SAINT-PALAIS-SUR-MER";"Château d'eau - réservoir"; 43.0;"Syndicat des eaux, Adduction"
638352;-1.02167;45.67111;"01° 01' 18.00'' Ouest, 45° 40' 16.00'' Nord";"17409";"BOIS DES QUARTS";"RD 140";"17200";"SAINT-SULPICE-DE-ROYAN";"Château d'eau - réservoir"; 53.0;"Syndicat des eaux, Adduction"
646286;-1.15917;46.16222;"01° 09' 33.00'' Ouest, 46° 09' 44.00'' Nord";"17300";;"AV DU GÉNÉRAL LECLERC";"17000";"LA ROCHELLE";"Bâtiment"; 26.0;"ORANGE Services Fixes"
646288;-1.17222;46.16972;"01° 10' 20.00'' Ouest, 46° 10' 11.00'' Nord";"17300";;"2 R JEAN HONORÉ FRAGONARD";"17000";"LA ROCHELLE";"Immeuble"; 33.0;"Société HLM"
646292;-1.19611;46.15444;"01° 11' 46.00'' Ouest, 46° 09' 16.00'' Nord";"17300";;"26 R DE CHEF DE BAIE USINE RHODIA";"17000";"LA ROCHELLE";"Bâtiment"; 27.0;"Société Privée SA"
646296;-1.15194;46.14278;"01° 09' 07.00'' Ouest, 46° 08' 34.00'' Nord";"17300";;"15 R FRANÇOIS DE VAUX DE FOLLETIER C.R.O.U.S. - RÉSIDENCE ANTINÉA";"17000";"LA ROCHELLE";"Immeuble"; 31.0;"Etat, Ministère"
646303;-1.17833;46.15639;"01° 10' 42.00'' Ouest, 46° 09' 23.00'' Nord";"17300";;"R DU ROUERGUE 25 ALL MAL DE LATTRE DE TASSIGNY BÂT.25";"17000";"LA ROCHELLE";"Immeuble"; 39.0;"Société HLM"
646307;-1.13833;46.17333;"01° 08' 18.00'' Ouest, 46° 10' 24.00'' Nord";"17300";;"RUE DU MOULIN ROUGE VELODROME DELAUNEY";"17000";"LA ROCHELLE";"Pylône tubulaire"; 25.0;"ORANGE"
646309;-1.12944;46.15389;"01° 07' 46.00'' Ouest, 46° 09' 14.00'' Nord";"17300";"VILLENEUVE DES SALINES";"1 AV DU 14 JUILLET RÉSIDENCE LES SALINES:BAT 1";"17000";"LA ROCHELLE";"Immeuble"; 31.2;"Société HLM"
646687;-1.17083;46.16667;"01° 10' 15.00'' Ouest, 46° 09' 60.00'' Nord";"17300";;"1-3 R ALEXANDRE BRONGNIARD RÉSIDENCE LES GALLETS";"17000";"LA ROCHELLE";"Immeuble"; 32.9;"Copropriété, Syndic, SCI"
646690;-1.20611;46.15944;"01° 12' 22.00'' Ouest, 46° 09' 34.00'' Nord";"17300";"MÔLE D'ESCALE";"BD  WLADIMIR MORCH  GARE DE FRET SNCF / ZI  CHEF DE BAIE";"17000";"LA ROCHELLE";"Pylône autostable"; 24.0;"ORANGE"
646714;-1.12444;46.17167;"01° 07' 28.00'' Ouest, 46° 10' 18.00'' Nord";"17300";;"169 BLV ANDRÉ SAUTEL RÉSIDENCE BERRY";"17000";"LA ROCHELLE";"Immeuble"; 46.0;"Copropriété, Syndic, SCI"
647906;-0.68583;45.76944;"00° 41' 09.00'' Ouest, 45° 46' 10.00'' Nord";"17336";"MONGRÉ";"RN 137";"17810";"SAINT-GEORGES-DES-COTEAUX";"Château d'eau - réservoir"; 48.0;"Syndicat des eaux, Adduction"
650970;-0.67806;46.06667;"00° 40' 41.00'' Ouest, 46° 04' 00.00'' Nord";"17063";"LE GRAND QUARTIER";"D.939";"17700";"BREUIL-LA-REORTE";"Château d'eau - réservoir"; 19.0;"Syndicat des eaux, Adduction"
651860;-0.55111;46.03583;"00° 33' 04.00'' Ouest, 46° 02' 09.00'' Nord";"17213";"LOUBAT";"D.210E2";"17330";"LOZAY";"Château d'eau - réservoir"; 36.0;"Syndicat des eaux, Adduction"
651889;-0.69389;46.20833;"00° 41' 38.00'' Ouest, 46° 12' 30.00'' Nord";"17132";"LA MAISON NEUVE";"PRÈS D.262 PYLÔNE F.T.";"17170";"CRAMCHABAN";"Pylône autostable"; 51.0;"ORANGE Services Fixes"
652493;-0.53778;46.10583;"00° 32' 16.00'' Ouest, 46° 06' 21.00'' Nord";"17139";"LA CHENAIE DE LA BROUSSE";;"17330";"DOEUIL-SUR-LE-MIGNON";"Pylône autostable"; 30.0;"ORANGE"
652510;-0.93528;46.11694;"00° 56' 07.00'' Ouest, 46° 07' 01.00'' Nord";"17003";;"AV DES MARRONNIERS PRÈS TERRAIN DE SPORT CHÂTEAU D'EAU";"17290";"AIGREFEUILLE-D'AUNIS";"Château d'eau - réservoir"; 46.0;"Syndicat des eaux, Adduction"
653802;-0.84417;45.93306;"00° 50' 39.00'' Ouest, 45° 55' 59.00'' Nord";"17075";"LES RENAUDIÈRES";"D.267 DÉCHETTERIE";"17430";"CABARIOT";"Pylône autostable"; 34.0;"ORANGE Services Fixes"
654156;-0.75944;45.89944;"00° 45' 34.00'' Ouest, 45° 53' 58.00'' Nord";"17053";"LA GRANDE VIGNE";"CHÂTEAU D'EAU";"17430";"BORDS";"Château d'eau - réservoir"; 41.0;"Syndicat des eaux, Adduction"
654169;-0.70306;45.83861;"00° 42' 11.00'' Ouest, 45° 50' 19.00'' Nord";"17285";"LES COUMAILLAUDS";"R DES COUMAILLAUDS";"17350";"PORT-D'ENVAUX";"Château d'eau - réservoir"; 35.0;"Syndicat des eaux, Adduction"
654792;-0.99722;45.62694;"00° 59' 50.00'' Ouest, 45° 37' 37.00'' Nord";"17306";"BELMONT";"AV. LOUIS BOUCHET CHÂTEAU D'EAU DE BELMONT";"17200";"ROYAN";"Château d'eau - réservoir"; 59.0;"Syndicat des eaux, Adduction"
654811;-0.71583;45.96889;"00° 42' 57.00'' Ouest, 45° 58' 08.00'' Nord";"17448";"LES MOULINS";"R DU GRAND FIEF";"17380";"TONNAY-BOUTONNE";"Château d'eau - réservoir"; 25.0;"Syndicat des eaux, Adduction"
656122;-0.61500;45.51917;"00° 36' 54.00'' Ouest, 45° 31' 09.00'' Nord";"17379";"LE MAINE CHEVALIER";;"17800";"SAINT-PALAIS-DE-PHIOLIN";"Pylône autostable"; 44.0;"CELLNEX"
656130;-1.31278;45.93500;"01° 18' 46.00'' Ouest, 45° 56' 06.00'' Nord";"17385";"LES COLOMBIERS";"D.274 MOULIN DE L'AUBIER";"17310";"SAINT-PIERRE-D'OLERON";"Pylône autostable"; 56.0;"TDF"
656403;-0.98444;46.30167;"00° 59' 04.00'' Ouest, 46° 18' 06.00'' Nord";"17218";"JUCHE-COQ";"PLAISANCE RUE DU CHATEAU D'EAU";"17230";"MARANS";"Château d'eau - réservoir"; 45.0;"Syndicat des eaux, Adduction"
659581;-1.11944;46.13056;"01° 07' 10.00'' Ouest, 46° 07' 50.00'' Nord";"17028";"LE GALAPAGOS";"R PIERRE LOTTI";"17440";"AYTRE";"Immeuble"; 30.0;"Société HLM"
666804;-0.47417;45.59472;"00° 28' 27.00'' Ouest, 45° 35' 41.00'' Nord";"17145";"LES GRANDS BOIS";;"17800";"ECHEBRUNE";"Pylône autostable"; 33.1;"EDF ou GDF"
666806;-0.17389;45.23083;"00° 10' 26.00'' Ouest, 45° 13' 51.00'' Nord";"17241";"LA PIERRE FOLLE";;"17270";"MONTGUYON";"Pylône autostable"; 30.0;"EDF ou GDF"
667118;-0.65944;45.37056;"00° 39' 34.00'' Ouest, 45° 22' 14.00'' Nord";"17335";"LE FIEF DES PLANTES";"CHEZ GIRAUDEAU";"17150";"SAINT-GEORGES-DES-AGOUTS";"Château d'eau - réservoir"; 57.0;"Syndicat des eaux, Adduction"
667141;-0.53556;46.09222;"00° 32' 08.00'' Ouest, 46° 05' 32.00'' Nord";"17474";"LES PETITS BOIS";;"17330";"VILLENEUVE-LA-COMTESSE";"Pylône autostable"; 45.0;"TDF"
672576;-0.73944;46.11722;"00° 44' 22.00'' Ouest, 46° 07' 02.00'' Nord";"17434";"HAMEAU DE FRANCE";"R PABLO NÉRUDA";"17700";"SURGERES";"Château d'eau - réservoir"; 50.5;"Syndicat des eaux, Adduction"
675076;-1.31250;45.93528;"01° 18' 45.00'' Ouest, 45° 56' 07.00'' Nord";"17385";"LES COLOMBIERS";"RTE DE LA COTINIERE LE MOULIN D'AUBIER";"17310";"SAINT-PIERRE-D'OLERON";"Pylône autostable"; 35.0;"ORANGE Services Fixes"
679484;-0.78000;46.10944;"00° 46' 48.00'' Ouest, 46° 06' 34.00'' Nord";"17434";"LE FIEF BARABIN";"D.939 PYLÔNE FT";"17700";"SURGERES";"Pylône haubané"; 50.0;"ORANGE Services Fixes"
681525;-0.51972;45.94556;"00° 31' 11.00'' Ouest, 45° 56' 44.00'' Nord";"17347";;"5 R DE LA PORTE DE NIORT CENTRAL FT";"17400";"SAINT-JEAN-D'ANGELY";"Bâtiment"; 17.0;"ORANGE Services Fixes"
682646;-1.08833;46.30528;"01° 05' 18.00'' Ouest, 46° 18' 19.00'' Nord";"17091";"BAS BIZET";;"17230";"CHARRON";"Château d'eau - réservoir"; 26.0;"Syndicat des eaux, Adduction"
686174;-0.97167;46.11361;"00° 58' 18.00'' Ouest, 46° 06' 49.00'' Nord";"17003";;"ZI DES GRANDS CHAMPS";"17290";"AIGREFEUILLE-D'AUNIS";"Château d'eau - réservoir"; 50.8;"Syndicat des eaux, Adduction"
688896;-0.74556;46.11056;"00° 44' 44.00'' Ouest, 46° 06' 38.00'' Nord";"17434";;"R RONSARD STADE MUNICIPAL";"17700";"SURGERES";"Pylône tubulaire"; 32.0;"ORANGE"
692907;-1.08806;45.98833;"01° 05' 17.00'' Ouest, 45° 59' 18.00'' Nord";"17168";;"R PAUL BÉHU TOUR DES ROSIERS";"17450";"FOURAS";"Bâtiment"; 33.0;"Société Privée SA"
693379;-1.10806;46.15889;"01° 06' 29.00'' Ouest, 46° 09' 32.00'' Nord";"17274";"ZI DE LA ROCHELLE-PÉRIGNY";"R RENÉ BARTHÉLÉMY";"17180";"PERIGNY";"Pylône autostable"; 50.0;"Société Privée SA"
699916;-0.75639;45.71278;"00° 45' 23.00'' Ouest, 45° 42' 46.00'' Nord";"17214";"CHEZ BOURREAU";"RD 216";"17600";"LUCHAT";"Pylône autostable"; 44.5;"TDF"
701616;-1.01000;45.61389;"01° 00' 36.00'' Ouest, 45° 36' 50.00'' Nord";"17306";;"75 AV. DU DR CHARCOT BD FRÉDÉRIC GARNIER RÉSIDENCE  LA GRANDE HUNE";"17200";"ROYAN";"Immeuble"; 39.0;"Copropriété, Syndic, SCI"
708314;-0.97222;45.94944;"00° 58' 20.00'' Ouest, 45° 56' 58.00'' Nord";"17299";;"13 R DU COMMANDANT L'HERMINIER";"17300";"ROCHEFORT";"Immeuble"; 26.0;"Société HLM"
712871;-0.99417;45.59917;"00° 59' 39.00'' Ouest, 45° 35' 57.00'' Nord";"17333";;"136 BD DE LA CÔTE";"17110";"SAINT-GEORGES-DE-DIDONNE";"Immeuble"; 31.0;"Société Privée SA"
713942;-1.22167;45.88139;"01° 13' 18.00'' Ouest, 45° 52' 53.00'' Nord";"17093";"LA BEAUCOURSIÈRE";"ATELIERS MUNICIPAUX";"17480";"LE CHATEAU-D'OLERON";"Bâtiment"; 30.0;"Commune, communauté de commune"
714223;-2.35333;46.15333;"02° 21' 12.00'' Ouest, 46° 09' 12.00'' Nord";"17300";"BOUÉE ROCHEBONNE SUD EST";;"17000";"LA ROCHELLE";"Balise ou bouée"; 11.0;"Phares et balises"
714225;-1.70806;46.09222;"01° 42' 29.00'' Ouest, 46° 05' 32.00'' Nord";"17300";"BOUEE PERTHUIS ANTIOCHE";;"17000";"LA ROCHELLE";"Balise ou bouée"; 5.0;"Phares et balises"
721797;-0.95250;45.86056;"00° 57' 09.00'' Ouest, 45° 51' 38.00'' Nord";"17308";"FIEF DES FONTAINES";"RD 239";"17620";"SAINT-AGNANT";"Pylône tubulaire"; 43.5;"Société Privée SA"
724793;-0.49000;45.97111;"00° 29' 24.00'' Ouest, 45° 58' 16.00'' Nord";"17013";"LE CHAGNAUDET";;"17400";"ANTEZANT-LA-CHAPELLE";"Pylône autostable"; 28.0;"Société Privée SA"
725366;-0.66417;45.75333;"00° 39' 51.00'' Ouest, 45° 45' 12.00'' Nord";"17415";"LA RANÇONNERIE";"PÉAGES - SORTIE N°35 - STES";"17100";"SAINTES";"Pylône autostable"; 30.0;"Sociétés d'Autoroutes"
725903;-0.57250;45.79917;"00° 34' 21.00'' Ouest, 45° 47' 57.00'' Nord";"17143";"LE GRAND GENET";"RD 129";"17100";"LE DOUHET";"Château d'eau - réservoir"; 57.0;"Syndicat des eaux, Adduction"
726882;-0.64750;45.83417;"00° 38' 51.00'' Ouest, 45° 50' 03.00'' Nord";"17436";;"LA MAIRIE";"17350";"TAILLEBOURG";"Pylône haubané"; 25.0;"TDF"
726889;-0.54778;45.57833;"00° 32' 52.00'' Ouest, 45° 34' 42.00'' Nord";"17283";;"CHÂTEAU";"17800";"PONS";"Pylône haubané"; 42.0;"TDF"
726953;-0.98028;45.57944;"00° 58' 49.00'' Ouest, 45° 34' 46.00'' Nord";"17333";;"LE TRIE TETU SUZAC";"17110";"SAINT-GEORGES-DE-DIDONNE";"Pylône autostable"; 46.0;"TDF"
731071;-0.63917;45.72528;"00° 38' 21.00'' Ouest, 45° 43' 31.00'' Nord";"17415";;"CHEM D'ARTENAC";"17100";"SAINTES";"Pylône haubané"; 20.0;"DDE"
731164;-0.27222;45.23861;"00° 16' 20.00'' Ouest, 45° 14' 19.00'' Nord";"17243";"LES SABLES";"MILAN";"17210";"MONTLIEU-LA-GARDE";"Pylône autostable"; 20.0;"DDE"
731587;-0.49472;45.33417;"00° 29' 41.00'' Ouest, 45° 20' 03.00'' Nord";"17129";"BELLEVUE";;"17130";"COURPIGNAC";"Château d'eau - réservoir"; 44.0;"Syndicat des eaux, Adduction"
731621;-1.38028;46.02833;"01° 22' 49.00'' Ouest, 46° 01' 42.00'' Nord";"17323";"LA CASSARDE";"R MARC PATOIZEAU";"17650";"SAINT-DENIS-D'OLERON";"Pylône autostable"; 35.0;"ORANGE Services Fixes"
732232;-1.33667;45.95083;"01° 20' 12.00'' Ouest, 45° 57' 03.00'' Nord";"17385";"PIECE DU VIEUX ST GILLES";;"17310";"SAINT-PIERRE-D'OLERON";"Pylône autostable"; 30.0;"ORANGE"
738245;-0.80722;45.57306;"00° 48' 26.00'' Ouest, 45° 34' 23.00'' Nord";"17131";"FIEF DE LA SABLIÈRE";"CHEM RURAL N°11 CHEZ JEAN GRAND";"17120";"COZES";"Pylône autostable"; 49.3;"TDF"
740619;-0.64139;45.74361;"00° 38' 29.00'' Ouest, 45° 44' 37.00'' Nord";"17415";;"PL DE L'EGLISE";"17100";"SAINTES";"Monument religieux"; 39.0;"Société Privée SA"
740625;-0.61000;45.74944;"00° 36' 36.00'' Ouest, 45° 44' 58.00'' Nord";"17415";;"31, R CORMIER MAISON DES ASSOCIATIONS";"17100";"SAINTES";"Immeuble"; 45.0;"Société Privée SA"
740695;-0.44750;45.44083;"00° 26' 51.00'' Ouest, 45° 26' 27.00'' Nord";"17197";;"40 AV KENNEDY CENTRE TECHNIQUE MUNICIPAL";"17500";"JONZAC";"Bâtiment"; 6.0;"Commune, communauté de commune"
741295;-1.02139;45.91972;"01° 01' 17.00'' Ouest, 45° 55' 11.00'' Nord";"17429";"LE CHEM VERT";"VC  DITE DU BEC À LIÈVRE ZI DU CHEM VERT";"17780";"SOUBISE";"Pylône autostable"; 26.0;"ORANGE"
741483;-1.03000;45.64111;"01° 01' 48.00'' Ouest, 45° 38' 28.00'' Nord";"17306";"LE MAINE ARNAUD";"R DES PERDRIX";"17200";"ROYAN";"Pylône autostable"; 82.0;"TDF"
742523;-0.41944;45.34972;"00° 25' 10.00'' Ouest, 45° 20' 59.00'' Nord";"17454";"LE TAILDIS";"CHEM RURAL DE CHEZ LES GENS AU BOURG";"17130";"TUGERAS-SAINT-MAURICE";"Pylône autostable"; 32.0;"ORANGE"
745844;-0.36167;46.04306;"00° 21' 42.00'' Ouest, 46° 02' 35.00'' Nord";"17024";"MALATRAIT CHANTOISEAU";"CHÂTEAU D'EAU";"17470";"AULNAY";"Château d'eau - réservoir"; 21.0;"Syndicat des eaux, Adduction"
746776;-0.68361;45.74583;"00° 41' 01.00'' Ouest, 45° 44' 45.00'' Nord";"17415";"LES SIGNAUX";"ROUTE DE ROYAN";"17100";"SAINTES";"Pylône autostable"; 51.0;"ORANGE Services Fixes"
750265;-0.66472;45.74889;"00° 39' 53.00'' Ouest, 45° 44' 56.00'' Nord";"17415";;"COURS GENÊT Z.I. L'ORMEAU DE PIED D.317";"17100";"SAINTES";"Château d'eau - réservoir"; 39.0;"Syndicat des eaux, Adduction"
752706;-0.74000;46.01389;"00° 44' 24.00'' Ouest, 46° 00' 50.00'' Nord";"17321";"LA PELLETRIE";"D.114 - CHEM DE LANDE";"17380";"SAINT-CREPIN";"Château d'eau - réservoir"; 41.0;"Syndicat des eaux, Adduction"
752906;-0.39500;45.38750;"00° 23' 42.00'' Ouest, 45° 23' 15.00'' Nord";"17163";"LE VIEUX FIEF - CHATEAU D'EAU";;"17500";"FONTAINES-D'OZILLAC";"Château d'eau - réservoir"; 42.0;"Syndicat des eaux, Adduction"
752910;-0.87611;45.74611;"00° 52' 34.00'' Ouest, 45° 44' 46.00'' Nord";"17255";;"ROUTE DES BOUTODIÈRES";"17600";"NANCRAS";"Pylône autostable"; 37.0;"Commune, communauté de commune"
752966;-0.43139;45.76750;"00° 25' 53.00'' Ouest, 45° 46' 03.00'' Nord";"17072";"LA FORÊT";"RTE DU CHÂTEAU D'EAU MONTPLAISIR";"17770";"BURIE";"Château d'eau - réservoir"; 30.0;"Commune, communauté de commune"
763277;-0.40083;45.28667;"00° 24' 03.00'' Ouest, 45° 17' 12.00'' Nord";"17240";;"R DE LA CITÉ FRANCOIS RÉSIDENCE FRANÇOIS";"17130";"MONTENDRE";"Immeuble"; 29.0;"Copropriété, Syndic, SCI"
764775;-0.23389;45.30583;"00° 14' 02.00'' Ouest, 45° 18' 21.00'' Nord";"17104";"CHEZ BOULETREAU";"R DU FIEF DUSSAULT";"17210";"CHEVANCEAUX";"Château d'eau - réservoir"; 23.0;"Syndicat des eaux, Adduction"
765948;-1.32278;46.15694;"01° 19' 22.00'' Ouest, 46° 09' 25.00'' Nord";"17360";;"HAUT DE LA FERLANDIÈRE";"17740";"SAINTE-MARIE-DE-RE";"Pylône autostable"; 25.5;"ORANGE"
765950;-0.79917;45.69528;"00° 47' 57.00'' Ouest, 45° 41' 43.00'' Nord";"17278";"MONCHAMP - BOIS JOLY";"CHEM RURAL - V.C N°6 LIGNE SNCF";"17600";"PISANY";"Pylône tubulaire"; 24.0;"ORANGE"
765956;-0.83222;45.52056;"00° 49' 56.00'' Ouest, 45° 31' 14.00'' Nord";"17098";"LA COMBE DE GRATTECHAT";"CHÂTEAU D'EAU";"17120";"CHENAC-SAINT-SEURIN-D'UZET";"Château d'eau - réservoir"; 48.0;"Syndicat des eaux, Adduction"
765989;-1.35528;46.19444;"01° 21' 19.00'' Ouest, 46° 11' 40.00'' Nord";"17369";;"AV. PHILIPPSBURG STADE MUNICIPAL";"17410";"SAINT-MARTIN-DE-RE";"Pylône tubulaire"; 31.0;"ORANGE"
765998;-0.61750;45.74972;"00° 37' 03.00'' Ouest, 45° 44' 59.00'' Nord";"17415";;"AV DE LA GARE";"17100";"SAINTES";"Pylône autostable"; 34.0;"SNCF Réseau"
766000;-1.31750;45.91667;"01° 19' 03.00'' Ouest, 45° 54' 60.00'' Nord";"17385";;"CHEM DU DOUHET DE MATHA";"17310";"SAINT-PIERRE-D'OLERON";"Pylône tubulaire"; 24.0;"ORANGE"
766002;-0.19389;45.12861;"00° 11' 38.00'' Ouest, 45° 07' 43.00'' Nord";"17077";"PICPOT";;"17270";"CERCOUX";"Château d'eau - réservoir"; 52.5;"Syndicat des eaux, Adduction"
766004;-0.24750;45.17056;"00° 14' 51.00'' Ouest, 45° 10' 14.00'' Nord";"17110";"LE CANTON  DES FOURCHETTES";;"17270";"CLERAC";"Pylône autostable"; 30.0;"Conseil Départemental"
766006;-0.11722;45.13694;"00° 07' 02.00'' Ouest, 45° 08' 13.00'' Nord";"17366";"LES NAUSETTES";"PYLONE PRÉS D180";"17360";"SAINT-MARTIN-DE-COUX";"Pylône autostable"; 37.0;"Conseil Départemental"
766009;-0.66306;45.56972;"00° 39' 47.00'' Ouest, 45° 34' 11.00'' Nord";"17172";"LES PARPAILLONS";;"17260";"GEMOZAC";"Château d'eau - réservoir"; 37.0;"Syndicat des eaux, Adduction"
766011;-0.40667;46.06500;"00° 24' 24.00'' Ouest, 46° 03' 54.00'' Nord";"17138";"LE FIEF NEUF";"CHATEAU NEUF";"17470";"DAMPIERRE-SUR-BOUTONNE";"Château d'eau - réservoir"; 36.0;"Conseil Départemental"
766014;-1.23806;45.85944;"01° 14' 17.00'' Ouest, 45° 51' 34.00'' Nord";"17485";"MIE";"ALLÉE DE LA MIMOSERAIE";"17370";"LE GRAND-VILLAGE-PLAGE";"Pylône tubulaire"; 25.0;"ORANGE"
766020;-0.61972;46.12472;"00° 37' 11.00'' Ouest, 46° 07' 29.00'' Nord";"17221";"LA PIE VERTE";;"17700";"MARSAIS";"Pylône autostable"; 32.0;"Conseil Départemental"
766022;-0.99944;45.60528;"00° 59' 58.00'' Ouest, 45° 36' 19.00'' Nord";"17333";;"2 R DU DR MAUDET STADE COLETTE BESSON";"17110";"SAINT-GEORGES-DE-DIDONNE";"Pylône tubulaire"; 26.0;"ORANGE"
766025;-1.02500;45.62472;"01° 01' 30.00'' Ouest, 45° 37' 29.00'' Nord";"17306";;"BD  DE LA RÉPUBLIQUE LA POSTE";"17200";"ROYAN";"Immeuble"; 22.0;"La Poste"
766027;-1.12389;45.74139;"01° 07' 26.00'' Ouest, 45° 44' 29.00'' Nord";"17021";"LES PIERAILLES";"R DU CHATEAU D EAU";"17530";"ARVERT";"Château d'eau - réservoir"; 50.0;"Syndicat des eaux, Adduction"
766029;-0.48500;45.52139;"00° 29' 06.00'' Ouest, 45° 31' 17.00'' Nord";"17220";"LES MOTARDS";"D 249";"17800";"MARIGNAC";"Pylône autostable"; 30.0;"Conseil Départemental"
766031;-1.03722;45.63417;"01° 02' 14.00'' Ouest, 45° 38' 03.00'' Nord";"17306";;"15 BD  DE LA PERCHE";"17200";"ROYAN";"Bâtiment"; 20.0;"Société Privée SA"
766037;-0.94806;45.95028;"00° 56' 53.00'' Ouest, 45° 57' 01.00'' Nord";"17299";;"1, AV DE LA LIBÉRATION";"17300";"ROCHEFORT";"Immeuble"; 23.0;"Société HLM"
766040;-1.00806;45.60278;"01° 00' 29.00'' Ouest, 45° 36' 10.00'' Nord";"17333";;"IMP DE LA CRÈTE  CHÂTEAU D'EAU  LA VALLIÈRE";"17110";"SAINT-GEORGES-DE-DIDONNE";"Château d'eau - réservoir"; 31.0;"Commune, communauté de commune"
766045;-1.35806;46.02000;"01° 21' 29.00'' Ouest, 46° 01' 12.00'' Nord";"17486";"LE PERTUIS D'ANTIOCHE";"RTE DES PROIRES";"17840";"LA BREE-LES-BAINS";"Pylône tubulaire"; 25.0;"ORANGE"
766047;-0.98167;45.93750;"00° 58' 54.00'' Ouest, 45° 56' 15.00'' Nord";"17299";;"R DES FRÈRES JAMAIN STADE LES AUBRAIES";"17300";"ROCHEFORT";"Pylône autostable"; 27.0;"SFR"
766053;-0.61389;45.73333;"00° 36' 50.00'' Ouest, 45° 44' 00.00'' Nord";"17415";"LE GRAND COUDRET";"RTE RN 141 PARKING COMPLEXE SPORTIF";"17100";"SAINTES";"Pylône tubulaire"; 25.0;"ORANGE"
766055;-0.43639;45.70028;"00° 26' 11.00'' Ouest, 45° 42' 01.00'' Nord";"17100";;"RTE DE MARTRET STADE MUNICIPAL";"17610";"CHERAC";"Pylône autostable"; 30.0;"ORANGE"
766057;-1.32972;46.18028;"01° 19' 47.00'' Ouest, 46° 10' 49.00'' Nord";"17161";;"RTE DE LA NOUE STADE MUNICIPAL";"17630";"LA FLOTTE";"Pylône tubulaire"; 25.0;"ORANGE"
766059;-0.97194;45.95528;"00° 58' 19.00'' Ouest, 45° 57' 19.00'' Nord";"17299";;"9, R DE LA CASSE AUX PRÊTRES";"17300";"ROCHEFORT";"Immeuble"; 24.0;"Société HLM"
766061;-0.90722;45.94472;"00° 54' 26.00'' Ouest, 45° 56' 41.00'' Nord";"17449";"ARCHIAC";"STADE MUNICIPAL";"17430";"TONNAY-CHARENTE";"Pylône tubulaire"; 25.0;"ORANGE"
766063;-1.50056;46.25167;"01° 30' 02.00'' Ouest, 46° 15' 06.00'' Nord";"17286";;"R DES PEUPLIERS";"17880";"LES PORTES-EN-RE";"Pylône tubulaire"; 13.0;"ORANGE Services Fixes"
766065;-1.40611;46.18667;"01° 24' 22.00'' Ouest, 46° 11' 12.00'' Nord";"17051";;"CHEM DU PEU BERNARD";"17580";"LE BOIS-PLAGE-EN-RE";"Pylône tubulaire"; 20.0;"ORANGE"
766067;-0.97972;45.94194;"00° 58' 47.00'' Ouest, 45° 56' 31.00'' Nord";"17299";;"23 R FRANCIS POULENC";"17300";"ROCHEFORT";"Immeuble"; 18.0;"Copropriété, Syndic, SCI"
766072;-0.60028;45.74806;"00° 36' 01.00'' Ouest, 45° 44' 53.00'' Nord";"17415";;"CHEM DE BEAULIEU";"17100";"SAINTES";"Château d'eau - réservoir"; 56.0;"Commune, communauté de commune"
766079;-1.20472;45.88861;"01° 12' 17.00'' Ouest, 45° 53' 19.00'' Nord";"17093";"LE QUATORZIN";"STADE, PIÈCES DE QUATORZIN";"17480";"LE CHATEAU-D'OLERON";"Pylône tubulaire"; 22.0;"ORANGE"
766081;-0.57806;45.91611;"00° 34' 41.00'' Ouest, 45° 54' 58.00'' Nord";"17226";;"CHEZ CAILLON";"17400";"MAZERAY";"Pylône autostable"; 45.0;"SFR"
766088;-1.10444;45.82250;"01° 06' 16.00'' Ouest, 45° 49' 21.00'' Nord";"17219";;"PL DE VERDUN";"17320";"MARENNES";"Pylône autostable"; 43.0;"ORANGE Services Fixes"
766090;-0.59333;45.61694;"00° 35' 36.00'' Ouest, 45° 37' 01.00'' Nord";"17354";"LE BUISSON";;"17800";"SAINT-LEGER";"Château d'eau - réservoir"; 52.0;"Syndicat des eaux, Adduction"
766555;-1.17528;45.72556;"01° 10' 31.00'' Ouest, 45° 43' 32.00'' Nord";"17225";"LA FOUASSE";"D 141";"17570";"LES MATHES";"Pylône tubulaire"; 12.0;"ORANGE"
767401;-1.03889;45.62194;"01° 02' 20.00'' Ouest, 45° 37' 19.00'' Nord";"17306";;"61 AV DE PONTAILLAC";"17200";"ROYAN";"Bâtiment"; 13.0;"Particulier"
767751;-1.38333;45.97250;"01° 23' 00.00'' Ouest, 45° 58' 21.00'' Nord";"17337";"LE CLUSEAU CALIN";"301 R DE L'OCEAN DOMINO CENTRE DE VACANCES";"17190";"SAINT-GEORGES-D'OLERON";"Pylône tubulaire"; 24.0;"ORANGE"
770767;-0.29861;45.88028;"00° 17' 55.00'' Ouest, 45° 52' 49.00'' Nord";"17224";"LES PERRIÈRES DE MARESTAY";;"17160";"MATHA";"Château d'eau - réservoir"; 48.0;"Syndicat des eaux, Adduction"
774414;-0.17333;45.94611;"00° 10' 24.00'' Ouest, 45° 56' 46.00'' Nord";"17162";"LA PIERRIÈRE";;"17510";"FONTAINE-CHALENDRAY";"Pylône haubané"; 34.0;"EDF ou GDF"
774441;-0.57139;45.74083;"00° 34' 17.00'' Ouest, 45° 44' 27.00'' Nord";"17086";"LE MAINE MONDAIN";;"17610";"CHANIERS";"Château d'eau - réservoir"; 50.0;"Syndicat des eaux, Adduction"
776224;-1.02556;45.63389;"01° 01' 32.00'' Ouest, 45° 38' 02.00'' Nord";"17306";;"56, R DU CLOUZIT";"17200";"ROYAN";"Château d'eau - réservoir"; 42.5;"Etat, Ministère"
776237;-0.96083;45.63611;"00° 57' 39.00'' Ouest, 45° 38' 10.00'' Nord";"17228";;"59 R DES SPORTS";"17600";"MEDIS";"Pylône autostable"; 35.0;"ORANGE"
783109;-0.61472;45.51250;"00° 36' 53.00'' Ouest, 45° 30' 45.00'' Nord";"17379";;"AIRE DE REPOS DE ST-PALAIS-DE-PHIOLIN A.10 - PK 467.60 - SENS PARIS/PROVINCE EMPRISES ASF";"17800";"SAINT-PALAIS-DE-PHIOLIN";"Pylône autostable"; 45.0;"Sociétés d'Autoroutes"
789144;-0.53583;46.04139;"00° 32' 09.00'' Ouest, 46° 02' 29.00'' Nord";"17213";"DERRIÈRE LE FIEF";"PK 404 - A 10";"17330";"LOZAY";"Pylône autostable"; 54.0;"SFR"
798392;-0.78944;45.68000;"00° 47' 22.00'' Ouest, 45° 40' 48.00'' Nord";"17445";"ENCLOUSE CANTIN";"ROUTE DE CHEZ CANTIN";"17600";"THEZAC";"Pylône autostable"; 28.0;"Société Privée SA"
798443;-0.32306;45.31083;"00° 19' 23.00'' Ouest, 45° 18' 39.00'' Nord";"17433";"BOIS DE PEUGEAY";;"17130";"SOUSMOULINS";"Pylône autostable"; 33.0;"Société Privée SA"
798485;-0.05056;45.12556;"00° 03' 02.00'' Ouest, 45° 07' 32.00'' Nord";"17033";"LE PETIT POMMIER";;"17360";"LA BARDE";"Pylône autostable"; 25.3;"Société Privée SA"
810631;-0.31278;45.35028;"00° 18' 46.00'' Ouest, 45° 21' 01.00'' Nord";"17231";"LE CANTON";;"17130";"MESSAC";"Pylône autostable"; 31.0;"Société Privée SA"
844459;-1.34861;46.17556;"01° 20' 55.00'' Ouest, 46° 10' 32.00'' Nord";"17161";"LES FALIMOREAUX";"LES EVIERES";"17630";"LA FLOTTE";"Château d'eau - réservoir"; 38.0;"Syndicat des eaux, Adduction"
846410;-0.92611;45.94889;"00° 55' 34.00'' Ouest, 45° 56' 56.00'' Nord";"17449";;"R DU JET D'EAU CHÂTEAU D'EAU DE LA COUDRE";"17430";"TONNAY-CHARENTE";"Château d'eau - réservoir"; 45.0;"Syndicat des eaux, Adduction"
846613;-1.25361;45.91278;"01° 15' 13.00'' Ouest, 45° 54' 46.00'' Nord";"17140";"FIEF DE LA CAILLETIÈRE";"PRÈS TERRAIN DE SPORT";"17550";"DOLUS-D'OLERON";"Pylône autostable"; 30.0;"SFR"
847735;-0.79944;45.47556;"00° 47' 58.00'' Ouest, 45° 28' 32.00'' Nord";"17248";"LA RIVE";"LE PORT ATELIER MUNICIPAL";"17120";"MORTAGNE-SUR-GIRONDE";"Pylône tubulaire"; 18.0;"ORANGE"
853711;-1.03222;46.10917;"01° 01' 56.00'' Ouest, 46° 06' 33.00'' Nord";"17420";"LE FIEF DES PAUVRES";;"17220";"SALLES-SUR-MER";"Pylône tubulaire"; 25.0;"SFR"
855459;-0.62472;45.87333;"00° 37' 29.00'' Ouest, 45° 52' 24.00'' Nord";"17181";"LE GRAND ESSERT";"BOIS DES GUÉRINS";"17350";"GRANDJEAN";"Pylône autostable"; 30.0;"Sociétés d'Autoroutes"
856018;-0.29111;45.95833;"00° 17' 28.00'' Ouest, 45° 57' 30.00'' Nord";"17206";"LE GRAND FIEF";"D 222";"17470";"LOIRE-SUR-NIE";"Pylône autostable"; 32.3;"BOUYGUES"
858343;-0.59556;45.57389;"00° 35' 44.00'' Ouest, 45° 34' 26.00'' Nord";"17283";"BONERME";"ÉCHANGEUR DE PONS - A10/D732 PYLONE COFIROUTE";"17800";"PONS";"Pylône autostable"; 40.0;"Sociétés d'Autoroutes"
869932;-1.50083;46.25139;"01° 30' 03.00'' Ouest, 46° 15' 05.00'' Nord";"17286";;"ALLEES DES PEUPLIERS";"17880";"LES PORTES-EN-RE";"pylône arbre"; 25.5;"Société Privée SA"
875274;-0.78361;45.48639;"00° 47' 01.00'' Ouest, 45° 29' 11.00'' Nord";"17248";;"RUE DE L'ANCIEN CHÂTEAU D'EAU";"17120";"MORTAGNE-SUR-GIRONDE";"Château d'eau - réservoir"; 25.9;"Commune, communauté de commune"
876015;-1.20639;46.15389;"01° 12' 23.00'' Ouest, 46° 09' 14.00'' Nord";"17300";;"R NICOLAS APPERT SILO SOCOMAC ZI CHEF DE BAIE";"17000";"LA ROCHELLE";"Silo"; 6.0;"Société Privée SA"
876037;-1.11111;46.17806;"01° 06' 40.00'' Ouest, 46° 10' 41.00'' Nord";"17291";;"R DU TREUIL GRAS ZAC DE BEAULIEU";"17138";"PUILBOREAU";"Bâtiment"; 19.0;"Société Privée SA"
876045;-1.36889;46.20333;"01° 22' 08.00'' Ouest, 46° 12' 12.00'' Nord";"17369";;"PL DE LA REPUBLIQUE";"17410";"SAINT-MARTIN-DE-RE";"Bâtiment"; 11.0;"Commune, communauté de commune"
876047;-1.21667;45.81944;"01° 13' 00.00'' Ouest, 45° 49' 10.00'' Nord";"17411";;"AV DU DEBARQUEMENT";"17370";"SAINT-TROJAN-LES-BAINS";"Bâtiment"; 23.0;"Société Privée SA"
876257;-1.18028;46.16028;"01° 10' 49.00'' Ouest, 46° 09' 37.00'' Nord";"17300";;"27 R DE L ARTOIS PORT NEUF";"17000";"LA ROCHELLE";"Immeuble"; 45.0;"Société HLM"
877139;-0.99333;46.30861;"00° 59' 36.00'' Ouest, 46° 18' 31.00'' Nord";"17218";;"15 PL ERNEST COGNACQ ECOLE";"17230";"MARANS";"Bâtiment"; 23.0;"Commune, communauté de commune"
880093;-1.02889;45.63611;"01° 01' 44.00'' Ouest, 45° 38' 10.00'' Nord";"17306";;"AV DANIEL HEDDE RES JACQUES";"17200";"ROYAN";"Immeuble"; 36.0;"Société HLM"
882525;-0.80278;45.64889;"00° 48' 10.00'' Ouest, 45° 38' 56.00'' Nord";"17232";"L'ENCLOS";;"17120";"MEURSAC";"Pylône tubulaire"; 30.0;"ORANGE"
887785;-0.17611;45.91722;"00° 10' 34.00'' Ouest, 45° 55' 02.00'' Nord";"17035";"POUSSET";"D 13";"17490";"BAZAUGES";"Château d'eau - réservoir"; 23.0;"Syndicat des eaux, Adduction"
888641;-0.52889;45.96389;"00° 31' 44.00'' Ouest, 45° 57' 50.00'' Nord";"17347";"FONTORBE";;"17300";"SAINT-JEAN-D'ANGELY";"Mât béton"; 10.0;"Société Privée SA"
888643;-0.57056;45.92639;"00° 34' 14.00'' Ouest, 45° 55' 35.00'' Nord";"17226";"R DE POURSAY";;"17400";"MAZERAY";"Pylône autostable"; 12.0;"Société Privée SA"
897624;-0.77444;45.64083;"00° 46' 28.00'' Ouest, 45° 38' 27.00'' Nord";"17244";"LA COMBE A VIGNAUD";"LIEU-DIT LA COMBE A VIGNAUD";"17260";"MONTPELLIER-DE-MEDILLAN";"Silo"; 18.0;"Coopérative Agricole, Vinicole"
899900;-1.21528;46.16111;"01° 12' 55.00'' Ouest, 46° 09' 40.00'' Nord";"17300";;"100 BD EMILE DELMAS LA PALLICE";"17000";"LA ROCHELLE";"Bâtiment"; 20.0;"Société Privée SA"
903902;-0.50611;45.31611;"00° 30' 22.00'' Ouest, 45° 18' 58.00'' Nord";"17129";;"PETIT CHAMP LE TERRIER DES MOULINS DE COURPIGNAC";"17130";"COURPIGNAC";"Pylône autostable"; 95.0;"Sociétés d'Autoroutes"
904758;-0.37500;45.32306;"00° 22' 30.00'' Ouest, 45° 19' 23.00'' Nord";"17156";;"D 255 LES BOUYERS CHATEAU D'EAU";"17130";"EXPIREMONT";"Château d'eau - réservoir"; 40.0;"Syndicat des eaux, Adduction"
904772;-0.68361;45.74917;"00° 41' 01.00'' Ouest, 45° 44' 57.00'' Nord";"17336";;"LA GRANGE DE BELLEGARDE ZER DE STES";"17810";"SAINT-GEORGES-DES-COTEAUX";"Pylône autostable"; 95.0;"Sociétés d'Autoroutes"
932802;-0.49889;45.89861;"00° 29' 56.00'' Ouest, 45° 53' 55.00'' Nord";"17022";;"CHEMIN DES MEUNIERS FIEF DU SIX RD 120";"17400";"ASNIERES-LA-GIRAUD";"Pylône autostable"; 49.0;"Gendarmerie"
935294;-0.63361;45.75361;"00° 38' 01.00'' Ouest, 45° 45' 13.00'' Nord";"17415";;"52 R DANIEL MASSIOU ATELIERS MUNICIPAUX";"17100";"SAINTES";"Bâtiment"; 24.0;"Commune, communauté de commune"
937781;-0.74444;45.62278;"00° 44' 40.00'' Ouest, 45° 37' 22.00'' Nord";"17244";"LES TERRES FROIDES";"RD139 CHEM CHEZ CHAUVIN";"17260";"MONTPELLIER-DE-MEDILLAN";"Château d'eau - réservoir"; 51.0;"Syndicat des eaux, Adduction"
938389;-0.46556;45.59528;"00° 27' 56.00'' Ouest, 45° 35' 43.00'' Nord";"17145";"LE PETIT BOIS";"R DU CHATEAU D'EAU";"17800";"ECHEBRUNE";"Château d'eau - réservoir"; 22.0;"Syndicat des eaux, Adduction"
958884;-1.10417;46.14556;"01° 06' 15.00'' Ouest, 46° 08' 44.00'' Nord";"17028";"LE PRE CARRE";"CHATEAU D EAU";"17440";"AYTRE";"Château d'eau - réservoir"; 75.0;"Commune, communauté de commune"
966635;-1.10056;46.10833;"01° 06' 02.00'' Ouest, 46° 06' 30.00'' Nord";"17010";"LES FOURNEAUX";;"17690";"ANGOULINS";"Pylône tubulaire"; 32.0;"ORANGE"
977984;-1.20889;46.17139;"01° 12' 32.00'' Ouest, 46° 10' 17.00'' Nord";"17300";;"53 AV DE LA REPENTIE";"17000";"LA ROCHELLE";"Pylône autostable"; 30.0;"SFR"
995209;-0.66333;45.75306;"00° 39' 48.00'' Ouest, 45° 45' 11.00'' Nord";"17415";"LA RANÇONNERIE";"ZER SAINTES";"17100";"SAINTES";"Bâtiment"; 10.0;"Sociétés d'Autoroutes"
995655;-1.19778;46.16028;"01° 11' 52.00'' Ouest, 46° 09' 37.00'' Nord";"17300";;"400 AVENUE JEAN GUITON";"17000";"LA ROCHELLE";"Pylône tubulaire"; 35.0;"IFW-FREE"
1004227;-0.31444;45.86778;"00° 18' 52.00'' Ouest, 45° 52' 04.00'' Nord";"17224";;"9 RUE MARC JEANJEAN COOPÉRATIVE AGRICOLE";"17160";"MATHA";"Bâtiment"; 8.0;"Coopérative Agricole, Vinicole"
1018255;-0.96028;45.95194;"00° 57' 37.00'' Ouest, 45° 57' 07.00'' Nord";"17299";;"BD DU VERCORS";"17300";"ROCHEFORT";"Pylône autostable"; 23.0;"BOUYGUES"
1020418;-1.20694;45.72417;"01° 12' 25.00'' Ouest, 45° 43' 27.00'' Nord";"17452";;"TOUR DES BRISQUETTES";"17390";"LA TREMBLADE";"Pylône autostable"; 40.0;"Etat, Ministère"
1030196;-0.95722;46.29167;"00° 57' 26.00'' Ouest, 46° 17' 30.00'' Nord";"17218";"BELLEVUE";"AU PONT SAINT JEAN   D114";"17230";"MARANS";"Silo"; 18.0;"Société Privée SA"
1030198;-0.17806;45.95500;"00° 10' 41.00'' Ouest, 45° 57' 18.00'' Nord";"17162";;"D 133E LES GRANDES PLANTES";"17510";"FONTAINE-CHALENDRAY";"Silo"; 25.0;"Société Privée SA"
1030200;-0.78111;45.96139;"00° 46' 52.00'' Ouest, 45° 57' 41.00'' Nord";"17320";;"D 215 E1 LE MOULIN BOUINEAU";"17430";"SAINT-COUTANT-LE-GRAND";"Silo"; 25.0;"Société Privée SA"
1030202;-0.51694;45.85139;"00° 31' 01.00'' Ouest, 45° 51' 05.00'' Nord";"17344";;"D 230 LE CRIGNOLET";"17770";"SAINT-HILAIRE-DE-VILLEFRANCHE";"Silo"; 25.0;"Société Privée SA"
1030204;-0.50278;46.10083;"00° 30' 10.00'' Ouest, 46° 06' 03.00'' Nord";"17474";;"RUE DES FRESNAIES";"17330";"VILLENEUVE-LA-COMTESSE";"Silo"; 25.0;"Société Privée SA"
1044156;-0.20583;45.79972;"00° 12' 21.00'' Ouest, 45° 47' 59.00'' Nord";"17217";"BOUCHEREAU";"19A RUE DU CHÂTEAU BOUCHEREAU";"17490";"MACQUEVILLE";"Mât béton"; 12.0;"ORANGE Services Fixes"
1044264;-1.32556;46.15833;"01° 19' 32.00'' Ouest, 46° 09' 30.00'' Nord";"17360";"HAUT DES PEUX BERTAUD";"RUE DE LA VIERGE";"17740";"SAINTE-MARIE-DE-RE";"Pylône tubulaire"; 20.0;"SFR"
1044937;-0.00917;45.18361;"00° 00' 33.00'' Ouest, 45° 11' 01.00'' Nord";"17309";"LA CROIX DES HERVEUX";;"17360";"SAINT-AIGULIN";"Pylône autostable"; 25.0;"SNCF Réseau"
1055399;-1.41028;46.04667;"01° 24' 37.00'' Ouest, 46° 02' 48.00'' Nord";"17323";"PHARE DE CHASSIRON";"CHASSIRON";"17650";"SAINT-DENIS-D'OLERON";"Phare"; 48.0;"Phares et balises"
1084507;-0.27278;45.24361;"00° 16' 22.00'' Ouest, 45° 14' 37.00'' Nord";"17243";"VIGIE DE MONTLIEU";;"17210";"MONTLIEU-LA-GARDE";"Bâtiment"; 35.0;"Intérieur"
1107570;-1.31306;46.15556;"01° 18' 47.00'' Ouest, 46° 09' 20.00'' Nord";"17360";;"CHEMIN DES ROBERDES";"17740";"SAINTE-MARIE-DE-RE";"Pylône tubulaire"; 20.0;"ORANGE"
1137878;-0.96944;45.96583;"00° 58' 10.00'' Ouest, 45° 57' 57.00'' Nord";"17299";"BELIGON LES QUATRE ANES";"PRÈS D.116";"17300";"ROCHEFORT";"Pylône autostable"; 51.0;"TDF"
1137936;-0.68583;45.76944;"00° 41' 09.00'' Ouest, 45° 46' 10.00'' Nord";"17336";"MONGRÉ";"RN 137";"17810";"SAINT-GEORGES-DES-COTEAUX";"Château d'eau - réservoir"; 48.0;"Syndicat des eaux, Adduction"
1157300;-1.06333;45.63611;"01° 03' 48.00'' Ouest, 45° 38' 10.00'' Nord";"17461";;"FIEF DES HAUTES FOLIES 39 R DE L'OCÉAN";"17640";"VAUX-SUR-MER";"Château d'eau - réservoir"; 44.0;"Syndicat des eaux, Adduction"
1175401;-1.14917;46.15389;"01° 08' 57.00'' Ouest, 46° 09' 14.00'' Nord";"17300";;"AV DU 123E REGIMENT D INFANTERIE PARKING ST NICOLAS LE PORT";"17000";"LA ROCHELLE";"Pylône tubulaire"; 14.0;"Société Privée SA"
1188854;-0.98111;45.93694;"00° 58' 52.00'' Ouest, 45° 56' 13.00'' Nord";"17299";"STADE HENRI ROBIN";"RUE DES FRERES JAMAIN";"17300";"ROCHEFORT";"Pylône tubulaire"; 30.7;"IFW-FREE"
1214509;-0.65806;45.75417;"00° 39' 29.00'' Ouest, 45° 45' 15.00'' Nord";"17415";;"RD137 PR50.4 PANNEAU MESSAGE VARIABLE PMVA SAINTES NORD";"17100";"SAINTES";"Ouvrage de signalisation (portique routier, panneau routier, panneau publicitaire)"; 6.0;"Sociétés d'Autoroutes"
1214511;-0.66111;45.74889;"00° 39' 40.00'' Ouest, 45° 44' 56.00'' Nord";"17415";;"RD137 PR49.7 PANNEAU MESSAGE VARIABLE PMVA SAINTES SUD";"17100";"SAINTES";"Ouvrage de signalisation (portique routier, panneau routier, panneau publicitaire)"; 6.0;"Sociétés d'Autoroutes"
1237658;-1.14694;46.17028;"01° 08' 49.00'' Ouest, 46° 10' 13.00'' Nord";"17300";;"1 RUE MARIUS LACROIX";"17000";"LA ROCHELLE";"Bâtiment"; 6.0;"EDF ou GDF"
1238145;-0.61361;45.75167;"00° 36' 49.00'' Ouest, 45° 45' 06.00'' Nord";"17415";;"54 RUE DE LORMONT AGENCE";"17100";"SAINTES";"Bâtiment"; 20.0;"EDF ou GDF"
1238153;-0.61361;45.75194;"00° 36' 49.00'' Ouest, 45° 45' 07.00'' Nord";"17415";;"54 ROUTE DE LORMONT TCM";"17100";"SAINTES";"Bâtiment"; 7.0;"EDF ou GDF"
1238175;-1.14917;46.16639;"01° 08' 57.00'' Ouest, 46° 09' 59.00'' Nord";"17300";;"14 RUE MARCEL PAUL";"17000";"LA ROCHELLE";"Bâtiment"; 7.0;"EDF ou GDF"
1238182;-0.96500;45.94639;"00° 57' 54.00'' Ouest, 45° 56' 47.00'' Nord";"17299";;"5 RUE NICOLAS CHAUVIN AGENCE";"17300";"ROCHEFORT";"Bâtiment"; 6.0;"EDF ou GDF"
1239898;-1.14611;46.18583;"01° 08' 46.00'' Ouest, 46° 11' 09.00'' Nord";"17200";;"6 RUE AUGUSTE PERRET";"17140";"LAGORD";"Bâtiment"; 8.0;"EDF ou GDF"
1245784;-1.12417;45.82583;"01° 07' 27.00'' Ouest, 45° 49' 33.00'' Nord";"17219";;"4 RUE ANDRE DULIN";"17320";"MARENNES";"Bâtiment"; 8.0;"EDF ou GDF"
1245787;-0.78222;45.50639;"00° 46' 56.00'' Ouest, 45° 30' 23.00'' Nord";"17248";"CHARBONNIERE";"POSTE ELECTRIQUE";"17120";"MORTAGNE-SUR-GIRONDE";"Bâtiment"; 7.0;"EDF ou GDF"
1246181;-1.01528;45.62528;"01° 00' 55.00'' Ouest, 45° 37' 31.00'' Nord";"17306";;"16 RUE DE L'ELECTRICITE";"17200";"ROYAN";"Bâtiment"; 13.0;"EDF ou GDF"
1261916;-0.43861;45.43694;"00° 26' 19.00'' Ouest, 45° 26' 13.00'' Nord";"17197";;"4 AVENUE MAC CREA - FLETCHER";"17500";"JONZAC";"Bâtiment"; 10.0;"EDF ou GDF"
1263093;-0.98944;45.94917;"00° 59' 22.00'' Ouest, 45° 56' 57.00'' Nord";"17299";"PORT NEUF";"RUE PAIMPOL";"17300";"ROCHEFORT";"Bâtiment"; 9.0;"EDF ou GDF"
1263480;-1.15083;46.14861;"01° 09' 03.00'' Ouest, 46° 08' 55.00'' Nord";"17300";"LA SOLE";"AVENUE DU DOCTEUR DANIEL PLANE";"17000";"LA ROCHELLE";"Bâtiment"; 7.0;"EDF ou GDF"
1263482;-1.20667;46.16083;"01° 12' 24.00'' Ouest, 46° 09' 39.00'' Nord";"17300";"LE PLATEAU DE LA MARNE";"CHAUSSÉE DE LA CEINTURE EST";"17000";"LA ROCHELLE";"Bâtiment"; 5.0;"EDF ou GDF"
1273172;-0.96444;45.94694;"00° 57' 52.00'' Ouest, 45° 56' 49.00'' Nord";"17299";"CITE BREUIL";"BOULEVARD ARISTIDE BRIAND";"17300";"ROCHEFORT";"Bâtiment"; 15.0;"EDF ou GDF"
1274199;-0.70556;46.20250;"00° 42' 20.00'' Ouest, 46° 12' 09.00'' Nord";"17132";"LE MOINDREAU";;"17170";"CRAMCHABAN";"Mât"; 8.0;"EDF ou GDF"
1274201;-1.09167;46.13028;"01° 05' 30.00'' Ouest, 46° 07' 49.00'' Nord";"17028";"RONFLAC";"RUE LEVERRIER";"17440";"AYTRE";"Bâtiment"; 7.0;"EDF ou GDF"
1274204;-0.70583;46.20250;"00° 42' 21.00'' Ouest, 46° 12' 09.00'' Nord";"17132";"LE MOINDREAU";;"17170";"CRAMCHABAN";"Bâtiment"; 4.0;"EDF ou GDF"
1274206;-0.43972;45.43639;"00° 26' 23.00'' Ouest, 45° 26' 11.00'' Nord";"17197";"MIGNONNEAU";"CHEMIN MIGNONNEAU";"17500";"JONZAC";"Bâtiment"; 10.0;"EDF ou GDF"
1274982;-0.21806;45.20278;"00° 13' 05.00'' Ouest, 45° 12' 10.00'' Nord";"17269";"LA MOTTE";"LA MOTTE";"17210";"ORIGNOLLES";"Mât"; 8.0;"EDF ou GDF"
1274988;-0.39444;45.29500;"00° 23' 40.00'' Ouest, 45° 17' 42.00'' Nord";"17240";"LE PAS DU MILIEU";"RUE DE CHEZ MALLET";"17130";"MONTENDRE";"Pylône autostable"; 14.0;"EDF ou GDF"
1275055;-0.32722;45.87167;"00° 19' 38.00'' Ouest, 45° 52' 18.00'' Nord";"17048";"FIEF CONTEAU";"ROUTE DE SUCHET";"17160";"BLANZAC-LES-MATHA";"Mât"; 10.0;"EDF ou GDF"
1276652;-0.34667;46.03333;"00° 20' 48.00'' Ouest, 46° 01' 60.00'' Nord";"17024";"CHATEAU GAILLARD";"ROUTE DE POITIERS";"17470";"AULNAY";"Mât"; 8.0;"EDF ou GDF"
1276654;-1.14722;45.74972;"01° 08' 50.00'' Ouest, 45° 44' 59.00'' Nord";"17021";"DIRÉE";"LE MAINE GEAY RUE DU PETIT BOIS";"17530";"ARVERT";"Bâtiment"; 5.0;"EDF ou GDF"
1276813;-0.60583;45.67472;"00° 36' 21.00'' Ouest, 45° 40' 29.00'' Nord";"17289";"LA FONT";"D234E2";"17460";"PREGUILLAC";"Bâtiment"; 7.0;"EDF ou GDF"
1276815;-0.84722;45.82000;"00° 50' 50.00'' Ouest, 45° 49' 12.00'' Nord";"17284";"LES EGUILLETTES";"D 125";"17250";"PONT-L'ABBE-D'ARNOULT";"Bâtiment"; 6.0;"EDF ou GDF"
1276817;-0.70444;45.91750;"00° 42' 16.00'' Ouest, 45° 55' 03.00'' Nord";"17017";"SERPOLET";"BOIS ROND";"17380";"ARCHINGEAY";"Bâtiment"; 8.0;"EDF ou GDF"
1276819;-0.56306;45.57306;"00° 33' 47.00'' Ouest, 45° 34' 23.00'' Nord";"17283";"BOIS DE LA  GARENNE";"D732";"17800";"PONS";"Bâtiment"; 7.0;"EDF ou GDF"
1276821;-1.10250;46.16389;"01° 06' 09.00'' Ouest, 46° 09' 50.00'' Nord";"17274";"SAINT MARTIN";"RUE ARISTIDE BERGES";"17180";"PERIGNY";"Pylône autostable"; 25.0;"EDF ou GDF"
1276825;-0.62750;45.74000;"00° 37' 39.00'' Ouest, 45° 44' 24.00'' Nord";"17415";"PARAIRIE DE LA PALUE";"AVENUE DE SAINTONGE";"17100";"SAINTES";"Bâtiment"; 15.0;"EDF ou GDF"
1276827;-0.66611;45.75167;"00° 39' 58.00'' Ouest, 45° 45' 06.00'' Nord";"17415";"LE PINIER";"RUE DE LA ROUE";"17100";"SAINTES";"Bâtiment"; 7.0;"EDF ou GDF"
1276829;-0.61333;45.75139;"00° 36' 48.00'' Ouest, 45° 45' 05.00'' Nord";"17415";;"52 RUE DE LORMONT";"17100";"SAINTES";"Bâtiment"; 8.0;"EDF ou GDF"
1276831;-0.64306;45.71833;"00° 38' 35.00'' Ouest, 45° 43' 06.00'' Nord";"17415";"ZONE INDUSTRIELLE DES CHARRIER";"RUE DU MOULIN DE PABAN";"17100";"SAINTES";"Bâtiment"; 7.0;"EDF ou GDF"
1276833;-0.98611;46.29944;"00° 59' 10.00'' Ouest, 46° 17' 58.00'' Nord";"17218";"JOCHE COQ";"RUE DU CHÂTEAU D'EAU";"17230";"MARANS";"Bâtiment"; 7.0;"EDF ou GDF"
1276835;-1.12306;45.82611;"01° 07' 23.00'' Ouest, 45° 49' 34.00'' Nord";"17219";"GRAND FIEF DES CHAUMES";"CHEMIN DU FIEF DES CHAUMES";"17320";"MARENNES";"Bâtiment"; 5.0;"EDF ou GDF"
1277167;-0.94694;46.10111;"00° 56' 49.00'' Ouest, 46° 06' 04.00'' Nord";"17447";"FIEF GIRARD";"D113";"17290";"LE THOU";"Bâtiment"; 6.0;"EDF ou GDF"
1278002;-0.63667;45.74667;"00° 38' 12.00'' Ouest, 45° 44' 48.00'' Nord";"17415";;"3 RUE DU BASTION COMMISARIAT";"17100";"SAINTES";"Bâtiment"; 30.0;"Etat, Ministère"
1278288;-1.01917;45.62306;"01° 01' 09.00'' Ouest, 45° 37' 23.00'' Nord";"17306";"LE PARC";"AV MARECHAL LECLERC";"17200";"ROYAN";"Bâtiment"; 10.0;"EDF ou GDF"
1278292;-0.49361;45.77778;"00° 29' 37.00'' Ouest, 45° 46' 40.00'' Nord";"17313";"LE POTEAU";"LES CHAMPANAIS";"17770";"SAINT-BRIS-DES-BOIS";"Bâtiment"; 5.0;"EDF ou GDF"
1278294;-1.01944;45.63167;"01° 01' 10.00'' Ouest, 45° 37' 54.00'' Nord";"17306";"SAINT PIERRE";"RUE DES RULLAS";"17200";"ROYAN";"Bâtiment"; 8.0;"EDF ou GDF"
1278296;-1.11944;46.17611;"01° 07' 10.00'' Ouest, 46° 10' 34.00'' Nord";"17291";"LE BEAULIEU";"10 RUE DE L'EDF";"17138";"PUILBOREAU";"Bâtiment"; 15.0;"EDF ou GDF"
1278306;-0.53250;46.00917;"00° 31' 57.00'' Ouest, 46° 00' 33.00'' Nord";"17277";;"LE BOIS DES ESSOUVERTS";"17400";"SAINT-DENIS-DU-PIN";"Pylône autostable"; 39.4;"BOUYGUES"
1278485;-0.66444;46.10167;"00° 39' 52.00'' Ouest, 46° 06' 06.00'' Nord";"17359";"LE MOULIN BALLON";"D115";"17700";"SAINT-MARD";"Bâtiment"; 5.0;"EDF ou GDF"
1278491;-0.66472;46.10194;"00° 39' 53.00'' Ouest, 46° 06' 07.00'' Nord";"17359";"LE MOULIN BALLON";"D115 LA TIERCIE";"17700";"SAINT-MARD";"Bâtiment"; 10.0;"EDF ou GDF"
1278496;-0.52778;45.92889;"00° 31' 40.00'' Ouest, 45° 55' 44.00'' Nord";"17347";"FIEF L ABBE";"ROUTE DE SAINTES";"17400";"SAINT-JEAN-D'ANGELY";"Bâtiment"; 7.0;"EDF ou GDF"
1278830;-1.36083;46.19028;"01° 21' 39.00'' Ouest, 46° 11' 25.00'' Nord";"17051";"LA CROIX BLANCHE";"LE CHENE VERT";"17580";"LE BOIS-PLAGE-EN-RE";"Bâtiment"; 7.0;"EDF ou GDF"
1278920;-1.32611;45.94139;"01° 19' 34.00'' Ouest, 45° 56' 29.00'' Nord";"17385";"LA GROSSETIERE";"RUE GUSTAVE BAUSMEYER";"17310";"SAINT-PIERRE-D'OLERON";"Bâtiment"; 9.0;"EDF ou GDF"
1279415;-1.05944;45.66028;"01° 03' 34.00'' Ouest, 45° 39' 37.00'' Nord";"17461";"BEL AIR";"ROUTE DE LA TREMBLADE";"17640";"VAUX-SUR-MER";"Bâtiment"; 5.0;"EDF ou GDF"
1279424;-0.92361;45.95028;"00° 55' 25.00'' Ouest, 45° 57' 01.00'' Nord";"17449";"LES FONTAINES";"IMPASSE DE LA ENERGIE";"17430";"TONNAY-CHARENTE";"Bâtiment"; 8.0;"EDF ou GDF"
1279438;-0.77889;45.60278;"00° 46' 44.00'' Ouest, 45° 36' 10.00'' Nord";"17442";"BOIS DE BOISSON";;"17120";"THAIMS";"Bâtiment"; 7.0;"EDF ou GDF"
1279513;-0.90944;45.67861;"00° 54' 34.00'' Ouest, 45° 40' 43.00'' Nord";"17421";"LES SAULES";"RUE DU PRÉ DU CANAL";"17600";"SAUJON";"Bâtiment"; 6.0;"EDF ou GDF"
1281723;-0.72167;45.76806;"00° 43' 18.00'' Ouest, 45° 46' 05.00'' Nord";"17262";"BEL AIR";"9 CHEMIN DE PONT L'ABBÉ";"17810";"NIEUL-LES-SAINTES";"Pylône haubané"; 29.0;"Société Privée SA"
1281848;-0.66278;45.79028;"00° 39' 46.00'' Ouest, 45° 47' 25.00'' Nord";"17148";"LE FIEF DES PÉLOIRES";;"17810";"ECURAT";"Pylône autostable"; 30.0;"ORANGE"
1281878;-0.59944;45.77472;"00° 35' 58.00'' Ouest, 45° 46' 29.00'' Nord";"17164";"LES RICHARDEAUX";"CHEMIN RURAL";"17100";"FONTCOUVERTE";"Pylône autostable"; 30.0;"ORANGE"
1283585;-1.04306;45.62278;"01° 02' 35.00'' Ouest, 45° 37' 22.00'' Nord";"17306";;"80 AVENUE DE PONTAILLAC HOTEL DE VILLE";"17200";"ROYAN";"Bâtiment"; 27.0;"Commune, communauté de commune"
1287912;-1.38583;46.02806;"01° 23' 09.00'' Ouest, 46° 01' 41.00'' Nord";"17323";"LES MENOUNIERES";"424 ROUTE DES HUTTES CAMPING LE MOULIN";"17650";"SAINT-DENIS-D'OLERON";"Pylône autostable"; 33.0;"Société Privée SA"
1306245;-1.17750;46.16944;"01° 10' 39.00'' Ouest, 46° 10' 10.00'' Nord";"17300";;"18 AVENUE DE PARIS";"17000";"LA ROCHELLE";"Immeuble"; 64.0;"Société Privée SA"
1332557;-1.07500;46.07333;"01° 04' 30.00'' Ouest, 46° 04' 24.00'' Nord";"17094";;"HIPPODROME DU HAUT RILLON AVENUE DE LHIPPODROME";"17340";"CHATELAILLON-PLAGE";"Pylône autostable"; 47.0;"SFR"
1352014;-1.11750;46.17528;"01° 07' 03.00'' Ouest, 46° 10' 31.00'' Nord";"17291";;"CCAL BEAULIEU";"17138";"PUILBOREAU";"Bâtiment"; 6.5;"Société Privée SA"
1381773;-0.68278;45.46389;"00° 40' 58.00'' Ouest, 45° 27' 50.00'' Nord";"17210";"FIEF DES RENARDIERES";;"17240";"LORIGNAC";"Château d'eau - réservoir"; 22.0;"Syndicat des eaux, Adduction"
1382655;-0.33694;45.20083;"00° 20' 13.00'' Ouest, 45° 12' 03.00'' Nord";"17038";;"CENTRE DE DETENTION DE BEDENAC D 145";"17210";"BEDENAC";"Pylône tubulaire"; 8.0;"Etat, Ministère"
1392527;-0.45222;45.80528;"00° 27' 08.00'' Ouest, 45° 48' 19.00'' Nord";"17070";;"BOIS CARPIN - CHEZ GAUTRET";"17770";"BRIZAMBOURG";"Pylône autostable"; 40.0;"TDF"
1399037;-0.34139;45.87778;"00° 20' 29.00'' Ouest, 45° 52' 40.00'' Nord";"17048";"TRAINE CHARDON";"TRAINE CHARDON";"17160";"BLANZAC-LES-MATHA";"Pylône autostable"; 36.0;"TDF"
1399153;-0.20556;45.22278;"00° 12' 20.00'' Ouest, 45° 13' 22.00'' Nord";"17365";;"TURPIN";"17270";"SAINT-MARTIN-D'ARY";"Pylône autostable"; 34.0;"TDF"
1427355;-0.52028;45.74417;"00° 31' 13.00'' Ouest, 45° 44' 39.00'' Nord";"17086";"LES VARENNES";"CHEM DES VERDILLIERES";"17610";"CHANIERS";"Pylône autostable"; 49.0;"TDF"
1433882;-0.72639;45.74861;"00° 43' 35.00'' Ouest, 45° 44' 55.00'' Nord";"17262";"LA FEROY";"LA COUREAUDRIE";"17810";"NIEUL-LES-SAINTES";"Pylône autostable"; 40.0;"TDF"
1437095;-0.87611;45.68806;"00° 52' 34.00'' Ouest, 45° 41' 17.00'' Nord";"17393";;"FIEF DU CHAMPTIER";"17600";"SAINT-ROMAIN-DE-BENET";"Pylône autostable"; 51.1;"TDF"
1442838;-0.51861;45.94528;"00° 31' 07.00'' Ouest, 45° 56' 43.00'' Nord";"17347";;"1 PL DE L HOTEL DE VILLE";"17400";"SAINT-JEAN-D'ANGELY";"Bâtiment"; 15.0;"Commune, communauté de commune"
1452061;-0.85500;45.74528;"00° 51' 18.00'' Ouest, 45° 44' 43.00'' Nord";"17030";"BOIS GRILLET";"BOIS GRILLET";"17600";"BALANZAC";"Pylône autostable"; 39.4;"TDF"
1453858;-0.90861;46.08139;"00° 54' 31.00'' Ouest, 46° 04' 53.00'' Nord";"17447";;"61 RUE DE LA JUSTICE";"17290";"LE THOU";"Bâtiment"; 10.0;"Société Privée SA"
1453860;-1.16500;46.16611;"01° 09' 54.00'' Ouest, 46° 09' 58.00'' Nord";"17300";;"42 AV ARISTIDE BRIAND";"17000";"LA ROCHELLE";"Bâtiment"; 10.0;"Conseil Départemental"
1453867;-0.68361;45.74639;"00° 41' 01.00'' Ouest, 45° 44' 47.00'' Nord";"17415";;"ROUTE DE ROYAN, LES SIGNAUX";"17100";"SAINTES";"Pylône autostable"; 38.0;"TDF"
1457527;-0.76639;46.11333;"00° 45' 59.00'' Ouest, 46° 06' 48.00'' Nord";"17434";;"RUE DES PALOMBES";"17700";"SURGERES";"Pylône autostable"; 35.0;"SNCF Réseau"
1457529;-0.94611;46.09139;"00° 56' 46.00'' Ouest, 46° 05' 29.00'' Nord";"17447";;"32 RUE DU FIEF MIGNON";"17290";"LE THOU";"Pylône autostable"; 30.0;"SNCF Réseau"
1457531;-1.06361;46.13222;"01° 03' 49.00'' Ouest, 46° 07' 56.00'' Nord";"17391";"FIEF DE CLUSE";;"17220";"SAINT-ROGATIEN";"Pylône autostable"; 30.0;"SNCF Réseau"
1457533;-1.14500;46.16667;"01° 08' 42.00'' Ouest, 46° 09' 60.00'' Nord";"17300";;"48-68 RUE REMPART DES VOILIERS";"17000";"LA ROCHELLE";"Mât métallique"; 22.0;"SNCF Réseau"
1457535;-1.14472;46.13694;"01° 08' 41.00'' Ouest, 46° 08' 13.00'' Nord";"17028";"LA LIZARDIÈRE";;"17440";"AYTRE";"Mât métallique"; 22.0;"SNCF Réseau"
1458901;-1.05278;45.65917;"01° 03' 10.00'' Ouest, 45° 39' 33.00'' Nord";"17461";;"BOIS MILLARD";"17640";"VAUX-SUR-MER";"Pylône autostable"; 40.0;"SFR"
1463600;-1.17417;46.01139;"01° 10' 27.00'' Ouest, 46° 00' 41.00'' Nord";"17004";"GOURGAUD";"RUE GOURGAUD MAISON MÉDICALE";"17123";"ILE-D'AIX";"Bâtiment"; 12.0;"Commune, communauté de commune"
1463604;-1.23833;45.97250;"01° 14' 18.00'' Ouest, 45° 58' 21.00'' Nord";"17337";"BOYARDVILLE";"ROUTE DES SAUMONARDS CENTRE SPORTIF DE BOYARDVILLE";"17190";"SAINT-GEORGES-D'OLERON";"Pylône tubulaire"; 25.0;"ORANGE"
1463917;-1.35528;46.19500;"01° 21' 19.00'' Ouest, 46° 11' 42.00'' Nord";"17369";;"6101 AV PHILIPPSBURG STADE";"17410";"SAINT-MARTIN-DE-RE";"Pylône tubulaire"; 33.0;"FPS TOWERS"
1474562;-0.69694;46.17056;"00° 41' 49.00'' Ouest, 46° 10' 14.00'' Nord";"17382";"LORIAS";;"17700";"SAINT-PIERRE-D'AMILLY";"Pylône autostable"; 35.0;"SNCF Réseau"
1481580;-0.15500;45.22111;"00° 09' 18.00'' Ouest, 45° 13' 16.00'' Nord";"17241";"LES BRUTIS";;"17270";"MONTGUYON";"Pylône autostable"; 30.0;"SNCF Réseau"
1482449;-0.36500;45.22528;"00° 21' 54.00'' Ouest, 45° 13' 31.00'' Nord";"17074";;"USINE DE BUSSAC FORET 25 ROUTE DE LA CIMENTERIE";"17210";"BUSSAC-FORET";"Bâtiment"; 42.0;"Société Privée SA"
1482465;-1.19972;45.83000;"01° 11' 59.00'' Ouest, 45° 49' 48.00'' Nord";"17411";;"1 BD DU DOCTEUR PINEAU";"17370";"SAINT-TROJAN-LES-BAINS";"Bâtiment"; 4.0;"Société Privée SA"
1484002;-1.07250;46.12333;"01° 04' 21.00'' Ouest, 46° 07' 24.00'' Nord";"17193";;"RUE DES QUATRE CHEVALIERS STADE MUNICIPAL";"17220";"LA JARNE";"Pylône tubulaire"; 18.6;"ORANGE"
1487903;-1.15000;46.14667;"01° 08' 60.00'' Ouest, 46° 08' 48.00'' Nord";"17300";;"R DE ROUX";"17000";"LA ROCHELLE";"Pylône haubané"; 26.0;"BOUYGUES"
1502874;-1.22972;46.15917;"01° 13' 47.00'' Ouest, 46° 09' 33.00'' Nord";"17300";;"RUE DU DAHOMEY";"17000";"LA ROCHELLE";"Bâtiment"; 26.0;"Société Privée SA"
1508574;-0.70278;45.87639;"00° 42' 10.00'' Ouest, 45° 52' 35.00'' Nord";"17252";"LES GRANDS BOIS";;"17350";"LE MUNG";"Pylône autostable"; 30.0;"FPS TOWERS"
1513656;-1.20306;46.16500;"01° 12' 11.00'' Ouest, 46° 09' 54.00'' Nord";"17300";;"RUE DES ANTILLES CHATEAU D EAU LA PALLICE";"17000";"LA ROCHELLE";"Château d'eau - réservoir"; 35.0;"Commune, communauté de commune"
1518575;-0.74278;45.49444;"00° 44' 34.00'' Ouest, 45° 29' 40.00'' Nord";"17068";;"AVENUE DE MIRAMBEAU";"17120";"BRIE-SOUS-MORTAGNE";"Pylône autostable"; 10.0;"ORANGE Services Fixes"
1518700;-0.72917;45.47389;"00° 43' 45.00'' Ouest, 45° 28' 26.00'' Nord";"17328";"LES TERRIERS";"VOIE COMMUNALE N°2";"17240";"SAINT-FORT-SUR-GIRONDE";"Pylône autostable"; 35.0;"Intérieur"
1529131;-0.86028;45.95722;"00° 51' 37.00'' Ouest, 45° 57' 26.00'' Nord";"17449";;"LE SEGUIN ZER DE SAINTES";"17430";"TONNAY-CHARENTE";"Pylône autostable"; 47.0;"Sociétés d'Autoroutes"
1537668;-0.95111;45.72861;"00° 57' 04.00'' Ouest, 45° 43' 43.00'' Nord";"17185";;"63 R SAMUEL CHAMPLAIN";"17600";"LE GUA";"Pylône tubulaire"; 29.1;"FPS TOWERS"
1539334;-0.96528;45.92917;"00° 57' 55.00'' Ouest, 45° 55' 45.00'' Nord";"17299";;"68 AV. DES DEPORTES ET FUSILLES";"17300";"ROCHEFORT";"Pylône tubulaire"; 32.0;"IFW-FREE"
1539966;-0.96444;45.94028;"00° 57' 52.00'' Ouest, 45° 56' 25.00'' Nord";"17299";;"6 RUE PELTIER";"17300";"ROCHEFORT";"Pylône autostable"; 23.4;"ORANGE"
1541514;-0.32889;45.97917;"00° 19' 44.00'' Ouest, 45° 58' 45.00'' Nord";"17101";"LE BAS DU FIEF";;"17470";"CHERBONNIERES";"Château d'eau - réservoir"; 70.0;"Syndicat des eaux, Adduction"
1543085;-0.56417;45.37444;"00° 33' 51.00'' Ouest, 45° 22' 28.00'' Nord";"17236";;"PLACE DE SAINT SEBASTIEN";"17150";"MIRAMBEAU";"Pylône autostable"; 30.0;"FPS TOWERS"
1543286;-0.92056;46.07694;"00° 55' 14.00'' Ouest, 46° 04' 37.00'' Nord";"17447";"FIEF DU FOUR À CHAUX";;"17290";"LE THOU";"Château d'eau - réservoir"; 56.0;"Syndicat des eaux, Adduction"
1543303;-0.66750;45.74861;"00° 40' 03.00'' Ouest, 45° 44' 55.00'' Nord";"17415";;"2 RUE DES SIGNAUX";"17100";"SAINTES";"Bâtiment"; 30.0;"DDE"
1543831;-0.47139;45.54500;"00° 28' 17.00'' Ouest, 45° 32' 42.00'' Nord";"17078";"BOIS DU SABLON";;"17800";"CHADENAC";"Pylône autostable"; 50.0;"Gendarmerie"
1544679;-1.12250;46.17639;"01° 07' 21.00'' Ouest, 46° 10' 35.00'' Nord";"17291";;"1 R DE BELGIQUE ZI DE BEAULIEU 2";"17138";"PUILBOREAU";"Bâtiment"; 16.5;"Société Privée SA"
1545562;-1.18917;45.69250;"01° 11' 21.00'' Ouest, 45° 41' 33.00'' Nord";"17225";"LE LOGIS DU CLAPET";"AVENUE DE L'ATANTIQUE PARKING CAMPING CAR";"17570";"LES MATHES";"Pylône tubulaire"; 30.0;"ORANGE"
1551549;-0.96639;45.92972;"00° 57' 59.00'' Ouest, 45° 55' 47.00'' Nord";"17299";"STADE DU POLYGÔNE";"ROND-POINT DU POLYGÔNE D911";"17300";"ROCHEFORT";"Pylône tubulaire"; 30.0;"ORANGE"
1562938;-1.22111;46.15889;"01° 13' 16.00'' Ouest, 46° 09' 32.00'' Nord";"17300";"CAPITAINERIE DU PORT";"141 BD EMILE DELMAS TERRE-PLEIN DE L'ÉCLUSE";"17000";"LA ROCHELLE";"Bâtiment"; 15.0;"CCI,Ch Metiers,Port Aut,Aérop"
1563043;-1.22056;46.15861;"01° 13' 14.00'' Ouest, 46° 09' 31.00'' Nord";"17300";"CAPITAINERIE DU PORT";"141 BD EMILE DELMAS TERRE-PLEIN DE L'ÉCLUSE";"17000";"LA ROCHELLE";"Pylône autostable"; 20.0;"CCI,Ch Metiers,Port Aut,Aérop"
1563111;-1.23333;46.15472;"01° 14' 00.00'' Ouest, 46° 09' 17.00'' Nord";"17300";;"TOUR DES SIGNAUX";"17000";"LA ROCHELLE";"Mât béton"; 6.0;"CCI,Ch Metiers,Port Aut,Aérop"
1568712;-0.80222;45.64944;"00° 48' 08.00'' Ouest, 45° 38' 58.00'' Nord";"17232";"L'ENCLOS";"RTE DE L'OMBRAIL";"17120";"MEURSAC";"Pylône tubulaire"; 30.0;"FPS TOWERS"
1571143;-1.17972;46.16000;"01° 10' 47.00'' Ouest, 46° 09' 36.00'' Nord";"17300";;"27 RUE DE L ARTOIS PORT NEUF KEOLIS LITTORAL";"17000";"LA ROCHELLE";"Immeuble"; 40.0;"Société HLM"
1571145;-0.95056;45.95639;"00° 57' 02.00'' Ouest, 45° 57' 23.00'' Nord";"17299";;"2 AV DU PONT NEUF KEOLIS LITTORAL";"17133";"ROCHEFORT";"Bâtiment"; 3.0;"Société Privée SA"
1572203;-0.77389;46.10944;"00° 46' 26.00'' Ouest, 46° 06' 34.00'' Nord";"17434";;"RUE DES COMPAGNONS DU TOUR DE FRANCE";"17700";"SURGERES";"Pylône autostable"; 36.9;"IFW-FREE"
1578533;-1.35444;46.00806;"01° 21' 16.00'' Ouest, 46° 00' 29.00'' Nord";"17486";"RUE DE LA BAUDETTE";;"17840";"LA BREE-LES-BAINS";"Pylône tubulaire"; 30.0;"SFR"
1587099;-0.13833;45.24278;"00° 08' 18.00'' Ouest, 45° 14' 34.00'' Nord";"17260";"LES EFFES";;"17270";"NEUVICQ";"Pylône autostable"; 24.0;"ORANGE"
1589732;-0.81250;46.22111;"00° 48' 45.00'' Ouest, 46° 13' 16.00'' Nord";"17041";"LES COMBES";"FORET DE BENON LES COMBES";"17170";"BENON";"Pylône autostable"; 42.5;"TDF"
1592999;-1.09556;46.12778;"01° 05' 44.00'' Ouest, 46° 07' 40.00'' Nord";"17028";;"RUE NEWTON ETABLISSEMENT MULLOT";"17440";"AYTRE";"Pylône tubulaire"; 12.0;"ORANGE"
1594522;-1.35972;46.20389;"01° 21' 35.00'' Ouest, 46° 12' 14.00'' Nord";"17369";;"ALLÉE DE LA GUYANE MAISON CENTRALE PENITENTIER";"17410";"SAINT-MARTIN-DE-RE";"Mât"; 14.0;"Etat, Ministère"
1598978;-0.14361;45.81167;"00° 08' 37.00'' Ouest, 45° 48' 42.00'' Nord";"17261";"BOIS DE LA COUR";"TER R";"17490";"NEUVICQ-LE-CHATEAU";"Pylône autostable"; 32.0;"SFR"
1620734;-0.27389;45.16833;"00° 16' 26.00'' Ouest, 45° 10' 06.00'' Nord";"17038";"LA GRAVE";;"17210";"BEDENAC";"Pylône autostable"; 40.0;"ORANGE"
1621591;-1.15361;46.15917;"01° 09' 13.00'' Ouest, 46° 09' 33.00'' Nord";"17300";;"31 RUE DU PALAIS";"17000";"LA ROCHELLE";"Immeuble"; 21.0;"Particulier"
1621598;-1.20972;46.16306;"01° 12' 35.00'' Ouest, 46° 09' 47.00'' Nord";"17300";;"1 R ROCHAMBEAU  RES LA LOUISIANE";"17000";"LA ROCHELLE";"Immeuble"; 24.0;"Société HLM"
1625064;-1.12389;46.13694;"01° 07' 26.00'' Ouest, 46° 08' 13.00'' Nord";"17028";;"AV DU CDT LYSIACK";"17440";"AYTRE";"Château d'eau - réservoir"; 33.0;"Société Privée SA"
1627628;-1.14444;46.17361;"01° 08' 40.00'' Ouest, 46° 10' 25.00'' Nord";"17300";;"84 RUE LACROIX RES LES SAULES";"17000";"LA ROCHELLE";"Immeuble"; 23.5;"Copropriété, Syndic, SCI"
1635082;-1.37972;46.18111;"01° 22' 47.00'' Ouest, 46° 10' 52.00'' Nord";"17051";;"RTE DE STE MARIE D 201 SILO";"17580";"LE BOIS-PLAGE-EN-RE";"Bâtiment"; 19.2;"Société Privée SA"
1635894;-1.20333;46.15389;"01° 12' 12.00'' Ouest, 46° 09' 14.00'' Nord";"17300";"LA CAVE";"49 R DU CHEF DE BAIE";"17000";"LA ROCHELLE";"Pylône autostable"; 32.0;"SFR"
1635954;-1.04167;46.12361;"01° 02' 30.00'' Ouest, 46° 07' 25.00'' Nord";"17420";;"ZAC DE L'AUBÉPIN";"17220";"SALLES-SUR-MER";"Pylône tubulaire"; 32.0;"SFR"
1636618;-1.14889;46.14694;"01° 08' 56.00'' Ouest, 46° 08' 49.00'' Nord";"17300";;"2 R JEANNE JUGAN";"17000";"LA ROCHELLE";"Immeuble"; 14.6;"Société HLM"
1642119;-1.50722;46.20778;"01° 30' 26.00'' Ouest, 46° 12' 28.00'' Nord";"17019";;"9 QUAI DE LA PREE ZA";"17590";"ARS-EN-RE";"Pylône tubulaire"; 19.5;"SFR"
1642814;-0.96000;45.95167;"00° 57' 36.00'' Ouest, 45° 57' 06.00'' Nord";"17299";;"BOULEVARD DU VERCORS";"17300";"ROCHEFORT";"Pylône tubulaire"; 25.1;"SFR"
1642818;-0.39806;45.90694;"00° 23' 53.00'' Ouest, 45° 54' 25.00'' Nord";"17459";"LES NAUDINES";"LES BOURASSES";"17400";"VARAIZE";"Pylône autostable"; 34.1;"TDF"
1642888;-0.42500;45.96111;"00° 25' 30.00'' Ouest, 45° 57' 40.00'' Nord";"17150";"BUTTE DE FRAGNE";"D 219";"17400";"LES EGLISES-D'ARGENTEUIL";"Château d'eau - réservoir"; 37.0;"Syndicat des eaux, Adduction"
1642900;-0.92000;45.78417;"00° 55' 12.00'' Ouest, 45° 47' 03.00'' Nord";"17330";"FIEF DE BRAINAUD";;"17250";"SAINTE-GEMME";"Pylône autostable"; 27.3;"FPS TOWERS"
1643521;-0.64917;45.73500;"00° 38' 57.00'' Ouest, 45° 44' 06.00'' Nord";"17415";;"17 COURS PIERRE HENRI SIMON";"17100";"SAINTES";"Immeuble"; 25.0;"Copropriété, Syndic, SCI"
1643525;-1.19694;45.88861;"01° 11' 49.00'' Ouest, 45° 53' 19.00'' Nord";"17093";;"RUE D'ALSACE LORRAINE";"17480";"LE CHATEAU-D'OLERON";"Monument religieux"; 33.4;"Commune, communauté de commune"
1643529;-0.63250;45.74444;"00° 37' 57.00'' Ouest, 45° 44' 40.00'' Nord";"17415";"PL DU CLOÎTRE";"26 RUE GEORGES CLEMENCEAU";"17100";"SAINTES";"Monument religieux"; 60.1;"Commune, communauté de commune"
1644588;-0.11639;45.18111;"00° 06' 59.00'' Ouest, 45° 10' 52.00'' Nord";"17167";"LE SIGNAL";;"17270";"LE FOUILLOUX";"Château d'eau - réservoir"; 30.0;"Syndicat des eaux, Adduction"
1644625;-1.30528;45.94389;"01° 18' 19.00'' Ouest, 45° 56' 38.00'' Nord";"17385";;"PLACE DE L'ÉGLISE EGLISE";"17310";"SAINT-PIERRE-D'OLERON";"Monument religieux"; 30.2;"SFR"
1646564;-1.12250;46.16694;"01° 07' 21.00'' Ouest, 46° 10' 01.00'' Nord";"17300";;"13 RUE JACQUES CHARLES";"17000";"LA ROCHELLE";"Pylône autostable"; 13.0;"Société Privée SA"
1646902;-0.97333;45.95333;"00° 58' 24.00'' Ouest, 45° 57' 12.00'' Nord";"17299";;"AV DE LA CHAGRINERIE";"17300";"ROCHEFORT";"Pylône tubulaire"; 28.2;"SFR"
1647040;-0.96500;46.19250;"00° 57' 54.00'' Ouest, 46° 11' 33.00'' Nord";"17466";;"15 R DE LA VERRERIE MAIRIE";"17540";"VERINES";"Bâtiment"; 5.0;"Commune, communauté de commune"
1647208;-1.09861;46.09111;"01° 05' 55.00'' Ouest, 46° 05' 28.00'' Nord";"17094";;"47 AVE D' ANGOULINS BASE DE AMAGNOU CHRISTIAN";"17340";"CHATELAILLON-PLAGE";"Bâtiment"; 8.0;"Société Privée SA"
1652590;-0.98194;45.93667;"00° 58' 55.00'' Ouest, 45° 56' 12.00'' Nord";"17299";"LES AUBRAIES";"RUE DES FRÈRES JAMAIN";"17300";"ROCHEFORT";"Pylône tubulaire"; 35.0;"SFR"
1664980;-0.53528;45.93139;"00° 32' 07.00'' Ouest, 45° 55' 53.00'' Nord";"17226";;"761 RTE DE ST JEAN D Y.";"17400";"MAZERAY";"Pylône autostable"; 32.0;"ORANGE"
1665686;-0.96556;46.08278;"00° 57' 56.00'' Ouest, 46° 04' 58.00'' Nord";"17443";"LA GRAVELLE";"R DU CHATEAU D'EAU";"17290";"THAIRE";"Château d'eau - réservoir"; 31.0;"Syndicat des eaux, Adduction"
1666229;-0.87222;46.07444;"00° 52' 20.00'' Ouest, 46° 04' 28.00'' Nord";"17203";"LE FIEF DE LA POINTE";"ROUTE DE TONNAY BOUTONNE SILO";"17290";"LANDRAIS";"Silo"; 46.7;"Société Privée SA"
1666984;-0.31528;45.86833;"00° 18' 55.00'' Ouest, 45° 52' 06.00'' Nord";"17224";;"9, R MARC JEANJEAN";"17160";"MATHA";"Pylône autostable"; 21.5;"SFR"
1666991;-0.60778;45.75056;"00° 36' 28.00'' Ouest, 45° 45' 02.00'' Nord";"17415";;"15 R SÉBASTIEN DE BOUARD";"17100";"SAINTES";"Immeuble"; 25.0;"Société HLM"
1666995;-0.63583;45.75444;"00° 38' 09.00'' Ouest, 45° 45' 16.00'' Nord";"17415";;"PL DU 19 MARS 1962";"17100";"SAINTES";"Immeuble"; 20.3;"Société HLM"
1667669;-0.69083;45.78000;"00° 41' 27.00'' Ouest, 45° 46' 48.00'' Nord";"17336";"LE GRAND ROMEFORT";;"17810";"SAINT-GEORGES-DES-COTEAUX";"Pylône autostable"; 55.0;"SFR"
1667682;-0.59917;45.77444;"00° 35' 57.00'' Ouest, 45° 46' 28.00'' Nord";"17164";"LE RICHAUDEAU";;"17100";"FONTCOUVERTE";"Pylône autostable"; 30.0;"SFR"
1667708;-0.60750;45.86444;"00° 36' 27.00'' Ouest, 45° 51' 52.00'' Nord";"17436";"LE PLANTIS DE BEL AIR";;"17350";"TAILLEBOURG";"Pylône autostable"; 48.0;"SFR"
1667712;-0.86111;46.26833;"00° 51' 40.00'' Ouest, 46° 16' 06.00'' Nord";"17349";"LA MOTTE";;"17170";"SAINT-JEAN-DE-LIVERSAY";"Château d'eau - réservoir"; 53.2;"Syndicat des eaux, Adduction"
1667717;-0.83000;45.57028;"00° 49' 48.00'' Ouest, 45° 34' 13.00'' Nord";"17131";"LE CHAMP DE MADION";"D.245 DIRECTION EPARGNES";"17120";"COZES";"Château d'eau - réservoir"; 53.5;"Syndicat des eaux, Adduction"
1669294;-0.98611;45.60722;"00° 59' 10.00'' Ouest, 45° 36' 26.00'' Nord";"17333";;"CHEM LE MARGITE";"17110";"SAINT-GEORGES-DE-DIDONNE";"Immeuble"; 16.8;"Société HLM"
1669356;-0.82528;46.04083;"00° 49' 31.00'' Ouest, 46° 02' 27.00'' Nord";"17253";"LE PETIT FIEF";"RUE DE LA LIBÉRATION  PRES D 911";"17430";"MURON";"Pylône autostable"; 28.0;"ORANGE"
1669489;-0.60361;45.89667;"00° 36' 13.00'' Ouest, 45° 53' 48.00'' Nord";"17157";"LA GACHETIÈRE";"LA GACHETIÈRE";"17350";"FENIOUX";"Pylône autostable"; 54.3;"TDF"
1669979;-0.65833;45.89417;"00° 39' 30.00'' Ouest, 45° 53' 39.00'' Nord";"17397";"BEAU CHÊNE";;"17350";"SAINT-SAVINIEN";"Pylône autostable"; 46.0;"SFR"
1669996;-0.74056;45.72861;"00° 44' 26.00'' Ouest, 45° 43' 43.00'' Nord";"17112";"L'ENCLOUSE DES BOIS";;"17600";"LA CLISSE";"Pylône autostable"; 34.0;"SFR"
1671449;-1.11194;46.29944;"01° 06' 43.00'' Ouest, 46° 17' 58.00'' Nord";"17091";"LE GRAND AVINAUD";;"17230";"CHARRON";"Pylône tubulaire"; 32.5;"SFR"
1671498;-0.88556;45.83444;"00° 53' 08.00'' Ouest, 45° 50' 04.00'' Nord";"17389";"LA GRANDE PLANCHE";;"17250";"SAINTE-RADEGONDE";"Pylône autostable"; 29.0;"SFR"
1673373;-0.72472;45.48444;"00° 43' 29.00'' Ouest, 45° 29' 04.00'' Nord";"17160";"LE POTEAU";"CHEM DE FÉOLE";"17120";"FLOIRAC";"Pylône autostable"; 50.5;"TDF"
1673425;-1.18139;46.19889;"01° 10' 53.00'' Ouest, 46° 11' 56.00'' Nord";"17190";"LE CORMIER";"D 106";"17137";"L'HOUMEAU";"Pylône autostable"; 32.5;"ORANGE"
1679748;-0.83667;45.68556;"00° 50' 12.00'' Ouest, 45° 41' 08.00'' Nord";"17393";"LA GRANDE PALISSE";"RD N° 243";"17600";"SAINT-ROMAIN-DE-BENET";"Pylône autostable"; 52.1;"SFR"
1681003;-1.48361;46.22944;"01° 29' 01.00'' Ouest, 46° 13' 46.00'' Nord";"17286";"LA PATACHE";;"17880";"LES PORTES-EN-RE";"pylône arbre"; 21.2;"BOUYGUES"
1681965;-1.15611;46.17778;"01° 09' 22.00'' Ouest, 46° 10' 40.00'' Nord";"17200";;"17 R DU MOULIN DE VENDOME";"17140";"LAGORD";"Bâtiment"; 10.0;"Société Privée SA"
1684083;-1.11250;46.17806;"01° 06' 45.00'' Ouest, 46° 10' 41.00'' Nord";"17291";"MALEMORT";"RUE DU TREUIL GRAS";"17138";"PUILBOREAU";"Pylône autostable"; 26.0;"ORANGE"
1688445;-1.16000;46.17889;"01° 09' 36.00'' Ouest, 46° 10' 44.00'' Nord";"17200";"LE GRAND FETILLY";"AVENUE DE LAGORD PRÈS CHÂTEAU D'EAU";"17140";"LAGORD";"Pylône tubulaire"; 36.0;"ORANGE"
1690494;-1.04333;46.01083;"01° 02' 36.00'' Ouest, 46° 00' 39.00'' Nord";"17483";"LE DAUPHIN";"ZAC";"17340";"YVES";"Pylône autostable"; 22.6;"SFR"
1699262;-1.28528;46.15861;"01° 17' 07.00'' Ouest, 46° 09' 31.00'' Nord";"17297";;"CHEMIN DU FOND DU MARAIS ILE DE RÉ";"17940";"RIVEDOUX-PLAGE";"Pylône tubulaire"; 36.0;"ORANGE"
1704977;-1.49222;46.24861;"01° 29' 32.00'' Ouest, 46° 14' 55.00'' Nord";"17286";"LES MARAIS DE LA PRÉE";"R CAMPING MUNE";"17880";"LES PORTES-EN-RE";"Pylône tubulaire"; 14.0;"SFR"
1705161;-1.04194;45.98944;"01° 02' 31.00'' Ouest, 45° 59' 22.00'' Nord";"17353";"BOIS BRÛLÉ";"CHEM RURAL";"17450";"SAINT-LAURENT-DE-LA-PREE";"Pylône autostable"; 26.0;"ORANGE"
1705541;-1.07167;46.23333;"01° 04' 18.00'' Ouest, 46° 14' 00.00'' Nord";"17472";"FIEF DU MARAIS GUIOT";;"17230";"VILLEDOUX";"Pylône tubulaire"; 16.0;"SFR"
1705566;-0.88111;46.23889;"00° 52' 52.00'' Ouest, 46° 14' 20.00'' Nord";"17158";"BUTTE DES MOINDREAUX";;"17170";"FERRIERES";"Pylône autostable"; 45.0;"SFR"
1705598;-0.81556;46.05139;"00° 48' 56.00'' Ouest, 46° 03' 05.00'' Nord";"17340";"LES POINTES";;"17700";"SAINT-GERMAIN-DE-MARENCENNES";"Pylône autostable"; 32.6;"SFR"
1705632;-1.01556;46.22889;"01° 00' 56.00'' Ouest, 46° 13' 44.00'' Nord";"17376";"LE BREUIL";"R CH D'EAU DU BREUIL";"17230";"SAINT-OUEN-D'AUNIS";"Château d'eau - réservoir"; 43.0;"Syndicat des eaux, Adduction"
1705759;-0.77000;46.21611;"00° 46' 12.00'' Ouest, 46° 12' 58.00'' Nord";"17041";"LE GENIET";"N 11";"17170";"BENON";"Pylône tubulaire"; 26.0;"SFR"
1724005;-0.46750;45.71250;"00° 28' 03.00'' Ouest, 45° 42' 45.00'' Nord";"17100";"FIEF DE BELLEVUE";;"17610";"CHERAC";"Château d'eau - réservoir"; 47.0;"Syndicat des eaux, Adduction"
1724871;-1.32611;46.00167;"01° 19' 34.00'' Ouest, 46° 00' 06.00'' Nord";"17486";"LE PORT DU DOUHEY";;"17840";"LA BREE-LES-BAINS";"Pylône autostable"; 30.0;"SFR"
1724927;-0.96139;45.93778;"00° 57' 41.00'' Ouest, 45° 56' 16.00'' Nord";"17299";;"99 R DE LA RÉPUBLIQUE THÉÂTRE DE ROCHEFORT";"17300";"ROCHEFORT";"Bâtiment"; 35.0;"Commune, communauté de commune"
1725433;-1.38000;46.01500;"01° 22' 48.00'' Ouest, 46° 00' 54.00'' Nord";"17323";"LES PETITS MARAIS";"STATION D'EPURATION R DE LA BÉTAUDIÈRE";"17650";"SAINT-DENIS-D'OLERON";"Pylône tubulaire"; 33.0;"SFR"
1726227;-0.83583;45.85278;"00° 50' 09.00'' Ouest, 45° 51' 10.00'' Nord";"17045";;"CHEM DES COMBES";"17250";"BEURLAY";"Pylône autostable"; 27.6;"ORANGE"
1728344;-0.55250;45.58611;"00° 33' 09.00'' Ouest, 45° 35' 10.00'' Nord";"17283";"BEL-AIR";"LES GATINES PRÈS D 137";"17800";"PONS";"Pylône autostable"; 39.0;"ORANGE"
1731160;-0.96250;45.90083;"00° 57' 45.00'' Ouest, 45° 54' 03.00'' Nord";"17146";"LES ERONNELLES";"RTE DU BOIS BERNARD STATION TDF";"17620";"ECHILLAIS";"Pylône autostable"; 29.0;"TDF"
1733703;-0.56556;45.72472;"00° 33' 56.00'' Ouest, 45° 43' 29.00'' Nord";"17086";;"26 CHEM DE LA TONNELLE";"17610";"CHANIERS";"Château d'eau - réservoir"; 23.0;"Syndicat des eaux, Adduction"
1736909;-0.92750;45.80722;"00° 55' 39.00'' Ouest, 45° 48' 26.00'' Nord";"17083";"LA CASSE À PINSON";;"17620";"CHAMPAGNE";"Pylône autostable"; 32.0;"SFR"
1736919;-0.80028;45.91000;"00° 48' 01.00'' Ouest, 45° 54' 36.00'' Nord";"17085";"LES RENTES";;"17430";"CHAMPDOLENT";"Pylône autostable"; 35.0;"SFR"
1736925;-1.14417;45.72556;"01° 08' 39.00'' Ouest, 45° 43' 32.00'' Nord";"17225";;"R DE VERDUN";"17570";"LES MATHES";"Pylône autostable"; 28.0;"SFR"
1737044;-0.83611;45.83417;"00° 50' 10.00'' Ouest, 45° 50' 03.00'' Nord";"17284";"LA PIAZÈRE";;"17250";"PONT-L'ABBE-D'ARNOULT";"Pylône autostable"; 40.0;"SFR"
1739339;-1.12250;46.13667;"01° 07' 21.00'' Ouest, 46° 08' 12.00'' Nord";"17028";;"AV DU COMMANDANT LYSIACK PC SECURITE";"17440";"AYTRE";"Bâtiment"; 12.0;"Société Privée SA"
1743299;-0.62306;45.66389;"00° 37' 23.00'' Ouest, 45° 39' 50.00'' Nord";"17289";"LE CLAUDRY";;"17460";"PREGUILLAC";"Pylône autostable"; 44.0;"FPS TOWERS"
1745090;-0.61306;45.46306;"00° 36' 47.00'' Ouest, 45° 27' 47.00'' Nord";"17050";"CHEZ SAVARY";"VOIE COMMUNALE N°12";"17240";"BOIS";"Pylône autostable"; 40.0;"ORANGE"
1745098;-0.41917;45.91806;"00° 25' 09.00'' Ouest, 45° 55' 05.00'' Nord";"17459";;"CHEM RURAL DIR DE VARAIZE STADE RENÉ MARCILLAUD";"17400";"VARAIZE";"Pylône autostable"; 32.0;"ORANGE"
1745102;-1.38000;46.17917;"01° 22' 48.00'' Ouest, 46° 10' 45.00'' Nord";"17051";"ZALE BOIS PLAGE";"R DU PEU DE LA FOURCHETTE";"17580";"LE BOIS-PLAGE-EN-RE";"Pylône autostable"; 28.0;"ORANGE"
1745115;-0.56722;45.59528;"00° 34' 02.00'' Ouest, 45° 35' 43.00'' Nord";"17283";"BONDONNAT";;"17800";"PONS";"Pylône autostable"; 42.0;"SFR"
1745122;-0.73167;45.47306;"00° 43' 54.00'' Ouest, 45° 28' 23.00'' Nord";"17328";"LA BRIZARDERIE";"R DES BOIS";"17240";"SAINT-FORT-SUR-GIRONDE";"Pylône autostable"; 35.6;"SFR"
1745131;-0.60500;45.61861;"00° 36' 18.00'' Ouest, 45° 37' 07.00'' Nord";"17354";"PETIT MÉGLADE";;"17800";"SAINT-LEGER";"Pylône autostable"; 32.0;"SFR"
1745149;-0.56306;45.34194;"00° 33' 47.00'' Ouest, 45° 20' 31.00'' Nord";"17236";"LA BASQUETTE";;"17150";"MIRAMBEAU";"Pylône autostable"; 33.3;"SFR"
1750186;-1.12500;45.83278;"01° 07' 30.00'' Ouest, 45° 49' 58.00'' Nord";"17219";;"RTE DE BOURCEFRANC CHÂTEAU D'EAU DE LA CHAÎNADE";"17320";"MARENNES";"Château d'eau - réservoir"; 54.0;"Syndicat des eaux, Adduction"
1751473;-1.17778;46.01000;"01° 10' 40.00'' Ouest, 46° 00' 36.00'' Nord";"17004";;"PLACE AUSTERLITZ";"17123";"ILE-D'AIX";"Château d'eau - réservoir"; 14.0;"Syndicat des eaux, Adduction"
1755028;-0.60111;45.40333;"00° 36' 04.00'' Ouest, 45° 24' 12.00'' Nord";"17423";"LES CHAMPAGNETTES";"CHEM RURAL PRES DE D730";"17150";"SEMILLAC";"Pylône autostable"; 36.0;"ORANGE"
1763271;-0.49639;45.75917;"00° 29' 47.00'' Ouest, 45° 45' 33.00'' Nord";"17314";"CHEZ JOYEAU";;"17770";"SAINT-CESAIRE";"Pylône autostable"; 43.0;"SFR"
1763379;-0.51528;45.80611;"00° 30' 55.00'' Ouest, 45° 48' 22.00'' Nord";"17147";"CHEZ GAUDIN";"RUE DU CHATEAU D'EAU";"17770";"ECOYEUX";"Château d'eau - réservoir"; 46.0;"Syndicat des eaux, Adduction"
1763402;-0.53056;45.76222;"00° 31' 50.00'' Ouest, 45° 45' 44.00'' Nord";"17089";"L'ESSART";"58 DÉPARTEMENTALE";"17100";"LA CHAPELLE-DES-POTS";"Pylône autostable"; 37.6;"SFR"
1763667;-1.35972;46.20389;"01° 21' 35.00'' Ouest, 46° 12' 14.00'' Nord";"17369";;"MAISON CENTRALE PENITENTIER";"17410";"SAINT-MARTIN-DE-RE";"Bâtiment"; 14.0;"Etat, Ministère"
1763669;-1.06417;45.64667;"01° 03' 51.00'' Ouest, 45° 38' 48.00'' Nord";"17461";;"1 PL MAURICE GARNIER";"17640";"VAUX-SUR-MER";"Bâtiment"; 9.0;"Société Privée SA"
1763958;-0.41611;45.44222;"00° 24' 58.00'' Ouest, 45° 26' 32.00'' Nord";"17197";"CASSE COIE";;"17500";"JONZAC";"Château d'eau - réservoir"; 35.0;"Syndicat des eaux, Adduction"
1764956;-0.91667;45.60722;"00° 55' 00.00'' Ouest, 45° 36' 26.00'' Nord";"17425";"LES TERRIERS";"BOIS DE LA VALADE";"17120";"SEMUSSAC";"Pylône autostable"; 36.9;"IFW-FREE"
1777045;-1.22667;45.89139;"01° 13' 36.00'' Ouest, 45° 53' 29.00'' Nord";"17093";"LA GACONNIERE";"D 240";"17480";"LE CHATEAU-D'OLERON";"Château d'eau - réservoir"; 41.0;"Syndicat des eaux, Adduction"
1781716;-0.23778;45.18333;"00° 14' 16.00'' Ouest, 45° 10' 60.00'' Nord";"17110";"LE PAS DES FONTAINES";;"17270";"CLERAC";"Pylône autostable"; 25.0;"SNCF Réseau"
1786602;-0.63361;45.74417;"00° 38' 01.00'' Ouest, 45° 44' 39.00'' Nord";"17415";;"MAIRIE SQUARE ANDRÉ MAUDET";"17100";"SAINTES";"Bâtiment"; 11.0;"Commune, communauté de commune"
1786604;-0.64417;45.72194;"00° 38' 39.00'' Ouest, 45° 43' 19.00'' Nord";"17415";;"2 IMP DES PERCHES";"92170";"SAINTES";"Bâtiment"; 6.0;"Commune, communauté de commune"
1787583;-0.28111;45.15861;"00° 16' 52.00'' Ouest, 45° 09' 31.00'' Nord";"17110";"LANDRY";"D145";"17270";"CLERAC";"Pylône autostable"; 25.0;"SNCF Réseau"
1793225;-0.67889;45.87583;"00° 40' 44.00'' Ouest, 45° 52' 33.00'' Nord";"17397";;"PLACE DU CHAMP DE FOIRE NRA";"17350";"SAINT-SAVINIEN";"Mât métallique"; 12.0;"ORANGE"
1801729;-1.12194;46.17583;"01° 07' 19.00'' Ouest, 46° 10' 33.00'' Nord";"17291";"BEAULIEU";"RUE DE L'EDF";"17138";"PUILBOREAU";"Pylône autostable"; 30.2;"RTE"
1803905;-0.28389;45.15472;"00° 17' 02.00'' Ouest, 45° 09' 17.00'' Nord";"17110";"LANDRY";;"17270";"CLERAC";"Pylône autostable"; 32.5;"TDF"
1803907;-0.14222;45.23667;"00° 08' 32.00'' Ouest, 45° 14' 12.00'' Nord";"17260";"LES QUATRES PUITS";;"17270";"NEUVICQ";"Pylône autostable"; 32.5;"TDF"
1804885;-0.11583;45.26639;"00° 06' 57.00'' Ouest, 45° 15' 59.00'' Nord";"17054";"GRAND CHÂTEAU";;"17270";"BORESSE-ET-MARTRON";"Pylône autostable"; 20.0;"SNCF Réseau"
1807764;-1.04861;45.97389;"01° 02' 55.00'' Ouest, 45° 58' 26.00'' Nord";"17353";"L'ASPIQUE";"RTE DES DEUX ROCHES";"17450";"SAINT-LAURENT-DE-LA-PREE";"Pylône autostable"; 30.0;"SFR"
1815589;-0.28083;45.23222;"00° 16' 51.00'' Ouest, 45° 13' 56.00'' Nord";"17243";"LE DEFENS";;"17210";"MONTLIEU-LA-GARDE";"Pylône autostable"; 44.2;"CELLNEX"
1817155;-1.06639;46.17417;"01° 03' 59.00'' Ouest, 46° 10' 27.00'' Nord";"17142";;"2 R AMPERE ZONE ARTISANALE CORNE NEUVE";"17139";"DOMPIERRE-SUR-MER";"Bâtiment"; 5.0;"Société Privée SA"
1818806;-1.17972;46.16000;"01° 10' 47.00'' Ouest, 46° 09' 36.00'' Nord";"17300";;"7 R DE L ARTOIS  PORT NEUF BATIMENT 27";"17000";"LA ROCHELLE";"Immeuble"; 40.0;"Société HLM"
1822057;-0.16583;45.21333;"00° 09' 57.00'' Ouest, 45° 12' 48.00'' Nord";"17241";"LA BOURGUETTE";;"17270";"MONTGUYON";"Pylône autostable"; 37.5;"TDF"
1822232;-1.23083;46.15944;"01° 13' 51.00'' Ouest, 46° 09' 34.00'' Nord";"17300";;"PORT DE COMMERCE LA ROCHELLE PALLICE SILO OUEST HOLCIM";"17000";"LA ROCHELLE";"Silo"; 55.0;"Société Privée SA"
1824367;-0.33222;45.17083;"00° 19' 56.00'' Ouest, 45° 10' 15.00'' Nord";"17038";"PLANTUBLAT";"RN 10 AIRE DE REPOS EST";"17210";"BEDENAC";"Pylône autostable"; 42.0;"CELLNEX"
1837548;-0.16000;45.21500;"00° 09' 36.00'' Ouest, 45° 12' 54.00'' Nord";"17241";"BASSINET";"LIEUDIT BASSINET SECTION C PARCELLE 806";"17270";"MONTGUYON";"Pylône autostable"; 36.0;"ORANGE"
