Numéro du support;Longitude;Latitude;"Position";"Insee";"Lieu dit";"Adresse";"Code postal";"Commune";"Nature du support";Hauteur en m;"Propriétaire"
6637;1.51083;45.05139;"01° 30' 39.00'' Est, 45° 03' 05.00'' Nord";"19147";"P.S. RD19 A20";"RD19";"19600";"NESPOULS";"Mât métallique"; 12.0;"Sociétés d'Autoroutes"
6681;2.16639;45.29528;"02° 09' 59.00'' Est, 45° 17' 43.00'' Nord";"19106";;"AV DU STADE CHÂTEAU D'EAU";"19550";"LAPLEAU";"Château d'eau - réservoir"; 24.0;"Syndicat des eaux, Adduction"
6691;2.04194;45.28417;"02° 02' 31.00'' Est, 45° 17' 03.00'' Nord";"19125";"GARTELADE NORD";;"19320";"MARCILLAC-LA-CROISILLE";"Pylône autostable"; 23.0;"ORANGE Services Fixes"
6703;2.06750;45.03861;"02° 04' 03.00'' Est, 45° 02' 19.00'' Nord";"19086";"LES PERRIÈRES HAUTES";"CAUMIAC";"19430";"GOULLES";"Mât"; 18.0;"ORANGE Services Fixes"
6713;2.46056;45.54444;"02° 27' 38.00'' Est, 45° 32' 40.00'' Nord";"19199";"BUSSEJOUX";;"19200";"SAINT-ETIENNE-AUX-CLOS";"Pylône autostable"; 20.0;"ORANGE Services Fixes"
26797;1.50278;45.05278;"01° 30' 10.00'' Est, 45° 03' 10.00'' Nord";"19147";"PUY DU MOULIN";;"19600";"NESPOULS";"Château d'eau - réservoir"; 25.8;"SFR"
63435;2.05667;45.69833;"02° 03' 24.00'' Est, 45° 41' 54.00'' Nord";"19164";"CHAMPS DES PAUSES";;"19290";"PEYRELEVADE";"Pylône autostable"; 12.0;"ORANGE Services Fixes"
64821;2.11417;45.46639;"02° 06' 51.00'' Est, 45° 27' 59.00'' Nord";"19130";"LE GOUR";;"19250";"MAUSSAC";"Pylône autostable"; 14.0;"Sociétés d'Autoroutes"
66700;2.17944;45.22194;"02° 10' 46.00'' Est, 45° 13' 19.00'' Nord";"19264";"ECOLE DE SPONTOUR";;"19550";"SOURSAC";"Mât"; 5.0;"ORANGE Services Fixes"
74653;1.78917;45.52500;"01° 47' 21.00'' Est, 45° 31' 30.00'' Nord";"19269";"LE CALVAIRE";;"19260";"TREIGNAC";"Pylône autostable"; 39.0;"ORANGE Services Fixes"
74673;2.31167;45.49250;"02° 18' 42.00'' Est, 45° 29' 33.00'' Nord";"19135";"LA SERRE";"D.979 - MAIRIE DE MESTES CHEM RURAL";"19200";"MESTES";"Pylône autostable"; 36.0;"ORANGE"
74699;1.78389;45.07972;"01° 47' 02.00'' Est, 45° 04' 47.00'' Nord";"19119";"LESPINASSOU";"PRÈS D.940";"19500";"LOSTANGES";"Pylône autostable"; 32.0;"ORANGE"
108995;2.20417;45.27472;"02° 12' 15.00'' Est, 45° 16' 29.00'' Nord";"19264";;"LE BOURG";"19550";"SOURSAC";"Pylône autostable"; 14.0;"ORANGE Services Fixes"
109009;1.97944;45.45000;"01° 58' 46.00'' Est, 45° 27' 00.00'' Nord";"19249";"ROCHE LES DAMES";;"19300";"SAINT-YRIEIX-LE-DEJALAT";"Pylône autostable"; 25.0;"ORANGE Services Fixes"
121211;1.50722;45.30778;"01° 30' 26.00'' Est, 45° 18' 28.00'' Nord";"19078";"LES REJAUDOUX";;"19410";"ESTIVAUX";"Pylône autostable"; 42.0;"ATC FRANCE"
173883;1.78111;45.24389;"01° 46' 52.00'' Est, 45° 14' 38.00'' Nord";"19101";;"3 AV DU PUY DU JOUR";"19150";"LAGUENNE";"Support non décrit"; 8.0;
174498;1.36556;45.14139;"01° 21' 56.00'' Est, 45° 08' 29.00'' Nord";"19124";;"LA RIVIERE DE MANSAC";"19520";"MANSAC";"Support non décrit";;
226443;1.54194;45.15611;"01° 32' 31.00'' Est, 45° 09' 22.00'' Nord";"19031";;"6, R DE BALZAC";"19100";"BRIVE-LA-GAILLARDE";"Immeuble"; 18.0;"Copropriété, Syndic, SCI"
245263;1.44889;45.30722;"01° 26' 56.00'' Est, 45° 18' 26.00'' Nord";"19288";;"MEILHAC CHATEAU D'EAU";"19130";"VOUTEZAC";"Château d'eau - réservoir"; 27.0;"Syndicat des eaux, Adduction"
275379;1.53806;45.16444;"01° 32' 17.00'' Est, 45° 09' 52.00'' Nord";"19031";;"50, QUAI DE TOURNY IMP MARÉCHAL FOCH";"19100";"BRIVE-LA-GAILLARDE";"Immeuble"; 28.0;"Copropriété, Syndic, SCI"
278351;1.53306;45.16917;"01° 31' 59.00'' Est, 45° 10' 09.00'' Nord";"19031";;"BD DR VERLHAC HOP";"19100";"BRIVE-LA-GAILLARDE";"Immeuble"; 48.0;"Commune, communauté de commune"
289063;2.04417;45.39611;"02° 02' 39.00'' Est, 45° 23' 46.00'' Nord";"19073";"PUY CHASTAGNOL";;"19300";"EGLETONS";"Pylône autostable"; 20.0;
292570;1.48472;45.15611;"01° 29' 05.00'' Est, 45° 09' 22.00'' Nord";"19031";;"R ERNEST COMTE";"19100";"BRIVE-LA-GAILLARDE";"Pylône autostable"; 26.0;"ORANGE"
314986;1.84972;45.31750;"01° 50' 59.00'' Est, 45° 19' 03.00'' Nord";"19085";"LES GOUTTES";"A89 PEAGE POINT APPUI TULLE EST PEAGE POINT APPUI TULLE EST A89";"19800";"GIMEL-LES-CASCADES";"Bâtiment"; 10.0;"Sociétés d'Autoroutes"
356184;1.64250;45.36639;"01° 38' 33.00'' Est, 45° 21' 59.00'' Nord";"19100";"LA BUGE HAUTE";;"19700";"LAGRAULIERE";"Pylône autostable"; 30.0;"Société Privée SA"
356194;2.44056;45.63750;"02° 26' 26.00'' Est, 45° 38' 15.00'' Nord";"19080";"LES GRANDES SAGNES";;"19340";"EYGURANDE";"Pylône autostable"; 40.0;"Société Privée SA"
356805;1.58250;45.22806;"01° 34' 57.00'' Est, 45° 13' 41.00'' Nord";"19202";;"2 R DU 14 JUILLET";"19270";"SAINTE-FEREOLE";"Château d'eau - réservoir"; 28.0;"Syndicat des eaux, Adduction"
356807;1.65694;45.27417;"01° 39' 25.00'' Est, 45° 16' 27.00'' Nord";"19227";"BOUSSAGEIX";;"19330";"SAINT-MEXANT";"Pylône autostable"; 36.0;"Société Privée SA"
356813;1.56667;45.40056;"01° 34' 00.00'' Est, 45° 24' 02.00'' Nord";"19276";"PUY LAMAGNE";;"19140";"UZERCHE";"Pylône tubulaire"; 35.0;"Société Privée SA"
356819;1.93556;45.09472;"01° 56' 08.00'' Est, 45° 05' 41.00'' Nord";"19010";;"PL JOSEPH FAURE SALLE POLYVALENTE";"19400";"ARGENTAT";"Bâtiment"; 11.0;"Commune, communauté de commune"
356829;1.86917;45.07167;"01° 52' 09.00'' Est, 45° 04' 18.00'' Nord";"19140";"LE MONS";;"19400";"MONCEAUX-SUR-DORDOGNE";"Pylône autostable"; 35.0;"Société Privée SA"
357009;1.69250;45.43944;"01° 41' 33.00'' Est, 45° 26' 22.00'' Nord";"19037";"LA POUGE";;"19450";"CHAMBOULIVE";"Pylône autostable"; 42.0;"Société Privée SA"
357138;1.69944;45.11917;"01° 41' 58.00'' Est, 45° 07' 09.00'' Nord";"19023";"LE PARJADIS";;"19190";"BEYNAT";"Pylône autostable"; 25.0;"Société Privée SA"
357148;1.32722;45.31389;"01° 19' 38.00'' Est, 45° 18' 50.00'' Nord";"19094";"CHATENET";;"19350";"JUILLAC";"Bâtiment"; 7.0;"Particulier"
367307;1.46639;45.15194;"01° 27' 59.00'' Est, 45° 09' 07.00'' Nord";"19229";"LAUMEUIL";"V.C N°15 ZONE ARTISANALE LA GALIVE";"19600";"SAINT-PANTALEON-DE-LARCHE";"Pylône tubulaire"; 25.0;"ORANGE"
392502;2.38611;45.61139;"02° 23' 10.00'' Est, 45° 36' 41.00'' Nord";"19002";"LA JARRIGE";"CHEM D'EXPLOITATION N°78";"19200";"AIX";"Pylône autostable"; 39.0;"ORANGE"
392597;1.28528;45.35139;"01° 17' 07.00'' Est, 45° 21' 05.00'' Nord";"19094";"LES BICHETS";;"19350";"JUILLAC";"Château d'eau - réservoir"; 37.0;"Syndicat des eaux, Adduction"
395296;1.75167;45.27583;"01° 45' 06.00'' Est, 45° 16' 33.00'' Nord";"19272";"LA CROIX DE BAR";;"19000";"TULLE";"Pylône autostable"; 25.0;"Titulaire programme Radio/TV"
435072;1.78389;45.26944;"01° 47' 02.00'' Est, 45° 16' 10.00'' Nord";"19272";"TREIZE VENTS";"BD DE LA LUNADE";"19000";"TULLE";"Pylône autostable"; 49.0;"TDF"
436533;1.52500;45.15083;"01° 31' 30.00'' Est, 45° 09' 03.00'' Nord";"19031";;"30 R JB DELAMBRE";"19100";"BRIVE-LA-GAILLARDE";"Pylône tubulaire"; 35.0;"ATC FRANCE"
437623;1.41806;45.14083;"01° 25' 05.00'' Est, 45° 08' 27.00'' Nord";"19229";"AU SERAC";"GRATTE LIÈVRE";"19600";"SAINT-PANTALEON-DE-LARCHE";"Pylône autostable"; 48.0;"ATC FRANCE"
439198;2.08889;45.31611;"02° 05' 20.00'' Est, 45° 18' 58.00'' Nord";"19097";"PUY CHAUMONT";"LES BAZAUD";"19320";"LAFAGE-SUR-SOMBRE";"Pylône autostable"; 40.0;"Conseil Départemental"
439538;1.50111;45.11333;"01° 30' 04.00'' Est, 45° 06' 48.00'' Nord";"19031";"PUY CHAUVET";"PUYJARRIGE";"19100";"BRIVE-LA-GAILLARDE";"Pylône autostable"; 37.0;"ORANGE"
440094;2.49278;45.66000;"02° 29' 34.00'' Est, 45° 39' 36.00'' Nord";"19141";"LE CLOS";"CHEM D'EXPLOITATION N° 8";"19340";"MONESTIER-MERLINES";"Château d'eau - réservoir"; 21.0;"Syndicat des eaux, Adduction"
445712;2.30694;45.56972;"02° 18' 25.00'' Est, 45° 34' 11.00'' Nord";"19275";;"ZI PETITES BORDES";"19200";"USSEL";"Bâtiment"; 21.4;"Commune, communauté de commune"
446648;2.30444;45.55250;"02° 18' 16.00'' Est, 45° 33' 09.00'' Nord";"19275";"LA GARENNE";"PRÈS D 982";"19200";"USSEL";"Pylône autostable"; 40.0;"TDF"
447321;1.51250;45.46056;"01° 30' 45.00'' Est, 45° 27' 38.00'' Nord";"19248";"LA RADE";"A20";"19140";"SAINT-YBARD";"Pylône autostable"; 50.0;"DDE"
447396;2.14139;45.18528;"02° 08' 29.00'' Est, 45° 11' 07.00'' Nord";"19014";"LE PUY DU BASSIN";"LA CHAPELLE D 111";"19220";"AURIAC";"Pylône autostable"; 47.0;"TDF"
447865;2.24056;45.44583;"02° 14' 26.00'' Est, 45° 26' 45.00'' Nord";"19157";"BOIS DE L'ESTRIER";"D171";"19160";"PALISSE";"Pylône autostable"; 32.0;"ATC FRANCE"
448668;1.53167;45.16083;"01° 31' 54.00'' Est, 45° 09' 39.00'' Nord";"19031";;"29 BLV KOENIG";"19100";"BRIVE-LA-GAILLARDE";"Immeuble"; 30.8;"Copropriété, Syndic, SCI"
452102;2.04167;45.48028;"02° 02' 30.00'' Est, 45° 28' 49.00'' Nord";"19159";"PUY DE LA JUSTICE";;"19300";"PERET-BEL-AIR";"Pylône autostable"; 38.0;"ATC FRANCE"
452122;1.31611;45.43556;"01° 18' 58.00'' Est, 45° 26' 08.00'' Nord";"19254";"LA GRANDE BORDERIE";;"19230";"SEGUR-LE-CHATEAU";"Pylône autostable"; 40.0;"ATC FRANCE"
453082;2.26556;45.39389;"02° 15' 56.00'' Est, 45° 23' 38.00'' Nord";"19148";"LES CREUX";;"19160";"NEUVIC";"Pylône autostable"; 47.0;"ORANGE Services Fixes"
456857;1.51417;45.17417;"01° 30' 51.00'' Est, 45° 10' 27.00'' Nord";"19031";"LE PEUCH DE VIALMUR";"R DU COMMANDANT MARCHAL";"19100";"BRIVE-LA-GAILLARDE";"Pylône autostable"; 48.0;"TDF"
459146;1.76833;45.24389;"01° 46' 06.00'' Est, 45° 14' 38.00'' Nord";"19101";;"SEIGNAC";"19150";"LAGUENNE";"Pylône autostable"; 37.0;"TDF"
459247;2.12333;45.57083;"02° 07' 24.00'' Est, 45° 34' 15.00'' Nord";"19136";"MONT BESSOU";"SITE TDF";"19250";"MEYMAC";"Pylône haubané"; 208.0;"TDF"
459570;1.45750;45.11611;"01° 27' 27.00'' Est, 45° 06' 58.00'' Nord";"19117";"PUY GRAMONT";"GR46";"19600";"LISSAC-SUR-COUZE";"Pylône autostable"; 60.0;"TDF"
460836;2.30500;45.55833;"02° 18' 18.00'' Est, 45° 33' 30.00'' Nord";"19275";;"27 R DU PUY DE SANCY";"19200";"USSEL";"Pylône autostable"; 54.0;"Towercast"
468892;1.57222;45.42861;"01° 34' 20.00'' Est, 45° 25' 43.00'' Nord";"19276";;"FARGEAS STATION TDF UZERCHE 2";"19140";"UZERCHE";"Pylône autostable"; 38.0;"TDF"
469940;2.10000;45.67417;"02° 06' 00.00'' Est, 45° 40' 27.00'' Nord";"19241";"MONT ANDOUZE";;"19290";"SAINT-SETIERS";"Tour hertzienne"; 62.0;"TDF"
472184;2.36222;45.55556;"02° 21' 44.00'' Est, 45° 33' 20.00'' Nord";"19204";"BIGNE";;"19200";"SAINT-FREJOUX";"Pylône autostable"; 77.0;"ORANGE Services Fixes"
473772;2.04444;45.39583;"02° 02' 40.00'' Est, 45° 23' 45.00'' Nord";"19073";"PUY CHASTAGNOL";;"19300";"EGLETONS";"Pylône autostable"; 30.0;"HIVORY"
477493;1.69056;45.30889;"01° 41' 26.00'' Est, 45° 18' 32.00'' Nord";"19227";"LES POUGES";"CHEM COMMUNAL";"19330";"SAINT-MEXANT";"Pylône autostable"; 45.0;"Sociétés d'Autoroutes"
477538;1.71583;45.35194;"01° 42' 57.00'' Est, 45° 21' 07.00'' Nord";"19255";"PUY DES FERRIERES";;"19700";"SEILHAC";"Tour hertzienne"; 61.7;"TDF"
477752;1.99000;45.19083;"01° 59' 24.00'' Est, 45° 11' 27.00'' Nord";"19222";"MAGNAC";;"19320";"SAINT-MARTIN-LA-MEANNE";"Pylône autostable"; 41.0;"TDF"
485115;1.41500;45.26028;"01° 24' 54.00'' Est, 45° 15' 37.00'' Nord";"19153";;"ROUTE DE BRIVE - PUY-FAYE CHEM RURAL PRÈS D 901";"19130";"OBJAT";"Pylône autostable"; 25.0;"SFR"
493975;1.41222;45.16722;"01° 24' 44.00'' Est, 45° 10' 02.00'' Nord";"19229";"LA COMBARELLE";;"19600";"SAINT-PANTALEON-DE-LARCHE";"Pylône autostable"; 35.0;"Sociétés d'Autoroutes"
497366;1.52333;45.14778;"01° 31' 24.00'' Est, 45° 08' 52.00'' Nord";"19031";;"9 IMP DES TILLEULS";"19100";"BRIVE-LA-GAILLARDE";"Pylône haubané"; 37.0;"Towercast"
497802;2.12167;45.45528;"02° 07' 18.00'' Est, 45° 27' 19.00'' Nord";"19130";;"LA BOLE GRANDE PYLONE SFR";"19250";"MAUSSAC";"Pylône autostable"; 45.0;"HIVORY"
506082;2.48250;45.39611;"02° 28' 57.00'' Est, 45° 23' 46.00'' Nord";"19028";"LES ORGUES";"PLATEAU DE BORT";"19110";"BORT-LES-ORGUES";"Pylône autostable"; 45.5;"TDF"
506913;2.09389;45.20472;"02° 05' 38.00'' Est, 45° 12' 17.00'' Nord";"19018";;"LE VENTADOUR";"19220";"BASSIGNAC-LE-HAUT";"Pylône tubulaire"; 46.0;"EDF ou GDF"
507620;1.99333;45.10000;"01° 59' 36.00'' Est, 45° 06' 00.00'' Nord";"19091";;"CHASSAGNADE";"19400";"HAUTEFAGE";"Pylône tubulaire"; 46.0;"EDF ou GDF"
508451;2.48361;45.39583;"02° 29' 01.00'' Est, 45° 23' 45.00'' Nord";"19028";;"PLATEAU DE BORT TABLE D'ORIENTATION";"19110";"BORT-LES-ORGUES";"Local technique"; 3.0;"TDF"
510283;2.01000;45.26500;"02° 00' 36.00'' Est, 45° 15' 54.00'' Nord";"19125";"PUY NACHET";;"19320";"MARCILLAC-LA-CROISILLE";"Château d'eau - réservoir"; 33.0;"Commune, communauté de commune"
511084;1.57444;45.13889;"01° 34' 28.00'' Est, 45° 08' 20.00'' Nord";"19063";"CHAMPAGNAC";;"19360";"COSNAC";"Pylône autostable"; 40.0;"TDF"
511110;1.67861;45.19250;"01° 40' 43.00'' Est, 45° 11' 33.00'' Nord";"19013";"LE CHASTANET";"PAULIAC BAS";"19190";"AUBAZINES";"Pylône autostable"; 50.5;"TDF"
511616;1.97111;45.36194;"01° 58' 16.00'' Est, 45° 21' 43.00'' Nord";"19176";;"RTE DE PRANCHERE AU LAC";"19300";"ROSIERS-D'EGLETONS";"Pylône autostable"; 47.0;"TDF"
511638;2.16361;45.52722;"02° 09' 49.00'' Est, 45° 31' 38.00'' Nord";"19136";"LES GARDES";;"19250";"MEYMAC";"Pylône autostable"; 46.0;"TDF"
511687;1.56889;45.30972;"01° 34' 08.00'' Est, 45° 18' 35.00'' Nord";"19234";"PEJOINE";;"19270";"SAINT-PARDOUX-L'ORTIGIER";"Pylône autostable"; 48.0;"TDF"
512205;1.86778;45.13194;"01° 52' 04.00'' Est, 45° 07' 55.00'' Nord";"19004";"MADELBOS";;"19380";"ALBUSSAC";"Pylône autostable"; 45.0;"TDF"
512607;1.58833;45.39611;"01° 35' 18.00'' Est, 45° 23' 46.00'' Nord";"19076";;"CHANTEGRIL - CEYRAT";"19140";"ESPARTIGNAC";"Pylône tubulaire"; 14.0;"EDF ou GDF"
513622;1.76556;45.19278;"01° 45' 56.00'' Est, 45° 11' 34.00'' Nord";"19203";"SIGNAL DU PUY DE LA FOURCHE";"LE PUY MURAT";"19490";"SAINTE-FORTUNADE";"Pylône tubulaire"; 48.0;"TDF"
514158;1.81500;45.11306;"01° 48' 54.00'' Est, 45° 06' 47.00'' Nord";"19149";;"LE SIRIEX";"19380";"NEUVILLE";"Pylône autostable"; 34.0;"EDF ou GDF"
526165;1.45528;45.20250;"01° 27' 19.00'' Est, 45° 12' 09.00'' Nord";"19246";"LA COMBANELLE";;"19240";"SAINT-VIANCE";"Pylône autostable"; 31.0;"TDF"
527355;1.76639;45.25917;"01° 45' 59.00'' Est, 45° 15' 33.00'' Nord";"19272";"LA BACHELLERIE";"BD JEAN MOULIN";"19000";"TULLE";"Pylône autostable"; 52.0;"TDF"
534956;1.78528;45.26917;"01° 47' 07.00'' Est, 45° 16' 09.00'' Nord";"19272";;"TREIZE VENTS CHATEAU D EAU";"19000";"TULLE";"Mât"; 8.0;"Particulier"
534958;1.75194;45.25444;"01° 45' 07.00'' Est, 45° 15' 16.00'' Nord";"19272";;"R DES PEUPLIERS BATICOOP";"19000";"TULLE";"Mât"; 8.0;"Particulier"
542709;1.52222;45.16194;"01° 31' 20.00'' Est, 45° 09' 43.00'' Nord";"19031";;"61 BD HENRI DE JOUVENEL RÉSIDENCE LES ACACIAS  BAT B";"19100";"BRIVE-LA-GAILLARDE";"Immeuble"; 26.0;"Copropriété, Syndic, SCI"
552322;2.30694;45.45528;"02° 18' 25.00'' Est, 45° 27' 19.00'' Nord";"19055";"CHASSAGNOL";;"19160";"CHIRAC-BELLEVUE";"Pylône autostable"; 35.0;"ATC FRANCE"
555911;1.75361;45.26583;"01° 45' 13.00'' Est, 45° 15' 57.00'' Nord";"19272";"LE BOIS MANGER SUD";"RTE DU BOIS MANGER";"19000";"TULLE";"Pylône autostable"; 46.0;"HIVORY"
558127;1.50111;45.11528;"01° 30' 04.00'' Est, 45° 06' 55.00'' Nord";"19031";"LE MAS";"PUY CHAUVET";"19100";"BRIVE-LA-GAILLARDE";"Pylône autostable"; 35.2;"ORANGE"
561723;1.69000;45.06722;"01° 41' 24.00'' Est, 45° 04' 02.00'' Nord";"19138";;"LA COSTE";"19500";"MEYSSAC";"Pylône autostable"; 48.0;"TDF"
564155;1.50556;45.17278;"01° 30' 20.00'' Est, 45° 10' 22.00'' Nord";"19274";"LA GRAFEUILLE";"RTE DES CRÊTES PRÈS RÉSERVOIR";"19270";"USSAC";"Pylône autostable"; 26.0;"TDF"
565069;1.83222;44.97222;"01° 49' 56.00'' Est, 44° 58' 20.00'' Nord";"19019";"COURSAC";;"19120";"BEAULIEU-SUR-DORDOGNE";"Pylône autostable"; 25.0;"TDF"
566215;1.42028;45.09694;"01° 25' 13.00'' Est, 45° 05' 49.00'' Nord";"19191";"LE MOULIN DE FOURNET";"PRÉS D19";"19600";"SAINT-CERNIN-DE-LARCHE";"Pylône tubulaire"; 35.0;"ORANGE"
572093;1.46778;45.09222;"01° 28' 04.00'' Est, 45° 05' 32.00'' Nord";"19049";;"LE BOURG EGLISE";"19600";"CHASTEAUX";"Monument religieux"; 18.0;"Commune, communauté de commune"
578179;1.68944;45.21361;"01° 41' 22.00'' Est, 45° 12' 49.00'' Nord";"19061";;"N.89 - TUNNEL DE CORNIL ENTRÉE SUD";"19150";"CORNIL";"Tunnel"; 8.0;"DDE"
589302;1.42778;45.22056;"01° 25' 40.00'' Est, 45° 13' 14.00'' Nord";"19005";"LA BARRIERE ST LAURENT";;"19240";"ALLASSAC";"Pylône autostable"; 25.0;"ORANGE"
593042;1.51139;45.09972;"01° 30' 41.00'' Est, 45° 05' 59.00'' Nord";"19151";"LA FORÊT";"D158PYLONE ORANGE";"19600";"NOAILLES";"Pylône autostable"; 30.0;"ORANGE"
593462;1.93333;45.35167;"01° 56' 00.00'' Est, 45° 21' 06.00'' Nord";"19287";"LE MONS";"VC N°2 CHÂTEAU D EAU";"19800";"VITRAC-SUR-MONTANE";"Château d'eau - réservoir"; 33.0;"Syndicat des eaux, Adduction"
599124;1.94861;44.99389;"01° 56' 55.00'' Est, 44° 59' 38.00'' Nord";"19133";"LUC";;"19430";"MERCOEUR";"Pylône autostable"; 43.0;"Conseil Départemental"
599126;1.95778;45.06528;"01° 57' 28.00'' Est, 45° 03' 55.00'' Nord";"19045";"CHAMET";"CHEM RURAL";"19430";"LA CHAPELLE-SAINT-GERAUD";"Pylône autostable"; 40.0;"TDF"
599128;1.56250;45.41389;"01° 33' 45.00'' Est, 45° 24' 50.00'' Nord";"19276";;"LA BORIE BLANCHE";"19140";"UZERCHE";"Pylône autostable"; 35.0;"ORANGE Services Fixes"
599343;1.48028;45.15111;"01° 28' 49.00'' Est, 45° 09' 04.00'' Nord";"19031";"LE TEINCHURIER";;"19100";"BRIVE-LA-GAILLARDE";"Pylône autostable"; 30.0;"HIVORY"
601023;1.51139;45.23056;"01° 30' 41.00'' Est, 45° 13' 50.00'' Nord";"19072";"LA BACALERIE";"PRÈS A20";"19270";"DONZENAC";"Pylône autostable"; 39.0;"TDF"
606426;1.82000;45.30778;"01° 49' 12.00'' Est, 45° 18' 28.00'' Nord";"19009";"LE MAUPAS - LA JARRIGE";"N.89";"19000";"LES ANGLES-SUR-CORREZE";"Pylône autostable"; 42.0;"TDF"
608237;1.42861;45.27333;"01° 25' 43.00'' Est, 45° 16' 24.00'' Nord";"19288";"PUY POUTARDEL";;"19130";"VOUTEZAC";"Pylône autostable"; 28.0;"TDF"
608366;1.57417;45.36806;"01° 34' 27.00'' Est, 45° 22' 05.00'' Nord";"19076";"PUY DE GRÂCE";"CHEM RURAL";"19140";"ESPARTIGNAC";"Pylône autostable"; 36.0;"HIVORY"
609024;1.64694;45.16167;"01° 38' 49.00'' Est, 45° 09' 42.00'' Nord";"19068";"LACOSTE";;"19360";"DAMPNIAT";"Pylône autostable"; 46.0;"TDF"
609839;1.86361;44.98361;"01° 51' 49.00'' Est, 44° 59' 01.00'' Nord";"19007";"LA VEYSSIÈRE";"CHEM RURAL SITE TDF ALTILLAC-LA VEYSSIÈRE";"19120";"ALTILLAC";"Pylône autostable"; 33.0;"TDF"
610340;1.54889;45.14861;"01° 32' 56.00'' Est, 45° 08' 55.00'' Nord";"19031";"ROC DE MIOULE";"R GEORGES DUHAMEL LE COLOMBIER";"19100";"BRIVE-LA-GAILLARDE";"Pylône autostable"; 45.0;"TDF"
611247;1.67611;45.21694;"01° 40' 34.00'' Est, 45° 13' 01.00'' Nord";"19061";"BOUCHAILLOU";"PYLONE TDF";"19150";"CORNIL";"Pylône autostable"; 44.0;"TDF"
614520;1.52722;45.14167;"01° 31' 38.00'' Est, 45° 08' 30.00'' Nord";"19031";"LA MONTADE";;"19100";"BRIVE-LA-GAILLARDE";"Pylône autostable"; 20.0;"ORANGE"
618199;2.22333;45.47056;"02° 13' 24.00'' Est, 45° 28' 14.00'' Nord";"19180";"ARBIOULOUX";"CUSSAC";"19200";"SAINT-ANGEL";"Pylône autostable"; 35.0;"Société Privée SA"
618201;2.26278;45.34611;"02° 15' 46.00'' Est, 45° 20' 46.00'' Nord";"19148";"MIERMONT";;"19160";"NEUVIC";"Pylône autostable"; 35.0;"Société Privée SA"
619796;1.48139;45.18500;"01° 28' 53.00'' Est, 45° 11' 06.00'' Nord";"19274";"LE PEUCH";"V C N° 6 DU PONT DE LA MOUILLADE";"19270";"USSAC";"Pylône autostable"; 24.0;"Sociétés d'Autoroutes"
621097;1.42667;45.43250;"01° 25' 36.00'' Est, 45° 25' 57.00'' Nord";"19121";"MAURY";"D 418";"19210";"LUBERSAC";"Pylône autostable"; 34.0;"ORANGE"
623492;1.32639;45.31528;"01° 19' 35.00'' Est, 45° 18' 55.00'' Nord";"19094";"LE CHATENET";;"19350";"JUILLAC";"Pylône autostable"; 20.0;"ORANGE Services Fixes"
628372;1.67056;45.06639;"01° 40' 14.00'' Est, 45° 03' 59.00'' Nord";"19138";"LE PUY ROUGE";"RTE DE PIERRE TAILLADE";"19500";"MEYSSAC";"Pylône autostable"; 29.0;"ORANGE"
666860;1.92944;45.66806;"01° 55' 46.00'' Est, 45° 40' 05.00'' Nord";"19265";"LE CLUZARD";;"19170";"TARNAC";"Pylône autostable"; 40.0;"Conseil Départemental"
666894;2.17556;45.37833;"02° 10' 32.00'' Est, 45° 22' 42.00'' Nord";"19102";"LA ZOTTE";"D.88 - PRÈS RÉSERVOIR";"19160";"LAMAZIERE-BASSE";"Pylône autostable"; 43.0;"Conseil Départemental"
667180;2.05528;45.01611;"02° 03' 19.00'' Est, 45° 00' 58.00'' Nord";"19086";"FOND DE CESSEAUX";;"19430";"GOULLES";"Pylône autostable"; 35.0;"HIVORY"
667827;1.57083;45.28194;"01° 34' 15.00'' Est, 45° 16' 55.00'' Nord";"19234";"MAUMONT";;"19270";"SAINT-PARDOUX-L'ORTIGIER";"Pylône autostable"; 35.0;"Société Privée SA"
668444;1.95333;45.15833;"01° 57' 12.00'' Est, 45° 09' 30.00'' Nord";"19010";"LA VIGNERIE";"LE PUY DE LAFONT";"19320";"ARGENTAT";"Pylône autostable"; 38.0;"ATC FRANCE"
668482;1.83972;45.48472;"01° 50' 23.00'' Est, 45° 29' 05.00'' Nord";"19281";"PUY DE LA MONEDIERE";;"19260";"VEIX";"Pylône autostable"; 41.0;"DDE"
674270;1.50056;45.43000;"01° 30' 02.00'' Est, 45° 25' 48.00'' Nord";"19248";"LE RIVALEIX";"VOIE COM N°9";"19140";"SAINT-YBARD";"Pylône autostable"; 30.0;"ORANGE"
675849;2.25194;45.51972;"02° 15' 07.00'' Est, 45° 31' 11.00'' Nord";"19180";"LE PUY DES FOURCHES";;"19200";"SAINT-ANGEL";"Pylône autostable"; 44.0;"CELLNEX"
680341;2.09167;45.44194;"02° 05' 30.00'' Est, 45° 26' 31.00'' Nord";"19263";"MA TAYL LES SOUDEILLETTES";;"19300";"SOUDEILLES";"Pylône autostable"; 45.5;"ATC FRANCE"
681446;1.92278;45.30139;"01° 55' 22.00'' Est, 45° 18' 05.00'' Nord";"19081";"PUY DE LA POTENCE";;"19800";"EYREIN";"Pylône autostable"; 31.5;"TDF"
681985;2.50500;45.39778;"02° 30' 18.00'' Est, 45° 23' 52.00'' Nord";"19028";"LE BOUCHET";"CHEM DE BORT LES ORGUES À LA BASTIDE";"19110";"BORT-LES-ORGUES";"Pylône autostable"; 27.4;"ORANGE Services Fixes"
684994;1.41556;45.44806;"01° 24' 56.00'' Est, 45° 26' 53.00'' Nord";"19121";;"R DE LA CROIX DU GEAI TOUVENT";"19210";"LUBERSAC";"Château d'eau - réservoir"; 29.0;"Syndicat des eaux, Adduction"
685570;1.94250;45.59278;"01° 56' 33.00'' Est, 45° 35' 34.00'' Nord";"19033";"LA CROIX MAUDE";;"19170";"BUGEAT";"Pylône autostable"; 26.0;"HIVORY"
685613;1.87333;45.03028;"01° 52' 24.00'' Est, 45° 01' 49.00'' Nord";"19017";"ELSEIX LA GRANGE";"FONT PEYROUSE";"19430";"BASSIGNAC-LE-BAS";"Pylône autostable"; 43.0;"Conseil Départemental"
689996;2.38167;45.62028;"02° 22' 54.00'' Est, 45° 37' 13.00'' Nord";"19002";"PRÈS STADE";"ANCIENNEMENT CAMPING";"19200";"AIX";"Pylône haubané"; 40.0;"Titulaire programme Radio/TV"
690627;1.61778;45.08694;"01° 37' 04.00'' Est, 45° 05' 13.00'' Nord";"19150";"PUY DE LA RAMIÈRE";"CHEM RURAL";"19500";"NOAILHAC";"Pylône haubané"; 74.0;"ORANGE Services Fixes"
697720;1.50361;45.39472;"01° 30' 13.00'' Est, 45° 23' 41.00'' Nord";"19285";"LAVAUD";"RD 155";"19410";"VIGEOIS";"Pylône autostable"; 33.0;"HIVORY"
705412;1.86972;45.37306;"01° 52' 11.00'' Est, 45° 22' 23.00'' Nord";"19062";"LA BORIE";"CHEM DE LA FORÊT";"19800";"CORREZE";"Pylône autostable"; 41.3;"TDF"
711686;1.71278;45.59417;"01° 42' 46.00'' Est, 45° 35' 39.00'' Nord";"19036";"LES MÈZES";"CHEM RURAL DES MÈZES";"19370";"CHAMBERET";"Pylône autostable"; 42.5;"TDF"
716996;2.45500;45.43472;"02° 27' 18.00'' Est, 45° 26' 05.00'' Nord";"19252";"LA VERGNE DERRIÈRE";;"19110";"SARROUX";"Pylône autostable"; 45.0;"ORANGE"
717946;1.37694;45.38861;"01° 22' 37.00'' Est, 45° 23' 19.00'' Nord";"19243";"COMBE LONGUE";;"19230";"SAINT-SORNIN-LAVOLPS";"Pylône tubulaire"; 39.0;"TDF"
718020;1.91972;45.08194;"01° 55' 11.00'' Est, 45° 04' 55.00'' Nord";"19140";"LE PUY DU TOUR";;"19400";"MONCEAUX-SUR-DORDOGNE";"Pylône autostable"; 45.0;"TDF"
724259;1.81333;45.21472;"01° 48' 48.00'' Est, 45° 12' 53.00'' Nord";"19098";"LES MOULINIÈRES";"CHEM DE CHAUZEIX";"19150";"LAGARDE-ENVAL";"Pylône autostable"; 36.6;"HIVORY"
724271;1.78556;45.55111;"01° 47' 08.00'' Est, 45° 33' 04.00'' Nord";"19269";"LE GAULIAU";;"19260";"TREIGNAC";"Pylône autostable"; 38.0;"HIVORY"
724277;2.02639;45.57111;"02° 01' 35.00'' Est, 45° 34' 16.00'' Nord";"19160";"PUECH DE RAMOND";;"19170";"PEROLS-SUR-VEZERE";"Pylône autostable"; 30.0;"SFR"
724358;1.39556;45.24528;"01° 23' 44.00'' Est, 45° 14' 43.00'' Nord";"19182";;"HAUT GORBAS";"19130";"SAINT-AULAIRE";"Pylône autostable"; 15.5;"TDF"
724373;2.38194;45.46917;"02° 22' 55.00'' Est, 45° 28' 09.00'' Nord";"19247";"LE MAS LA PORTE";;"19200";"SAINT-VICTOUR";"Pylône autostable"; 45.0;"HIVORY"
725360;2.45000;45.62194;"02° 27' 00.00'' Est, 45° 37' 19.00'' Nord";"19134";"SOUS LES FAUX DES VERNIÈRES";;"19340";"MERLINES";"Pylône autostable"; 44.0;"ATC FRANCE"
725371;1.85528;45.32833;"01° 51' 19.00'' Est, 45° 19' 42.00'' Nord";"19062";"ENTIÉROLE";"LE PUY D'URLAN";"19800";"CORREZE";"Pylône autostable"; 45.5;"ORANGE"
727792;2.17389;45.24417;"02° 10' 26.00'' Est, 45° 14' 39.00'' Nord";"19264";"SIALVE";;"19550";"SOURSAC";"Pylône autostable"; 34.5;"TDF"
727794;1.83917;45.62306;"01° 50' 21.00'' Est, 45° 37' 23.00'' Nord";"19209";"PUY DE NIOULOU";"D 940";"19170";"SAINT-HILAIRE-LES-COURBES";"Pylône autostable"; 45.6;"Conseil Départemental"
727796;2.08306;45.08639;"02° 04' 59.00'' Est, 45° 05' 11.00'' Nord";"19193";"PUY CHASTANG";;"19220";"SAINT-CIRGUES-LA-LOUTRE";"Pylône autostable"; 47.0;"TDF"
727819;1.91444;45.33722;"01° 54' 52.00'' Est, 45° 20' 14.00'' Nord";"19081";"LES CHAMPS DE BRACH";"L'ARBRE ESPIC ZA LES CHAMPS DE BRACH";"19800";"EYREIN";"Pylône autostable"; 43.0;"TDF"
740892;1.63417;45.29194;"01° 38' 03.00'' Est, 45° 17' 31.00'' Nord";"19227";"BOIS NOIR";"PYLONE ASF ST GERMAIN";"19330";"SAINT-MEXANT";"Pylône autostable"; 44.0;"Sociétés d'Autoroutes"
743042;1.48194;45.14500;"01° 28' 55.00'' Est, 45° 08' 42.00'' Nord";"19031";;"AV JEAN CHARLES RIVET N89 CCAL CARREFOUR";"19100";"BRIVE-LA-GAILLARDE";"Pylône tubulaire"; 12.0;"ORANGE"
744131;2.02000;45.14306;"02° 01' 12.00'' Est, 45° 08' 35.00'' Nord";"19258";"PEYTE / LA BOURGEADE";;"19220";"SERVIERES-LE-CHATEAU";"Pylône autostable"; 42.7;"HIVORY"
750198;1.51778;45.46639;"01° 31' 04.00'' Est, 45° 27' 59.00'' Nord";"19248";"PIERRE BRUNE";"D 20E7";"19140";"SAINT-YBARD";"Château d'eau - réservoir"; 27.0;"Commune, communauté de commune"
754933;2.28583;45.38278;"02° 17' 09.00'' Est, 45° 22' 58.00'' Nord";"19148";"LIBERSAC NORD";;"19160";"NEUVIC";"Pylône tubulaire"; 40.0;"TDF"
756687;1.28139;45.16083;"01° 16' 53.00'' Est, 45° 09' 39.00'' Nord";"19066";"LES GRANGES";;"19520";"CUBLAC";"Pylône autostable"; 36.8;"CELLNEX"
757727;1.28389;45.16083;"01° 17' 02.00'' Est, 45° 09' 39.00'' Nord";"19066";"AU GANDOUILLE";"LES GRANGES";"19520";"CUBLAC";"Pylône autostable"; 30.0;"EDF ou GDF"
758160;1.47056;45.17139;"01° 28' 14.00'' Est, 45° 10' 17.00'' Nord";"19274";"LINTILLAC";"RD 901 DIRECTION RÉGION ASF";"19270";"USSAC";"Bâtiment"; 17.0;"Société Privée SA"
762311;1.86528;45.23500;"01° 51' 55.00'' Est, 45° 14' 06.00'' Nord";"19158";"LES PRADELLES";;"19150";"PANDRIGNES";"Pylône autostable"; 34.0;"ATC FRANCE"
765908;1.40583;45.38500;"01° 24' 21.00'' Est, 45° 23' 06.00'' Nord";"19024";"LES NEYGEATS";"PROCHE D.7";"19230";"BEYSSAC";"Pylône autostable"; 74.0;"ORANGE Services Fixes"
766441;1.94417;45.32028;"01° 56' 39.00'' Est, 45° 19' 13.00'' Nord";"19081";"LE HAUT COURBY";;"19800";"EYREIN";"Pylône autostable"; 52.0;"ORANGE Services Fixes"
766443;1.53444;45.15556;"01° 32' 04.00'' Est, 45° 09' 20.00'' Nord";"19031";;"10, AV DU GÉNÉRAL LECLERC";"19100";"BRIVE-LA-GAILLARDE";"Immeuble"; 43.0;"Copropriété, Syndic, SCI"
766506;2.08694;45.13833;"02° 05' 13.00'' Est, 45° 08' 18.00'' Nord";"19237";"LA GRÉZE";"RUE DE BELLEVUE PROCHE DE LA SCIERIE";"19220";"SAINT-PRIVAT";"Pylône autostable"; 32.0;"ORANGE Services Fixes"
766751;1.90861;45.45639;"01° 54' 31.00'' Est, 45° 27' 23.00'' Nord";"19051";"PUY CHARRIN";"LE PILARD";"19390";"CHAUMEIL";"Pylône autostable"; 33.0;"TDF"
766754;1.76944;45.26500;"01° 46' 10.00'' Est, 45° 15' 54.00'' Nord";"19272";;"11 R JEAN JAURES";"19000";"TULLE";"Immeuble"; 34.0;"Société Privée SA"
766768;1.50000;45.15056;"01° 30' 00.00'' Est, 45° 09' 02.00'' Nord";"19031";;"AV. JEAN-CHARLES RIVET TOUR ESTAVEL";"19100";"BRIVE-LA-GAILLARDE";"Immeuble"; 27.0;"Société HLM"
766774;1.52806;45.15861;"01° 31' 41.00'' Est, 45° 09' 31.00'' Nord";"19031";;"14 AV DU PRÉSIDENT ROOSEVELT";"19100";"BRIVE-LA-GAILLARDE";"Immeuble"; 25.0;"Copropriété, Syndic, SCI"
766779;1.49917;45.15972;"01° 29' 57.00'' Est, 45° 09' 35.00'' Nord";"19031";;"57 R DU COLONEL VAUJOUR";"19100";"BRIVE-LA-GAILLARDE";"Immeuble"; 34.0;"Société HLM"
766791;1.93333;45.60306;"01° 56' 00.00'' Est, 45° 36' 11.00'' Nord";"19033";"ROC CHALARD";;"19170";"BUGEAT";"Pylône autostable"; 38.0;"ORANGE Services Fixes"
767757;1.48861;45.15083;"01° 29' 19.00'' Est, 45° 09' 03.00'' Nord";"19031";;"3 AVE ROGER  RONCIER";"19100";"BRIVE-LA-GAILLARDE";"Pylône tubulaire"; 22.0;"ORANGE"
767791;2.14917;45.13194;"02° 08' 57.00'' Est, 45° 07' 55.00'' Nord";"19214";"CROIX DE ROSIERS";"CHEM DE CLAMENSAC";"19220";"SAINT-JULIEN-AUX-BOIS";"Pylône autostable"; 42.7;"HIVORY"
767892;1.57556;45.18028;"01° 34' 32.00'' Est, 45° 10' 49.00'' Nord";"19123";"BOS CLOS";"CHEM RURAL N° 11";"19360";"MALEMORT-SUR-CORREZE";"Pylône autostable"; 30.0;"ORANGE"
767900;1.74889;45.58500;"01° 44' 56.00'' Est, 45° 35' 06.00'' Nord";"19036";"ARZOUZE";;"19370";"CHAMBERET";"Pylône autostable"; 47.0;"Conseil Départemental"
767905;1.54806;45.16111;"01° 32' 53.00'' Est, 45° 09' 40.00'' Nord";"19031";;"AV LÉO LAGRANGE STADIUM";"19100";"BRIVE-LA-GAILLARDE";"Pylône autostable"; 35.0;"ORANGE"
767915;1.68639;45.26222;"01° 41' 11.00'' Est, 45° 15' 44.00'' Nord";"19082";"PUY-DU-BREUIL";"VOIE COMMUNALE";"19330";"FAVARS";"Pylône autostable"; 47.0;"Conseil Départemental"
767917;1.55583;45.15750;"01° 33' 21.00'' Est, 45° 09' 27.00'' Nord";"19031";;"7 ALLÉE DANIEL DE COSNAC";"19100";"BRIVE-LA-GAILLARDE";"Immeuble"; 35.5;"Société HLM"
767920;2.14083;45.61806;"02° 08' 27.00'' Est, 45° 37' 05.00'' Nord";"19244";"AU PADIN- L'ARFEIX DE PIARROU";"D.49";"19250";"SAINT-SULPICE-LES-BOIS";"Pylône autostable"; 35.0;"ATC FRANCE"
767923;2.23611;45.32889;"02° 14' 10.00'' Est, 45° 19' 44.00'' Nord";"19110";"LE POUJOULOUX";"CHEM RURAL  - D.166";"19160";"LATRONCHE";"Pylône autostable"; 43.0;"ATC FRANCE"
767928;2.26917;45.69111;"02° 16' 09.00'' Est, 45° 41' 28.00'' Nord";"19238";"LES VERGNES LONGUES";"CHEM PUY DE LOMET";"19290";"SAINT-REMY";"Pylône autostable"; 46.0;"TDF"
767930;1.57667;45.16500;"01° 34' 36.00'' Est, 45° 09' 54.00'' Nord";"19123";;"AVE TOUR DE LOYRE";"19360";"MALEMORT-SUR-CORREZE";"Pylône autostable"; 30.0;"ORANGE"
767943;1.88333;45.51333;"01° 53' 00.00'' Est, 45° 30' 48.00'' Nord";"19112";"PUY DE LA CHABRELASSE";"CHEMIN COL DE LESTARDS";"19170";"LESTARDS";"Pylône autostable"; 38.0;"Conseil Départemental"
767956;2.14167;45.25000;"02° 08' 30.00'' Est, 45° 15' 00.00'' Nord";"19111";"SUC DE LA GRANGE";"RTE DU POTEAU DU GAY";"19550";"LAVAL-SUR-LUZEGE";"Pylône autostable"; 38.0;"Conseil Départemental"
767960;1.89889;45.20583;"01° 53' 56.00'' Est, 45° 12' 21.00'' Nord";"19235";"LES GRENOULLIERS";"CHEM DÉPARTEMENTAL N°10 LA CROIX DU DON";"19150";"SAINT-PAUL";"Pylône autostable"; 40.2;"Conseil Départemental"
767971;1.84472;45.57389;"01° 50' 41.00'' Est, 45° 34' 26.00'' Nord";"19112";"L'ARFOUILLERE";;"19170";"LESTARDS";"Pylône autostable"; 47.0;"TDF"
767986;2.28611;45.61389;"02° 17' 10.00'' Est, 45° 36' 50.00'' Nord";"19233";"LE FEYT";"D 49 - LE RESERVOIR";"19200";"SAINT-PARDOUX-LE-VIEUX";"Pylône autostable"; 36.0;"TDF"
767990;1.51000;45.14861;"01° 30' 36.00'' Est, 45° 08' 55.00'' Nord";"19031";;"AV JEAN-JACQUES ROUSSEAU";"19100";"BRIVE-LA-GAILLARDE";"Pylône autostable"; 30.0;"ORANGE"
767997;1.47000;45.16000;"01° 28' 12.00'' Est, 45° 09' 36.00'' Nord";"19229";;"CHEM DU POUGET";"19600";"SAINT-PANTALEON-DE-LARCHE";"Pylône autostable"; 26.0;"ORANGE"
775068;1.56333;45.16167;"01° 33' 48.00'' Est, 45° 09' 42.00'' Nord";"19123";"R HENRI BESSEMER";"R DE PALISSE";"19360";"MALEMORT-SUR-CORREZE";"Pylône autostable"; 48.1;"TDF"
783178;2.39111;45.58028;"02° 23' 28.00'' Est, 45° 34' 49.00'' Nord";"19204";"PUY GROS";"BOIS DE BONNAYGUE";"19200";"SAINT-FREJOUX";"Pylône autostable"; 58.0;"Sociétés d'Autoroutes"
801491;1.77250;45.20000;"01° 46' 21.00'' Est, 45° 12' 00.00'' Nord";"19203";"LONGE VERGNE";"D940";"19490";"SAINTE-FORTUNADE";"Mât"; 12.0;"ORANGE"
806703;2.36917;45.62306;"02° 22' 09.00'' Est, 45° 37' 23.00'' Nord";"19002";"PUY LABARRE";;"19200";"AIX";"Pylône autostable"; 40.0;"EDF ou GDF"
823872;1.82222;45.42194;"01° 49' 20.00'' Est, 45° 25' 19.00'' Nord";"19181";"L'AIGUILLON";;"19390";"SAINT-AUGUSTIN";"Pylône autostable"; 41.5;"Conseil Départemental"
828190;2.01389;45.71861;"02° 00' 50.00'' Est, 45° 43' 07.00'' Nord";"19164";"PUY DE FAYE";;"19290";"PEYRELEVADE";"Pylône autostable"; 31.5;"Conseil Départemental"
828219;1.51750;45.06500;"01° 31' 03.00'' Est, 45° 03' 54.00'' Nord";"19147";"LA LISSADIERE";;"19600";"NESPOULS";"Pylône autostable"; 53.1;"ATC FRANCE"
828230;1.50833;45.37806;"01° 30' 30.00'' Est, 45° 22' 41.00'' Nord";"19285";"LA BORIE LABAT";;"19410";"VIGEOIS";"Pylône autostable"; 31.0;"TDF"
837695;1.53472;45.14528;"01° 32' 05.00'' Est, 45° 08' 43.00'' Nord";"19031";"ST ANTOINE";"41 AVE EDMOND MICHELET R INGÉNIEUR BRASSAUD";"19100";"BRIVE-LA-GAILLARDE";"Pylône autostable"; 40.0;"Titulaire programme Radio/TV"
846473;2.08333;45.25944;"02° 05' 00.00'' Est, 45° 15' 34.00'' Nord";"19225";"LAUBROT";;"19320";"SAINT-MERD-DE-LAPLEAU";"Pylône autostable"; 31.0;"Conseil Départemental"
863906;2.32806;45.36917;"02° 19' 41.00'' Est, 45° 22' 09.00'' Nord";"19256";"LE BATTUT";"D 20E2";"19160";"SERANDON";"Pylône autostable"; 42.7;"ATC FRANCE"
869212;1.77944;45.27500;"01° 46' 46.00'' Est, 45° 16' 30.00'' Nord";"19272";;"CHEM DU PONT DU SOLDAT";"19000";"TULLE";"pylône arbre"; 12.0;"Commune, communauté de commune"
869214;1.32833;45.24778;"01° 19' 42.00'' Est, 45° 14' 52.00'' Nord";"19015";;"D 140 LESCURE RUE DE LA BOISSIERE";"19310";"AYEN";"pylône arbre"; 12.0;"EDF ou GDF"
869216;1.95944;45.47222;"01° 57' 34.00'' Est, 45° 28' 20.00'' Nord";"19249";;"D 16 LE PILARD";"19300";"SAINT-YRIEIX-LE-DEJALAT";"Mât"; 10.0;"Etat, Ministère"
869220;1.76528;45.24972;"01° 45' 55.00'' Est, 45° 14' 59.00'' Nord";"19101";;"D 940 LE PONT DE LA PIERRE";"19150";"LAGUENNE";"Bâtiment"; 7.0;"Etat, Ministère"
869222;1.84389;44.97722;"01° 50' 38.00'' Est, 44° 58' 38.00'' Nord";"19007";;"D 940 PONT SUR DORDOGNE";"19120";"ALTILLAC";"Bâtiment"; 6.0;"Commune, communauté de commune"
869224;1.94694;45.08361;"01° 56' 49.00'' Est, 45° 05' 01.00'' Nord";"19010";;"6 R  HENRI DUNANT PRACH";"19400";"ARGENTAT";"Bâtiment"; 8.0;"Etat, Ministère"
869226;1.71722;45.36556;"01° 43' 02.00'' Est, 45° 21' 56.00'' Nord";"19255";;"SENTE DU PICATARD AV NATIONALE";"19700";"SEILHAC";"Pylône autostable"; 10.0;"EDF ou GDF"
869228;1.88000;45.37194;"01° 52' 48.00'' Est, 45° 22' 19.00'' Nord";"19062";;"LA CHAPELLE VC 13";"19800";"CORREZE";"Mât"; 10.0;"Etat, Ministère"
882088;2.18667;45.21750;"02° 11' 12.00'' Est, 45° 13' 03.00'' Nord";"19173";"BOIS DE CHAREL";;"19220";"RILHAC-XAINTRIE";"Pylône autostable"; 23.0;"TDF"
882124;1.95528;45.03611;"01° 57' 19.00'' Est, 45° 02' 10.00'' Nord";"19045";"LE PIAGE";;"19430";"LA CHAPELLE-SAINT-GERAUD";"Pylône autostable"; 82.0;"ORANGE Services Fixes"
882133;1.54806;45.13000;"01° 32' 53.00'' Est, 45° 07' 48.00'' Nord";"19031";;"LES ESCROZES";"19100";"BRIVE-LA-GAILLARDE";"Pylône autostable"; 63.0;"ORANGE Services Fixes"
886985;1.30417;45.21556;"01° 18' 15.00'' Est, 45° 12' 56.00'' Nord";"19161";"AUX PLAYS";;"19310";"PERPEZAC-LE-BLANC";"Pylône autostable"; 27.0;"CELLNEX"
893467;1.91917;45.49194;"01° 55' 09.00'' Est, 45° 29' 31.00'' Nord";"19088";"LE BOURG";;"19300";"GRANDSAIGNE";"Pylône autostable"; 22.5;"ATC FRANCE"
900041;2.50500;45.41000;"02° 30' 18.00'' Est, 45° 24' 36.00'' Nord";"19028";"LES NADAUDS";;"19110";"BORT-LES-ORGUES";"Local technique"; 8.0;"EDF ou GDF"
902057;2.31528;45.52389;"02° 18' 55.00'' Est, 45° 31' 26.00'' Nord";"19275";"SARSOUX";"CHATEAU D'EAU";"19200";"USSEL";"Château d'eau - réservoir"; 46.0;"Syndicat des eaux, Adduction"
905227;1.79250;45.28167;"01° 47' 33.00'' Est, 45° 16' 54.00'' Nord";"19272";;"AV EVARISTE GALLOIS CSEC ZONE INDUSTRIELLE EST";"19000";"TULLE";"Pylône autostable"; 30.0;"Titulaire programme Radio/TV"
906839;1.50528;45.15861;"01° 30' 19.00'' Est, 45° 09' 31.00'' Nord";"19031";;"27 R ROBESPIERRE";"19100";"BRIVE-LA-GAILLARDE";"Immeuble"; 31.1;"Société HLM"
912427;2.45861;45.39944;"02° 27' 31.00'' Est, 45° 23' 58.00'' Nord";"19252";"LA PYRAMIDE";"PUY DE BORT";"19110";"SARROUX";"Pylône haubané"; 46.0;"SDIS, secours, incendie"
912444;1.45194;45.12000;"01° 27' 07.00'' Est, 45° 07' 12.00'' Nord";"19117";"GRAMONT HAUT";;"19600";"LISSAC-SUR-COUZE";"Pylône autostable"; 42.0;"DDE"
917810;1.41556;45.30583;"01° 24' 56.00'' Est, 45° 18' 21.00'' Nord";"19288";"LAUMONERIE";"PONT SUR LA LOYRE D 134";"19130";"VOUTEZAC";"Bâtiment"; 6.0;"Etat, Ministère"
924971;2.35111;45.60389;"02° 21' 04.00'' Est, 45° 36' 14.00'' Nord";"19002";"VINTEJOUX";"VINTEJOUX";"19200";"AIX";"Pylône tubulaire"; 7.5;"BOUYGUES"
949598;2.02444;45.42750;"02° 01' 28.00'' Est, 45° 25' 39.00'' Nord";"19073";"COMBE CHAVE";"COMBE CHAVE";"19300";"EGLETONS";"Pylône tubulaire"; 13.1;"BOUYGUES"
959750;1.85917;45.40167;"01° 51' 33.00'' Est, 45° 24' 06.00'' Nord";"19137";"VILLAGE VACANCES MEYRIGNAC";"VILLAGE VACANCES MEYRIGNAC D26";"19800";"MEYRIGNAC-L'EGLISE";"Mât métallique"; 7.0;"Société Privée SA"
960988;1.38917;45.39056;"01° 23' 21.00'' Est, 45° 23' 26.00'' Nord";"19243";"ROUTE DE TROCHE";;"19230";"SAINT-SORNIN-LAVOLPS";"Immeuble"; 10.0;"Société Privée SA"
962632;2.33889;45.55556;"02° 20' 20.00'' Est, 45° 33' 20.00'' Nord";"19275";;"7 RUE DES TISSERANDS ZA DU THEIL";"19200";"USSEL";"Pylône autostable"; 30.0;"ORANGE"
980510;1.73194;45.10444;"01° 43' 55.00'' Est, 45° 06' 16.00'' Nord";"19257";"LESCUROTTE";"LA PLANTADE";"19190";"SERILHAC";"Château d'eau - réservoir"; 21.0;"Syndicat des eaux, Adduction"
1035971;1.46389;45.04194;"01° 27' 50.00'' Est, 45° 02' 31.00'' Nord";"19077";"LA PERRUQUERIE";;"19600";"ESTIVALS";"Pylône autostable"; 30.0;"SNCF Réseau"
1040229;1.47222;45.06472;"01° 28' 20.00'' Est, 45° 03' 53.00'' Nord";"19049";"MUREL";;"19600";"CHASTEAUX";"Pylône autostable"; 20.0;"SNCF Réseau"
1043859;1.52139;45.15389;"01° 31' 17.00'' Est, 45° 09' 14.00'' Nord";"19031";;"AVENUE JEAN JAURÈS";"19100";"BRIVE-LA-GAILLARDE";"Pylône tubulaire"; 25.0;"SNCF Réseau"
1047581;1.74528;45.34194;"01° 44' 43.00'' Est, 45° 20' 31.00'' Nord";"19146";"RUE DES LANDES";"SOLEIHAVOUP";"19460";"NAVES";"Bâtiment"; 6.0;"EDF ou GDF"
1047595;1.55056;45.16417;"01° 33' 02.00'' Est, 45° 09' 51.00'' Nord";"19031";"LA BORIETTE";"RUE LOUIS BROGLIE";"19100";"BRIVE-LA-GAILLARDE";"Bâtiment"; 7.0;"EDF ou GDF"
1047603;1.63944;45.19167;"01° 38' 22.00'' Est, 45° 11' 30.00'' Nord";"19211";"LA VERGNE";;"19560";"SAINT-HILAIRE-PEYROUX";"Bâtiment"; 6.0;"EDF ou GDF"
1047614;1.82278;45.34111;"01° 49' 22.00'' Est, 45° 20' 28.00'' Nord";"19016";"LA COUR";"D53 PROCHE CHAPELLE DE CHASTRES";"19800";"BAR";"Local technique"; 5.0;"EDF ou GDF"
1047642;2.26444;45.38806;"02° 15' 52.00'' Est, 45° 23' 17.00'' Nord";"19148";"BECHE";;"19160";"NEUVIC";"Bâtiment"; 6.0;"EDF ou GDF"
1047649;2.07528;45.40028;"02° 04' 31.00'' Est, 45° 24' 01.00'' Nord";"19145";"LE SOUNIT";"PE EGLETONS";"19300";"MOUSTIER-VENTADOUR";"Bâtiment"; 8.0;"EDF ou GDF"
1049054;1.52528;45.15694;"01° 31' 31.00'' Est, 45° 09' 25.00'' Nord";"19031";;"AVENUE DU PRÉSIDENT ROOSEVELT";"19100";"BRIVE-LA-GAILLARDE";"Bâtiment"; 10.0;"EDF ou GDF"
1049056;1.73778;45.26667;"01° 44' 16.00'' Est, 45° 15' 60.00'' Nord";"19038";"HAUTEFAGE";"D9 ROUTE DE TULLE  CHAMEYRAT/AE TULLE HAUTEFAGE";"19330";"CHAMEYRAT";"Bâtiment"; 8.0;"EDF ou GDF"
1049058;1.55028;45.43028;"01° 33' 01.00'' Est, 45° 25' 49.00'' Nord";"19276";"LE BRADASCOU";"UZERCHE/POSTE LE BRADASCOU";"19140";"UZERCHE";"Bâtiment"; 9.0;"EDF ou GDF"
1049060;2.31333;45.55333;"02° 18' 48.00'' Est, 45° 33' 12.00'' Nord";"19275";;"7 RUE DE LA PRAIRIE  USSEL/AE - 7 AVENUE DE LA PRAI";"19200";"USSEL";"Bâtiment"; 10.0;"EDF ou GDF"
1049062;1.40972;45.25861;"01° 24' 35.00'' Est, 45° 15' 31.00'' Nord";"19153";;"BD H. DE JOUVENEL";"19130";"OBJAT";"Bâtiment"; 5.0;"EDF ou GDF"
1049064;2.13750;45.68500;"02° 08' 15.00'' Est, 45° 41' 06.00'' Nord";"19241";"LE VIEUX MOULIN";"D80";"19290";"SAINT-SETIERS";"Bâtiment"; 7.0;"EDF ou GDF"
1049066;2.44694;45.66111;"02° 26' 49.00'' Est, 45° 39' 40.00'' Nord";"19080";;"ROUTE DE LA COURTINE POSTE ELECTRIQUE";"19340";"EYGURANDE";"Local technique"; 4.0;"EDF ou GDF"
1049070;2.08556;45.36139;"02° 05' 08.00'' Est, 45° 21' 41.00'' Nord";"19145";"ARZALIER";"D16  MOUSTIER-VENTADOUR - PUY DE LA";"19300";"MOUSTIER-VENTADOUR";"Pylône autostable"; 43.0;"EDF ou GDF"
1049072;1.40361;45.42917;"01° 24' 13.00'' Est, 45° 25' 45.00'' Nord";"19121";"FREYGEDONNE";"POSTE ELECTRIQUE";"19210";"LUBERSAC";"Bâtiment"; 6.0;"EDF ou GDF"
1049074;2.31250;45.56417;"02° 18' 45.00'' Est, 45° 33' 51.00'' Nord";"19275";;"ZA PETITE BORDE  USSEL/PE";"19200";"USSEL";"Mât"; 11.0;"EDF ou GDF"
1049692;1.92194;45.59250;"01° 55' 19.00'' Est, 45° 35' 33.00'' Nord";"19033";;"RUE LE VEZOU D 32 BUGEAT/PE - LE BOURG - VEZOU";"19170";"BUGEAT";"Bâtiment"; 5.0;"EDF ou GDF"
1056668;1.49361;45.20167;"01° 29' 37.00'' Est, 45° 12' 06.00'' Nord";"19274";"LA PRADE";;"19270";"USSAC";"Pylône autostable"; 35.0;"SNCF Réseau"
1057922;1.54472;45.13722;"01° 32' 41.00'' Est, 45° 08' 14.00'' Nord";"19031";"CHEMIN DE LA CIBLE";;"19100";"BRIVE-LA-GAILLARDE";"Pylône autostable"; 30.0;"SNCF Réseau"
1059355;1.49444;45.05889;"01° 29' 40.00'' Est, 45° 03' 32.00'' Nord";"19147";"BELVEYRE";;"19600";"NESPOULS";"Pylône autostable"; 32.0;"ORANGE"
1060579;1.48611;45.14917;"01° 29' 10.00'' Est, 45° 08' 57.00'' Nord";"19031";;"AVENUE JEAN CHARLES RIVET PROCHE ROND POINT ANDRÉ LALANDE";"19100";"BRIVE-LA-GAILLARDE";"Bâtiment"; 4.0;"EDF ou GDF"
1060733;1.73889;45.24278;"01° 44' 20.00'' Est, 45° 14' 34.00'' Nord";"19272";"MULATET";"ZAC MULATET (TST) INDEX 20";"19000";"TULLE";"Mât"; 12.0;"EDF ou GDF"
1060735;1.86028;45.53861;"01° 51' 37.00'' Est, 45° 32' 19.00'' Nord";"19112";"NESPOUX";;"19170";"LESTARDS";"Pylône autostable"; 30.0;"EDF ou GDF"
1061843;1.79111;44.99694;"01° 47' 28.00'' Est, 44° 59' 49.00'' Nord";"19260";"LES PRADELS";"D 153 E POSTE ELECTRIQUE";"19120";"SIONIAC";"Bâtiment"; 6.0;"EDF ou GDF"
1062205;1.95250;45.10472;"01° 57' 09.00'' Est, 45° 06' 17.00'' Nord";"19010";"POSTE LE SABLIER";;"19400";"ARGENTAT";"Bâtiment"; 6.0;"EDF ou GDF"
1062210;1.93417;45.09417;"01° 56' 03.00'' Est, 45° 05' 39.00'' Nord";"19010";;"PLACE JOSEPH FAURE";"19400";"ARGENTAT";"Bâtiment"; 13.0;"EDF ou GDF"
1062998;1.95944;45.06361;"01° 57' 34.00'' Est, 45° 03' 49.00'' Nord";"19045";"CHAMET";"PRÈS RÉSERVOIR EX LES MÉNÉDIÈRES";"19430";"LA CHAPELLE-SAINT-GERAUD";"Pylône autostable"; 15.0;"Titulaire programme Radio/TV"
1107507;1.52556;45.13639;"01° 31' 32.00'' Est, 45° 08' 11.00'' Nord";"19031";;"PUY LAPORTE PK 502.17";"19100";"BRIVE-LA-GAILLARDE";"Pylône autostable"; 20.0;"SNCF Réseau"
1178940;1.90389;45.33806;"01° 54' 14.00'' Est, 45° 20' 17.00'' Nord";"19081";"LES CHAMPS DE BRACH";"ZAC DE MONTANE";"19800";"EYREIN";"Bâtiment"; 4.0;"EDF ou GDF"
1181514;1.75583;45.25778;"01° 45' 21.00'' Est, 45° 15' 28.00'' Nord";"19272";"CITÉ CAZEAU";"RUE MAURICE CAQUOT";"19000";"TULLE";"Bâtiment"; 27.0;"EDF ou GDF"
1183870;1.75583;45.25389;"01° 45' 21.00'' Est, 45° 15' 14.00'' Nord";"19272";;"RUE DE CUEILLE";"19000";"TULLE";"Bâtiment"; 6.0;"EDF ou GDF"
1188139;1.76944;45.26444;"01° 46' 10.00'' Est, 45° 15' 52.00'' Nord";"19272";;"15 PLACE MARTIAL BRIGOULEIX CITÉ ADMINISTRATIVE";"19000";"TULLE";"Bâtiment"; 97.5;"Etat, Ministère"
1201140;1.99722;45.24722;"01° 59' 50.00'' Est, 45° 14' 50.00'' Nord";"19125";"LA VALETTE";"LA FAULIERE";"19320";"MARCILLAC-LA-CROISILLE";"Ouvrage d'art (pont, viaduc)"; 5.0;"EDF ou GDF"
1201440;1.54194;45.53667;"01° 32' 31.00'' Est, 45° 32' 12.00'' Nord";"19129";;"ROUTE DE LASCHAMPS";"19510";"MASSERET";"Pylône autostable"; 25.0;"SNCF Réseau"
1201444;1.57000;45.49083;"01° 34' 12.00'' Est, 45° 29' 27.00'' Nord";"19250";"LA FRETILLE";;"19510";"SALON-LA-TOUR";"Pylône autostable"; 20.0;"SNCF Réseau"
1201446;1.57111;45.44500;"01° 34' 16.00'' Est, 45° 26' 42.00'' Nord";"19276";"LA BARRIÈRE";"AVENUE DE LA GARE";"19140";"UZERCHE";"Pylône autostable"; 25.0;"SNCF Réseau"
1201448;1.53250;45.41889;"01° 31' 57.00'' Est, 45° 25' 08.00'' Nord";"19276";"LE GOUR NOIR";;"19140";"UZERCHE";"Pylône autostable"; 25.0;"SNCF Réseau"
1263053;1.50167;45.23361;"01° 30' 06.00'' Est, 45° 14' 01.00'' Nord";"19072";"PETIT LAVAUD";;"19270";"DONZENAC";"Pylône autostable"; 30.0;"SNCF Réseau"
1274453;1.46444;45.27611;"01° 27' 52.00'' Est, 45° 16' 34.00'' Nord";"19005";"LA PIALEPORCHIE";"0";"19240";"ALLASSAC";"Pylône autostable"; 25.0;"SNCF Réseau"
1283105;2.04417;45.39611;"02° 02' 39.00'' Est, 45° 23' 46.00'' Nord";"19073";"PUY CHASTAGNOL";"PYLONE FT";"19300";"EGLETONS";"Pylône autostable"; 30.0;"ORANGE Services Fixes"
1286450;1.47194;45.31833;"01° 28' 19.00'' Est, 45° 19' 06.00'' Nord";"19078";;"GARE";"19410";"ESTIVAUX";"Pylône autostable"; 12.0;"SNCF Réseau"
1286468;1.51528;45.38306;"01° 30' 55.00'' Est, 45° 22' 59.00'' Nord";"19285";;"RUE DE LA GARE";"19410";"VIGEOIS";"Pylône autostable"; 18.0;"SNCF Réseau"
1288081;1.36639;45.21278;"01° 21' 59.00'' Est, 45° 12' 46.00'' Nord";"19289";"SOUS LES TOURS";"TERRE DE LA TOUR";"19310";"YSSANDON";"Pylône autostable"; 31.0;"EDF ou GDF"
1316127;1.53806;45.25389;"01° 32' 17.00'' Est, 45° 15' 14.00'' Nord";"19072";"ESCUDIER NORD";"PUY LACHAUD REGARDADOUR";"19270";"DONZENAC";"Pylône autostable"; 49.0;"TDF"
1319106;1.54944;45.13389;"01° 32' 58.00'' Est, 45° 08' 02.00'' Nord";"19031";;"CHEMIN DE LA CIBLE TÊTE DE TUNNEL CÔTÉ BRIVE";"19100";"BRIVE-LA-GAILLARDE";"Ouvrage d'art (pont, viaduc)"; 11.0;"SNCF Réseau"
1334340;1.53000;45.13972;"01° 31' 48.00'' Est, 45° 08' 23.00'' Nord";"19031";;"DANS LE TUNNEL DE ST ANTOINE";"19100";"BRIVE-LA-GAILLARDE";"Ouvrage d'art (pont, viaduc)"; 6.0;"SNCF Réseau"
1334344;1.51806;45.13056;"01° 31' 05.00'' Est, 45° 07' 50.00'' Nord";"19031";;"SORTIE TUNNEL DE PLANCHE TORTE, CÔTÉ MONTAUBAN";"19100";"BRIVE-LA-GAILLARDE";"Ouvrage d'art (pont, viaduc)"; 12.0;"SNCF Réseau"
1334350;1.51889;45.09806;"01° 31' 08.00'' Est, 45° 05' 53.00'' Nord";"19151";;"SORTIE TUNNEL NOAILLES, CÔTÉ MONTAUBAN";"19600";"NOAILLES";"Ouvrage d'art (pont, viaduc)"; 11.2;"SNCF Réseau"
1334352;1.47028;45.06167;"01° 28' 13.00'' Est, 45° 03' 42.00'' Nord";"19049";;"SORTIE TUNNEL MUREL, CÔTÉ MONTAUBAN";"19600";"CHASTEAUX";"Ouvrage d'art (pont, viaduc)"; 11.0;"SNCF Réseau"
1334354;1.47778;45.08111;"01° 28' 40.00'' Est, 45° 04' 52.00'' Nord";"19049";"LA LABOUR";"TUNNEL DE FONTILLE, CÔTÉ MONTAUBAN";"19600";"CHASTEAUX";"Mât métallique"; 10.0;"SNCF Réseau"
1334356;1.48111;45.08278;"01° 28' 52.00'' Est, 45° 04' 58.00'' Nord";"19049";;"ENTRÉE TUNNEL DE FONTILLE, CÔTÉ LES AUBRAIS";"19600";"CHASTEAUX";"Ouvrage d'art (pont, viaduc)"; 13.0;"SNCF Réseau"
1352122;1.51417;45.09000;"01° 30' 51.00'' Est, 45° 05' 24.00'' Nord";"19151";"COUZE";;"19600";"NOAILLES";"Pylône autostable"; 25.3;"SNCF Réseau"
1392015;1.53639;45.14611;"01° 32' 11.00'' Est, 45° 08' 46.00'' Nord";"19031";;"ENTRÉE TUNNEL DE ST ANTOINE, CÔTÉ LES AUBRAIS";"19100";"BRIVE-LA-GAILLARDE";"Ouvrage d'art (pont, viaduc)"; 11.0;"SNCF Réseau"
1392017;1.51944;45.13250;"01° 31' 10.00'' Est, 45° 07' 57.00'' Nord";"19031";;"ENTRÉE TUNNEL DE PLANCHE TORTE, CÔTÉ LES AUBRAIS";"19100";"BRIVE-LA-GAILLARDE";"Ouvrage d'art (pont, viaduc)"; 11.5;"SNCF Réseau"
1392019;1.51833;45.12361;"01° 31' 06.00'' Est, 45° 07' 25.00'' Nord";"19031";"LIGNIROUX";"EN BORDURE DE VOIES FERRÉES";"19100";"BRIVE-LA-GAILLARDE";"Pylône tubulaire"; 27.0;"SNCF Réseau"
1393111;1.52139;45.10528;"01° 31' 17.00'' Est, 45° 06' 19.00'' Nord";"19151";;"ENTRÉE TUNNEL NOAILLES, CÔTÉ LES AUBRAIS";"19600";"NOAILLES";"Ouvrage d'art (pont, viaduc)"; 13.5;"SNCF Réseau"
1398021;1.81250;45.11472;"01° 48' 45.00'' Est, 45° 06' 53.00'' Nord";"19149";"SIRIEIX";;"19380";"NEUVILLE";"Pylône autostable"; 30.0;"Société Privée SA"
1410533;1.46472;45.28500;"01° 27' 53.00'' Est, 45° 17' 06.00'' Nord";"19005";"LA RIVIÈRE";"CENTRALE ELECTRIQUE DU SAILLANT";"19240";"ALLASSAC";"Bâtiment"; 6.0;"EDF ou GDF"
1449646;1.64361;45.38667;"01° 38' 37.00'' Est, 45° 23' 12.00'' Nord";"19213";"LES NOILHETTES";"CHAMP DU CRAU";"19700";"SAINT-JAL";"Pylône autostable"; 40.0;"TDF"
1453833;1.49306;45.33861;"01° 29' 35.00'' Est, 45° 20' 19.00'' Nord";"19078";"BOIS BAS";;"19410";"ESTIVAUX";"Tunnel"; 6.2;"SNCF Réseau"
1453835;1.49111;45.33667;"01° 29' 28.00'' Est, 45° 20' 12.00'' Nord";"19078";"LE COUTAL";;"19410";"ESTIVAUX";"Tunnel"; 6.1;"SNCF Réseau"
1453837;1.48528;45.33306;"01° 29' 07.00'' Est, 45° 19' 59.00'' Nord";"19078";"LE COUTAL";;"19410";"ESTIVAUX";"Tunnel"; 6.1;"SNCF Réseau"
1454133;1.48083;45.32944;"01° 28' 51.00'' Est, 45° 19' 46.00'' Nord";"19078";"LE CABIROL";;"19410";"ESTIVAUX";"Tunnel"; 6.1;"SNCF Réseau"
1454135;1.47722;45.32389;"01° 28' 38.00'' Est, 45° 19' 26.00'' Nord";"19078";"LA GARE";;"19410";"ESTIVAUX";"Tunnel"; 6.5;"SNCF Réseau"
1454137;1.46639;45.31306;"01° 27' 59.00'' Est, 45° 18' 47.00'' Nord";"19078";"LES GIROUX";;"19410";"ESTIVAUX";"Tunnel"; 6.3;"SNCF Réseau"
1455060;1.46722;45.30583;"01° 28' 02.00'' Est, 45° 18' 21.00'' Nord";"19288";"CHAMPS DE BIARD";;"19130";"VOUTEZAC";"Mât métallique"; 4.0;"SNCF Réseau"
1455065;1.46833;45.30194;"01° 28' 06.00'' Est, 45° 18' 07.00'' Nord";"19288";"LES COUTEAUX";;"19130";"VOUTEZAC";"Mât métallique"; 4.0;"SNCF Réseau"
1455071;1.47000;45.29667;"01° 28' 12.00'' Est, 45° 17' 48.00'' Nord";"19288";"LE ROUCHET";;"19130";"VOUTEZAC";"Mât métallique"; 4.0;"SNCF Réseau"
1460828;1.52167;45.38944;"01° 31' 18.00'' Est, 45° 23' 22.00'' Nord";"19285";"LES BORDES";;"19410";"VIGEOIS";"Mât métallique"; 4.0;"SNCF Réseau"
1460843;1.52000;45.38639;"01° 31' 12.00'' Est, 45° 23' 11.00'' Nord";"19285";"LA COTE";;"19410";"VIGEOIS";"Mât métallique"; 4.0;"SNCF Réseau"
1460845;1.50389;45.36444;"01° 30' 14.00'' Est, 45° 21' 52.00'' Nord";"19285";"MEYVIALLES BAS";;"19410";"VIGEOIS";"Mât métallique"; 4.2;"SNCF Réseau"
1460847;1.50917;45.36778;"01° 30' 33.00'' Est, 45° 22' 04.00'' Nord";"19285";"MEYVIALLES BAS";;"19410";"VIGEOIS";"Mât métallique"; 3.5;"SNCF Réseau"
1461863;1.46889;45.28861;"01° 28' 08.00'' Est, 45° 17' 19.00'' Nord";"19005";"LES GRANDS BOIS";;"19240";"ALLASSAC";"Tunnel"; 7.1;"SNCF Réseau"
1461865;1.46889;45.28639;"01° 28' 08.00'' Est, 45° 17' 11.00'' Nord";"19005";"LA RIVIÈRE";;"19240";"ALLASSAC";"Mât métallique"; 4.0;"SNCF Réseau"
1461871;1.50250;45.36111;"01° 30' 09.00'' Est, 45° 21' 40.00'' Nord";"19285";"BLEYGEAT SUD";;"19410";"VIGEOIS";"Mât métallique"; 3.0;"SNCF Réseau"
1461874;1.50194;45.35583;"01° 30' 07.00'' Est, 45° 21' 21.00'' Nord";"19285";"BLEYGEAT SUD";;"19410";"VIGEOIS";"Mât métallique"; 4.0;"SNCF Réseau"
1461876;1.49917;45.34861;"01° 29' 57.00'' Est, 45° 20' 55.00'' Nord";"19285";"LA GARENNE";;"19410";"VIGEOIS";"Mât métallique"; 3.0;"SNCF Réseau"
1465946;2.03361;45.61972;"02° 02' 01.00'' Est, 45° 37' 11.00'' Nord";"19226";;"LA CROIX DE NIARFEIX";"19170";"SAINT-MERD-LES-OUSSINES";"Pylône autostable"; 35.0;"Conseil Départemental"
1466468;2.49361;45.51222;"02° 29' 37.00'' Est, 45° 30' 44.00'' Nord";"19142";"TOUVES";"CHARRAS";"19110";"MONESTIER-PORT-DIEU";"Pylône autostable"; 31.3;"BOUYGUES"
1468412;1.40944;45.25139;"01° 24' 34.00'' Est, 45° 15' 05.00'' Nord";"19153";;"AVENUE ROGER CHASSAING";"19130";"OBJAT";"Pylône autostable"; 45.0;"TDF"
1468684;2.49806;45.39194;"02° 29' 53.00'' Est, 45° 23' 31.00'' Nord";"19028";;"HÔPITAL DE BORT LES ORGUES";"19110";"BORT-LES-ORGUES";"Pylône autostable"; 35.0;"TDF"
1472039;1.30694;45.17222;"01° 18' 25.00'' Est, 45° 10' 20.00'' Nord";"19066";"ROCHEMOUROUX";;"19520";"CUBLAC";"Pylône autostable"; 35.0;"HIVORY"
1485547;1.86944;45.46222;"01° 52' 10.00'' Est, 45° 27' 44.00'' Nord";"19051";"LES JARRIGES";;"19390";"CHAUMEIL";"Pylône autostable"; 15.0;"TDF"
1485566;1.50917;45.15556;"01° 30' 33.00'' Est, 45° 09' 20.00'' Nord";"19031";;"ALLÉE DU BOUYGUE IMMEUBLE BRETAGNE";"19100";"BRIVE-LA-GAILLARDE";"Bâtiment"; 49.0;"Société HLM"
1489210;1.82889;45.02694;"01° 49' 44.00'' Est, 45° 01' 37.00'' Nord";"19019";"LE PEUCH";;"19120";"BEAULIEU-SUR-DORDOGNE";"Pylône autostable"; 26.0;"TDF"
1512040;1.75833;45.32583;"01° 45' 30.00'' Est, 45° 19' 33.00'' Nord";"19146";"LA GENESTE";"ECH DE TULLE-NORD";"19460";"NAVES";"Pylône autostable"; 30.0;"HIVORY"
1515922;2.49306;45.66000;"02° 29' 35.00'' Est, 45° 39' 36.00'' Nord";"19141";"VEYRIERES";"CHEZ RIBES A CÔTÉ DU CHATEAU D'EAU";"19340";"MONESTIER-MERLINES";"Pylône tubulaire"; 39.0;"Conseil Départemental"
1517459;2.04444;45.00333;"02° 02' 40.00'' Est, 45° 00' 12.00'' Nord";"19034";"LES FOURCHES";"PUY ROSIER";"19430";"CAMPS-SAINT-MATHURIN-LEOBAZEL";"Pylône autostable"; 37.0;"ORANGE"
1535070;1.95389;45.10361;"01° 57' 14.00'' Est, 45° 06' 13.00'' Nord";"19010";"CROISY";"BARRAGE DU SABLIER";"19400";"ARGENTAT";"Bâtiment"; 4.0;"EDF ou GDF"
1535096;1.93139;45.08250;"01° 55' 53.00'' Est, 45° 04' 57.00'' Nord";"19140";"LES CHEYROUX";"STATION DTG MONCEAUX SUR DORDOGNE";"19400";"MONCEAUX-SUR-DORDOGNE";"Mât"; 3.0;"EDF ou GDF"
1543850;1.78500;45.26889;"01° 47' 06.00'' Est, 45° 16' 08.00'' Nord";"19272";;"BOULEVARD DE LA LUNADE";"19000";"TULLE";"Pylône autostable"; 47.0;"Towercast"
1546578;1.44889;45.13944;"01° 26' 56.00'' Est, 45° 08' 22.00'' Nord";"19229";;"LE PORT D152E";"19600";"SAINT-PANTALEON-DE-LARCHE";"Mât"; 12.0;"ORANGE"
1570877;1.58833;45.10639;"01° 35' 18.00'' Est, 45° 06' 23.00'' Nord";"19063";"MALPEYRE PIERRELAINE";"POULINAT";"19360";"COSNAC";"Château d'eau - réservoir"; 36.0;"Syndicat des eaux, Adduction"
1575873;1.98444;45.17500;"01° 59' 04.00'' Est, 45° 10' 30.00'' Nord";"19222";"LA QUILLAU";;"19320";"SAINT-MARTIN-LA-MEANNE";"Mât"; 12.0;"ORANGE Services Fixes"
1575875;2.00444;45.22000;"02° 00' 16.00'' Est, 45° 13' 12.00'' Nord";"19089";"LA BITARELLE";"D. 18";"19320";"GROS-CHASTANG";"Pylône autostable"; 12.0;"ORANGE Services Fixes"
1589644;1.77583;45.30556;"01° 46' 33.00'' Est, 45° 18' 20.00'' Nord";"19146";"LE MADELMONT";"CHEMIN MADELMONT";"19460";"NAVES";"Pylône autostable"; 34.4;"TDF"
1589676;1.52694;45.51611;"01° 31' 37.00'' Est, 45° 30' 58.00'' Nord";"19250";;"LE SIREYGEOL";"19510";"SALON-LA-TOUR";"Pylône autostable"; 42.3;"TDF"
1610305;1.78250;45.66111;"01° 46' 57.00'' Est, 45° 39' 40.00'' Nord";"19074";"PUYS DE PERIGEAS";"LE FREISSEIX";"19170";"L'EGLISE-AUX-BOIS";"Pylône autostable"; 34.0;"BOUYGUES"
1612334;1.99028;45.52111;"01° 59' 25.00'' Est, 45° 31' 16.00'' Nord";"19027";"LE PILAR";;"19170";"BONNEFOND";"Pylône autostable"; 40.0;"Conseil Départemental"
1620371;2.33111;45.65500;"02° 19' 52.00'' Est, 45° 39' 18.00'' Nord";"19065";"LES PLAINES";;"19340";"COURTEIX";"Pylône autostable"; 32.0;"CELLNEX"
1621483;2.12444;45.57222;"02° 07' 28.00'' Est, 45° 34' 20.00'' Nord";"19136";"LE MONT BESSOU";"SITE ITAS TIM";"19250";"MEYMAC";"Pylône autostable"; 212.0;"TDF"
1625059;2.29889;45.37667;"02° 17' 56.00'' Est, 45° 22' 36.00'' Nord";"19256";"LE FLEIX";"BARRAGE DE LA TRIOUZOUNE";"19160";"SERANDON";"Bâtiment"; 5.0;"EDF ou GDF"
1625885;2.41667;45.58944;"02° 24' 60.00'' Est, 45° 35' 22.00'' Nord";"19002";"BONNEFOND";"PÉAGE - SORTIE N° 24 - A89";"19200";"AIX";"Pylône autostable"; 15.0;"Sociétés d'Autoroutes"
1642059;1.99667;44.98806;"01° 59' 48.00'' Est, 44° 59' 17.00'' Nord";"19034";"LE CAMPING";;"19430";"CAMPS-SAINT-MATHURIN-LEOBAZEL";"Pylône autostable"; 35.0;"Conseil Départemental"
1646853;2.13250;45.53472;"02° 07' 57.00'' Est, 45° 32' 05.00'' Nord";"19136";"LE JAGOULET";;"19250";"MEYMAC";"Pylône autostable"; 35.0;"SFR"
1652561;2.10083;45.67528;"02° 06' 03.00'' Est, 45° 40' 31.00'' Nord";"19241";"PUY CURADE";;"19290";"SAINT-SETIERS";"Pylône autostable"; 40.0;"SFR"
1660755;2.49500;45.40750;"02° 29' 42.00'' Est, 45° 24' 27.00'' Nord";"19028";"LES AUBAZINES";"CHEMIN DE LA CÔTE";"19110";"BORT-LES-ORGUES";"Pylône autostable"; 33.0;"TDF"
1671185;1.53417;45.16222;"01° 32' 03.00'' Est, 45° 09' 44.00'' Nord";"19031";;"PL DU 14 JUILLET PARKING GUIERLE";"19100";"BRIVE-LA-GAILLARDE";"Intérieur galerie"; 0.0;"Commune, communauté de commune"
1671379;2.06389;45.45028;"02° 03' 50.00'' Est, 45° 27' 01.00'' Nord";"19263";"RIAU NAUDET";;"19300";"SOUDEILLES";"Pylône autostable"; 32.0;"HIVORY"
1671390;1.78389;45.49250;"01° 47' 02.00'' Est, 45° 29' 33.00'' Nord";"19001";"GRAND CHAMP";"LES CANARDIÈRES";"19260";"AFFIEUX";"Pylône autostable"; 30.0;"HIVORY"
1671456;2.19361;45.47639;"02° 11' 37.00'' Est, 45° 28' 35.00'' Nord";"19180";"LE PUY BON TEINT";;"19200";"SAINT-ANGEL";"Pylône autostable"; 55.9;"HIVORY"
1672808;1.53333;45.15667;"01° 31' 60.00'' Est, 45° 09' 24.00'' Nord";"19031";;"PL DE LATTRE DE TASSIGNY PARKING THIERS";"19100";"BRIVE-LA-GAILLARDE";"Bâtiment"; 3.0;"Commune, communauté de commune"
1673987;1.72444;45.22806;"01° 43' 28.00'' Est, 45° 13' 41.00'' Nord";"19061";"LES BRUNES";;"19150";"CORNIL";"Pylône autostable"; 49.4;"TDF"
1676985;1.33583;45.15639;"01° 20' 09.00'' Est, 45° 09' 23.00'' Nord";"19030";"LES PAJALOUX";"LE COUSTAL";"19310";"BRIGNAC-LA-PLAINE";"Pylône autostable"; 38.7;"CELLNEX"
1679741;1.51361;45.51361;"01° 30' 49.00'' Est, 45° 30' 49.00'' Nord";"19250";"LE PUY CAPUCHON";;"19510";"SALON-LA-TOUR";"Pylône autostable"; 40.0;"HIVORY"
1685711;1.86667;45.13222;"01° 52' 00.00'' Est, 45° 07' 56.00'' Nord";"19004";"LES CHAUFFOURS";;"19380";"ALBUSSAC";"Pylône autostable"; 40.1;"ATC FRANCE"
1685721;1.51556;45.41111;"01° 30' 56.00'' Est, 45° 24' 40.00'' Nord";"19248";"LES PENTES DE BABY";;"19140";"SAINT-YBARD";"Pylône autostable"; 32.9;"TDF"
1685758;1.70528;45.16278;"01° 42' 19.00'' Est, 45° 09' 46.00'' Nord";"19156";"PUY REDON";;"19190";"PALAZINGES";"Château d'eau - réservoir"; 33.0;"Commune, communauté de commune"
1696916;1.79833;45.28528;"01° 47' 54.00'' Est, 45° 17' 07.00'' Nord";"19272";"LES CHAMPOVERTS";;"19000";"TULLE";"Pylône autostable"; 41.0;"ATC FRANCE"
1698871;1.63611;45.17250;"01° 38' 10.00'' Est, 45° 10' 21.00'' Nord";"19068";"LE PEUCH";;"19360";"DAMPNIAT";"Pylône autostable"; 49.3;"TDF"
1701511;2.38472;45.59389;"02° 23' 05.00'' Est, 45° 35' 38.00'' Nord";"19002";"AU PUECH GRAND";;"19200";"AIX";"Pylône autostable"; 45.0;"HIVORY"
1701516;2.42722;45.65083;"02° 25' 38.00'' Est, 45° 39' 03.00'' Nord";"19080";"MONTCHENY";"LA CROIX DE LA VIALATTE";"19340";"EYGURANDE";"Pylône autostable"; 42.0;"HIVORY"
1707058;1.55000;45.15583;"01° 33' 00.00'' Est, 45° 09' 21.00'' Nord";"19031";"LES CHAPELIES";"27 AVENUE RAOUL DAUTRY";"19100";"BRIVE-LA-GAILLARDE";"Immeuble"; 38.5;"Société HLM"
1710767;1.58333;45.05556;"01° 35' 00.00'' Est, 45° 03' 20.00'' Nord";"19273";"CHÂTEAU DE TURENNE";;"19500";"TURENNE";"Monument historique"; 6.5;"Particulier"
1711970;1.49778;45.16889;"01° 29' 52.00'' Est, 45° 10' 08.00'' Nord";"19031";;"R ABRIZIO RIVET";"19100";"BRIVE-LA-GAILLARDE";"Bâtiment"; 20.8;"Copropriété, Syndic, SCI"
1712742;1.37972;45.14944;"01° 22' 47.00'' Est, 45° 08' 58.00'' Nord";"19124";"AU JARRY";;"19520";"MANSAC";"Pylône autostable"; 42.8;"IFW-FREE"
1714349;1.72444;45.23556;"01° 43' 28.00'' Est, 45° 14' 08.00'' Nord";"19038";"LA COMBLE PEYROUSE";"CHEM DE CHAMEYRAT LE VIEUX";"19330";"CHAMEYRAT";"Pylône autostable"; 35.0;"HIVORY"
1714358;1.92528;45.11556;"01° 55' 31.00'' Est, 45° 06' 56.00'' Nord";"19010";"A CHAUMONT";;"19400";"ARGENTAT";"Pylône autostable"; 42.0;"HIVORY"
1714367;1.98556;45.03861;"01° 59' 08.00'' Est, 45° 02' 19.00'' Nord";"19133";"LES SOLES";;"19430";"MERCOEUR";"Pylône autostable"; 30.0;"HIVORY"
1714372;1.84611;45.17139;"01° 50' 46.00'' Est, 45° 10' 17.00'' Nord";"19084";"LE VIALLARD";;"19380";"FORGES";"Pylône autostable"; 41.0;"HIVORY"
1718894;1.33611;45.14694;"01° 20' 10.00'' Est, 45° 08' 49.00'' Nord";"19066";"LA BOMBETTERIE";;"19520";"CUBLAC";"Pylône autostable"; 36.0;"HIVORY"
1720811;1.56000;45.08194;"01° 33' 36.00'' Est, 45° 04' 55.00'' Nord";"19093";"LE MAUREL";"CHATEAU D'EAU";"19500";"JUGEALS-NAZARETH";"Château d'eau - réservoir"; 23.3;"Commune, communauté de commune"
1721701;1.79611;45.05944;"01° 47' 46.00'' Est, 45° 03' 34.00'' Nord";"19271";"LES BESSADES";;"19120";"TUDEILS";"Pylône autostable"; 40.0;"HIVORY"
1722588;2.32667;45.56889;"02° 19' 36.00'' Est, 45° 34' 08.00'' Nord";"19275";"EYBRAIL";;"19200";"USSEL";"Pylône autostable"; 45.9;"HIVORY"
1723820;2.05833;45.12806;"02° 03' 30.00'' Est, 45° 07' 41.00'' Nord";"19237";"LE PUY NÉGRE 117";"RUE CHATEAU D'EAU";"19220";"SAINT-PRIVAT";"Château d'eau - réservoir"; 41.6;"Syndicat des eaux, Adduction"
1727077;1.70528;45.13389;"01° 42' 19.00'' Est, 45° 08' 02.00'' Nord";"19023";"BOIS DE RIEUX";"BRUGEILLES PROCHE D.130";"19190";"BEYNAT";"Pylône autostable"; 31.0;"HIVORY"
1727615;1.72167;45.44417;"01° 43' 18.00'' Est, 45° 26' 39.00'' Nord";"19037";"CHAILLAC";;"19450";"CHAMBOULIVE";"Pylône autostable"; 43.0;"HIVORY"
1727620;1.50111;45.19361;"01° 30' 04.00'' Est, 45° 11' 37.00'' Nord";"19274";"LES LAVAUDS";;"19270";"USSAC";"Pylône autostable"; 14.0;"HIVORY"
1727661;1.57083;45.16333;"01° 34' 15.00'' Est, 45° 09' 48.00'' Nord";"19123";;"AV DU TOUR DE LA LOYRE - ZONE ARTISANALE";"19360";"MALEMORT-SUR-CORREZE";"Pylône autostable"; 32.0;"HIVORY"
1727668;1.54333;45.25056;"01° 32' 36.00'' Est, 45° 15' 02.00'' Nord";"19072";"SALEIX";"RTE DE DONZENAC À THEIL";"19270";"DONZENAC";"Pylône autostable"; 45.2;"HIVORY"
1727799;1.47778;45.26889;"01° 28' 40.00'' Est, 45° 16' 08.00'' Nord";"19005";"LA PLEUGE";;"19240";"ALLASSAC";"Pylône autostable"; 26.3;"HIVORY"
1727805;1.40306;45.28583;"01° 24' 11.00'' Est, 45° 17' 09.00'' Nord";"19196";"LA ROCHE";;"19130";"SAINT-CYR-LA-ROCHE";"Pylône autostable"; 35.9;"HIVORY"
1728302;2.27528;45.53472;"02° 16' 31.00'' Est, 45° 32' 05.00'' Nord";"19275";"LE MONTEIL DU BOIS";;"19200";"USSEL";"Pylône autostable"; 55.9;"HIVORY"
1729475;1.32389;45.33306;"01° 19' 26.00'' Est, 45° 19' 59.00'' Nord";"19094";"LA PRADELLE";;"19350";"JUILLAC";"Pylône autostable"; 25.0;"HIVORY"
1731872;1.47917;45.16417;"01° 28' 45.00'' Est, 45° 09' 51.00'' Nord";"19274";;"ECH 50 LINTILLAC A20 L' OCCITANE MAT CAMERA PR272S1";"19270";"USSAC";"Mât"; 10.0;"DDE"
1731874;1.52028;45.09861;"01° 31' 13.00'' Est, 45° 05' 55.00'' Nord";"19151";"LA FOREST";"A20 L OCCITANE ECH 52 NOAILLES MAT CAMERA PR281S2";"19600";"NOAILLES";"Mât"; 10.0;"DDE"
1731876;1.56389;45.28056;"01° 33' 50.00'' Est, 45° 16' 50.00'' Nord";"19178";;"A20 L OCCITANE PROCHE LA MAUMONE PMV PR257S1";"19270";"SADROC";"Mât"; 10.0;"DDE"
1732431;1.44167;45.30361;"01° 26' 30.00'' Est, 45° 18' 13.00'' Nord";"19288";"EN PEYCHAUD";;"19130";"VOUTEZAC";"Pylône autostable"; 35.0;"HIVORY"
1732490;1.96222;45.08694;"01° 57' 44.00'' Est, 45° 05' 13.00'' Nord";"19091";"L'ARBRE ESPIC";;"19400";"HAUTEFAGE";"Pylône autostable"; 27.0;"HIVORY"
1738737;1.51778;45.46639;"01° 31' 04.00'' Est, 45° 27' 59.00'' Nord";"19248";"PIERRE BRUNE";"D20 E7";"19140";"SAINT-YBARD";"Pylône autostable"; 39.0;"HIVORY"
1743158;1.63472;45.07556;"01° 38' 05.00'' Est, 45° 04' 32.00'' Nord";"19057";"LA PLANTADE";"CHEM DE LA CROIX DU BUIS À LA CROIX DE STOLAN";"19500";"COLLONGES-LA-ROUGE";"Pylône autostable"; 28.4;"HIVORY"
1759258;1.55972;45.30278;"01° 33' 35.00'' Est, 45° 18' 10.00'' Nord";"19188";"LA COMMUNE";"COUDERT";"19410";"SAINT-BONNET-L'ENFANTIER";"Pylône autostable"; 36.0;"HIVORY"
1778450;1.75250;45.19056;"01° 45' 09.00'' Est, 45° 11' 26.00'' Nord";"19203";;"PUY DES FOURCHES";"19490";"SAINTE-FORTUNADE";"Pylône tubulaire"; 25.0;"Conseil Départemental"
1778456;1.69333;45.07667;"01° 41' 36.00'' Est, 45° 04' 36.00'' Nord";"19099";;"LE BOURG CHATEAU D EAU";"19500";"LAGLEYGEOLLE";"Château d'eau - réservoir"; 16.0;"Syndicat des eaux, Adduction"
1778478;1.93861;45.09500;"01° 56' 19.00'' Est, 45° 05' 42.00'' Nord";"19010";;"5 AVENUE DU 8 MAI 1945 CENTRE D'ENTRETIEN ROUTIER";"19400";"ARGENTAT";"Bâtiment"; 14.0;"Conseil Départemental"
1778480;2.03528;45.39722;"02° 02' 07.00'' Est, 45° 23' 50.00'' Nord";"19073";;"ZONE INDUSTRIELLE DE CHAULAUDRE CENTRE D ENTRETIEN ROUTIER";"19300";"EGLETONS";"Pylône tubulaire"; 16.0;"Conseil Départemental"
1778482;1.72278;45.12139;"01° 43' 22.00'' Est, 45° 07' 17.00'' Nord";"19023";;"RUE DES ECOLES LES SAULES CTRE TECHN DEPARTEMENTAL";"19190";"BEYNAT";"Bâtiment"; 8.0;"Conseil Départemental"
1778484;1.73611;45.27083;"01° 44' 10.00'' Est, 45° 16' 15.00'' Nord";"19038";;"HAUTEFAGE PARC ROUTIER DEPARTEMENTAL";"19330";"CHAMEYRAT";"Pylône autostable"; 50.0;"Conseil Départemental"
1778486;1.75667;45.25611;"01° 45' 24.00'' Est, 45° 15' 22.00'' Nord";"19272";;"1 RUE DU DOCTEUR GASTON RAMON CENTRE TECHN DEPARTEMENTAL";"19000";"TULLE";"Bâtiment"; 15.0;"Conseil Départemental"
1778488;1.77361;45.26611;"01° 46' 25.00'' Est, 45° 15' 58.00'' Nord";"19272";;"9 RUE RENE EMILE FAGE CONSEIL DEPARTEMENTAL";"19000";"TULLE";"Bâtiment"; 35.0;"Conseil Départemental"
1778490;1.79167;45.27861;"01° 47' 30.00'' Est, 45° 16' 43.00'' Nord";"19272";;"AV DU DOCTEUR ALBERT SCHWEITZER CENTRE D ENTRETIEN ROUTIER";"19000";"TULLE";"Bâtiment"; 5.0;"Conseil Départemental"
1778492;2.31472;45.55000;"02° 18' 53.00'' Est, 45° 32' 60.00'' Nord";"19275";;"32 BD DU DOCTEUR GOUDOUNECHE CENTRE TECHN DEPARTEMENTAL";"19200";"USSEL";"Bâtiment"; 14.0;"Conseil Départemental"
1778494;2.49306;45.39028;"02° 29' 35.00'' Est, 45° 23' 25.00'' Nord";"19028";;"RUE DE LA BRIQUETERIE CENTRE D'ENTRETIEN ROUTIER ZA TUILERIE";"19110";"BORT-LES-ORGUES";"Pylône tubulaire"; 18.0;"Conseil Départemental"
1778496;1.48111;45.16056;"01° 28' 52.00'' Est, 45° 09' 38.00'' Nord";"19031";;"RUE JULES BOUCHET ZI DE CANA CENTRE TECHN DEPARTEMENTAL";"19100";"BRIVE-LA-GAILLARDE";"Bâtiment"; 10.0;"Conseil Départemental"
1778498;1.41806;45.12750;"01° 25' 05.00'' Est, 45° 07' 39.00'' Nord";"19229";;"530 AV AUGUSTE MARCHAND RD152 CENTRE D ENTRETIEN ROUTIER";"19600";"SAINT-PANTALEON-DE-LARCHE";"Bâtiment"; 8.0;"Conseil Départemental"
1780792;1.95444;45.03417;"01° 57' 16.00'' Est, 45° 02' 03.00'' Nord";"19045";"PUY DE LA GANNE";"RD 33";"19430";"LA CHAPELLE-SAINT-GERAUD";"Pylône tubulaire"; 25.0;"Conseil Départemental"
1780803;1.57333;45.39639;"01° 34' 24.00'' Est, 45° 23' 47.00'' Nord";"19076";"LES BALLADOURS.";"RD3/ RD920";"19140";"ESPARTIGNAC";"Pylône tubulaire"; 20.0;"DDE"
1780833;2.10722;45.38056;"02° 06' 26.00'' Est, 45° 22' 50.00'' Nord";"19145";;"GIBIAT";"19300";"MOUSTIER-VENTADOUR";"Pylône autostable"; 33.0;"SDIS, secours, incendie"
1781005;1.75417;45.19222;"01° 45' 15.00'' Est, 45° 11' 32.00'' Nord";"19203";;"LES BUSSIERES PYL RRI";"19490";"SAINTE-FORTUNADE";"Pylône autostable"; 40.0;"Société Privée SA"
1789729;1.83972;45.57556;"01° 50' 23.00'' Est, 45° 34' 32.00'' Nord";"19112";;"USINE DE MONCEAUX LA VIROLLE D 157 E PE";"19170";"LESTARDS";"Bâtiment"; 18.0;"EDF ou GDF"
1808432;1.57056;45.39694;"01° 34' 14.00'' Est, 45° 23' 49.00'' Nord";"19276";"LA GANE LACHAUD";"LE MAS DU PUY BAS CENTRE D ENTRETIEN DE AUTOROUTE LE MAS DU PUY BAS";"19140";"UZERCHE";"Bâtiment"; 18.0;"DDE"
1808729;1.52111;45.14639;"01° 31' 16.00'' Est, 45° 08' 47.00'' Nord";"19031";"CHANLAT";"CH DE BASSALER";"19100";"BRIVE-LA-GAILLARDE";"Château d'eau - réservoir"; 20.0;"Commune, communauté de commune"
1813532;1.48611;45.14833;"01° 29' 10.00'' Est, 45° 08' 54.00'' Nord";"19031";;"AVENUE JEAN CHARLES RIVET";"19100";"BRIVE-LA-GAILLARDE";"Pylône autostable"; 20.0;"RTE"
1828585;1.73167;45.12194;"01° 43' 54.00'' Est, 45° 07' 19.00'' Nord";"19023";"TIEBEFOND";"RUE DE LA CHATAIGNE";"19190";"BEYNAT";"Pylône haubané"; 32.0;"ORANGE"
1831551;1.81833;45.19750;"01° 49' 06.00'' Est, 45° 11' 51.00'' Nord";"19098";"LE PUY CHAUTROU";"RD 10";"19150";"LAGARDE-ENVAL";"Pylône autostable"; 33.5;"TDF"
1869363;1.79833;45.53944;"01° 47' 54.00'' Est, 45° 32' 22.00'' Nord";"19269";"LE CHUQUET";;"19260";"TREIGNAC";"Pylône autostable"; 41.0;"TDF"
1881923;2.34222;45.52389;"02° 20' 32.00'' Est, 45° 31' 26.00'' Nord";"19201";"CHANJOURDE";"VOIE COMMUNALE N°8";"19200";"SAINT-EXUPERY-LES-ROCHES";"Pylône autostable"; 36.5;"TDF"
1882669;2.12444;45.57222;"02° 07' 28.00'' Est, 45° 34' 20.00'' Nord";"19136";"LE MONT BESSOU";"SITE ITAS TIM";"19250";"MEYMAC";"Mât métallique"; 3.0;"TDF"
1888092;1.56861;45.36000;"01° 34' 07.00'' Est, 45° 21' 36.00'' Nord";"19162";;"AIRE REPOS PUY DE GRACE OUEST A20 PR 247+600 SENS 1E";"19410";"PERPEZAC-LE-NOIR";"Mât"; 9.0;"DDE"
1900902;1.59333;45.18194;"01° 35' 36.00'' Est, 45° 10' 55.00'' Nord";"19123";"ZAC DU MOULIN";"AV LEONCE BOURLIAGUET";"19360";"MALEMORT-SUR-CORREZE";"Bâtiment"; 11.5;"Société Privée SA"
1915227;2.35806;45.39222;"02° 21' 29.00'' Est, 45° 23' 32.00'' Nord";"19113";;"MAREGES D 42";"19160";"LIGINIAC";"Bâtiment"; 6.0;"Société Privée SA"
1919896;1.70306;45.00944;"01° 42' 11.00'' Est, 45° 00' 34.00'' Nord";"19029";"TRAMONT";"LES SALIES PROCHE RD 110";"19500";"BRANCEILLES";"Pylône autostable"; 32.0;"Conseil Départemental"
1919898;2.08500;45.63611;"02° 05' 06.00'' Est, 45° 38' 10.00'' Nord";"19139";"LA JARRIGUE";"LE MAS GIMEL";"19290";"MILLEVACHES";"Pylône autostable"; 37.0;"Conseil Départemental"
1919900;1.90222;45.22750;"01° 54' 08.00'' Est, 45° 13' 39.00'' Nord";"19075";"COURTOIS";"PROCHE RD 131 RUE DE LA CROIX BLANCHE";"19150";"ESPAGNAC";"Pylône autostable"; 42.0;"Conseil Départemental"
1934710;1.61833;45.28083;"01° 37' 06.00'' Est, 45° 16' 51.00'' Nord";"19207";;"CAPEL COOPERATIVE AGRICOLE DES  PRODUCTIONS ET D'É";"19300";"SAINT-GERMAIN-LES-VERGNES";"Bâtiment"; 9.0;"Société Privée SA"
1936287;1.55639;45.32472;"01° 33' 23.00'' Est, 45° 19' 29.00'' Nord";"19162";"AUX COURTAUX";"ROUTE DU CHÂTEAU D'EAU";"19410";"PERPEZAC-LE-NOIR";"Château d'eau - réservoir"; 37.0;"Syndicat des eaux, Adduction"
1936438;1.75389;45.19250;"01° 45' 14.00'' Est, 45° 11' 33.00'' Nord";"19203";"LES BUISSIÈRES";"CHEM RURAL";"19490";"SAINTE-FORTUNADE";"Pylône autostable"; 38.0;"ORANGE"
1936906;1.76667;45.14111;"01° 46' 00.00'' Est, 45° 08' 28.00'' Nord";"19023";"LES PIEDS BRÛLÉS";"CHEM RURAL DU PEUCH À CHANTEREL";"19190";"BEYNAT";"Pylône autostable"; 32.0;"ORANGE"
1965058;1.58194;45.38667;"01° 34' 55.00'' Est, 45° 23' 12.00'' Nord";"19076";"CHAMP PIGEONIER";"BOS LA COTE";"19140";"ESPARTIGNAC";"Pylône autostable"; 38.0;"TDF"
1973660;1.32944;45.24694;"01° 19' 46.00'' Est, 45° 14' 49.00'' Nord";"19015";"PUY D'AYEN";"33 ROUTE DES PUYS";"19310";"AYEN";"Pylône autostable"; 23.0;"ORANGE"
1978355;2.16444;45.48083;"02° 09' 52.00'' Est, 45° 28' 51.00'' Nord";"19058";"LE MOULIN DE VEYSSIERES";;"19250";"COMBRESSOL";"Pylône autostable"; 48.0;"ORANGE"
1984307;1.79056;45.10583;"01° 47' 26.00'' Est, 45° 06' 21.00'' Nord";"19132";"PUY DU BREUIL";;"19190";"MENOIRE";"Mât"; 20.8;"ORANGE"
1985068;2.25083;45.52111;"02° 15' 03.00'' Est, 45° 31' 16.00'' Nord";"19180";"LE BOS";;"19200";"SAINT-ANGEL";"Pylône autostable"; 42.0;"IFW-FREE"
1986972;1.94139;45.59444;"01° 56' 29.00'' Est, 45° 35' 40.00'' Nord";"19033";"PUY DE BUGEAT";;"19170";"BUGEAT";"Pylône autostable"; 42.0;"IFW-FREE"
1987281;1.71806;45.43361;"01° 43' 05.00'' Est, 45° 26' 01.00'' Nord";"19037";"LE MONS";;"19450";"CHAMBOULIVE";"Pylône autostable"; 34.0;"ORANGE"
1987285;1.78722;45.47694;"01° 47' 14.00'' Est, 45° 28' 37.00'' Nord";"19122";"PUY CHABRIER";;"19470";"MADRANGES";"Pylône autostable"; 38.0;"ORANGE"
1999890;1.32611;45.31528;"01° 19' 34.00'' Est, 45° 18' 55.00'' Nord";"19094";"LE CHATENET SUD";;"19350";"JUILLAC";"Pylône autostable"; 32.0;"IFW-FREE"
2000510;2.49500;45.40750;"02° 29' 42.00'' Est, 45° 24' 27.00'' Nord";"19028";"LES AUBAZINES";"CHEMIN DE LA CÔTE";"19110";"BORT-LES-ORGUES";"Pylône autostable"; 21.0;"ORANGE"
2004920;1.78556;45.22806;"01° 47' 08.00'' Est, 45° 13' 41.00'' Nord";"19203";"LA VIGNE";;"19490";"SAINTE-FORTUNADE";"Pylône autostable"; 36.0;"ORANGE"
2004933;1.79306;45.28167;"01° 47' 35.00'' Est, 45° 16' 54.00'' Nord";"19272";"LES CHABANNES";"AV EVARISTE GALLOIS Z.I. TULLE EST CENTRE DE SECOURS";"19000";"TULLE";"Pylône autostable"; 35.0;"ORANGE Services Fixes"
2009719;2.48250;45.39583;"02° 28' 57.00'' Est, 45° 23' 45.00'' Nord";"19028";"PLATEAU DES ORGUES";;"19110";"BORT-LES-ORGUES";"Pylône autostable"; 36.0;"Towercast"
2024973;1.36778;45.39056;"01° 22' 04.00'' Est, 45° 23' 26.00'' Nord";"19011";;"ROUTE DÉPARTEMENTALE 901 FORÊT DOMANIALE";"19230";"ARNAC-POMPADOUR";"Pylône autostable"; 30.0;"ORANGE Services Fixes"
2029481;1.70528;45.16306;"01° 42' 19.00'' Est, 45° 09' 47.00'' Nord";"19156";"PUY REDON";;"19190";"PALAZINGES";"Pylône autostable"; 42.9;"TDF"
2056751;1.99306;45.25889;"01° 59' 35.00'' Est, 45° 15' 32.00'' Nord";"19231";"CHARLES HAUT";;"19320";"SAINT-PARDOUX-LA-CROISILLE";"Pylône autostable"; 42.5;"TDF"
2073373;1.62083;45.06361;"01° 37' 15.00'' Est, 45° 03' 49.00'' Nord";"19115";"LEYGONIE";"CHEM RURAL";"19500";"LIGNEYRAC";"Pylône autostable"; 22.0;"TDF"
2077541;1.76500;45.39639;"01° 45' 54.00'' Est, 45° 23' 47.00'' Nord";"19240";"LE BOURG";;"19700";"SAINT-SALVADOUR";"Mât béton"; 12.0;"Commune, communauté de commune"
2083290;1.95500;45.27694;"01° 57' 18.00'' Est, 45° 16' 37.00'' Nord";"19056";"GANE CHAPOUP";"RD 978";"19320";"CLERGOUX";"Pylône autostable"; 43.0;"Conseil Départemental"
2094082;2.36056;45.39194;"02° 21' 38.00'' Est, 45° 23' 31.00'' Nord";"19113";"GROUPEMENT DE MAREGES";"CHEMIN PRÈS D42";"19160";"LIGINIAC";"Pylône autostable"; 12.0;"ORANGE"
2110339;1.42139;45.09694;"01° 25' 17.00'' Est, 45° 05' 49.00'' Nord";"19191";"LE MOULIN DE FOURNET";;"19600";"SAINT-CERNIN-DE-LARCHE";"Pylône tubulaire"; 41.0;"IFW-FREE"
2114213;1.64889;45.56250;"01° 38' 56.00'' Est, 45° 33' 45.00'' Nord";"19131";;"RUE DES TULIPERS D137";"19510";"MEILHARDS";"Pylône autostable"; 40.0;"SFR"
2125525;2.22778;45.63556;"02° 13' 40.00'' Est, 45° 38' 08.00'' Nord";"19021";"LE CHASSAING";"D30 E3 D30 E3";"19290";"BELLECHASSAGNE";"Pylône autostable"; 47.0;"IFW-FREE"
2141087;2.03833;45.42222;"02° 02' 18.00'' Est, 45° 25' 20.00'' Nord";"19263";;"ROUTE DE LA BESSE";"19300";"SOUDEILLES";"Pylône autostable"; 21.0;"Sociétés d'Autoroutes"
2142183;1.51861;45.23722;"01° 31' 07.00'' Est, 45° 14' 14.00'' Nord";"19072";"ESPEYRUT";;"19270";"DONZENAC";"Pylône autostable"; 25.7;"ORANGE"
2156741;1.59889;45.41778;"01° 35' 56.00'' Est, 45° 25' 04.00'' Nord";"19076";"LE PUY DU VERDIER";;"19140";"ESPARTIGNAC";"Pylône autostable"; 36.0;"TDF"
2158647;1.75667;45.32806;"01° 45' 24.00'' Est, 45° 19' 41.00'' Nord";"19146";"BOIS BARA";"STADE MUNICIPAL";"19460";"NAVES";"Pylône autostable"; 36.0;"ORANGE"
2162251;1.68972;45.06750;"01° 41' 23.00'' Est, 45° 04' 03.00'' Nord";"19138";"LA COSTE";;"19500";"MEYSSAC";"Pylône autostable"; 42.0;"Towercast"
2164364;2.10028;45.14750;"02° 06' 01.00'' Est, 45° 08' 51.00'' Nord";"19237";"LA COMBE DES ANGES";;"19220";"SAINT-PRIVAT";"Pylône autostable"; 39.3;"TDF"
2170065;1.74194;45.29222;"01° 44' 31.00'' Est, 45° 17' 32.00'' Nord";"19272";;"IMPASSE DES PRES DE LA BERONNIE";"19000";"TULLE";"Pylône autostable"; 77.0;"TDF"
2203880;1.95361;45.08556;"01° 57' 13.00'' Est, 45° 05' 08.00'' Nord";"19010";"LE PUY GRASSET";;"19400";"ARGENTAT";"Mât béton"; 17.0;"Towercast"
2209161;1.94917;45.10556;"01° 56' 57.00'' Est, 45° 06' 20.00'' Nord";"19010";"LONGOUR";"CHÂTEAU D'EAU";"19400";"ARGENTAT";"Château d'eau - réservoir"; 6.0;"Commune, communauté de commune"
2217805;1.38639;45.41083;"01° 23' 11.00'' Est, 45° 24' 39.00'' Nord";"19011";;"ZA LES HAUTS DE CHIGNAC";"19230";"ARNAC-POMPADOUR";"Bâtiment"; 10.0;"Société Privée SA"
2217807;1.38583;45.41028;"01° 23' 09.00'' Est, 45° 24' 37.00'' Nord";"19011";;"ZA LES HAUTS DE CHIGNAC";"19230";"ARNAC-POMPADOUR";"Bâtiment"; 10.0;"Société Privée SA"
2217809;1.39056;45.40556;"01° 23' 26.00'' Est, 45° 24' 20.00'' Nord";"19011";;"RUE DES COMBELLES SICAME SA";"19230";"ARNAC-POMPADOUR";"Bâtiment"; 11.0;"Société Privée SA"
2232699;1.35278;45.28972;"01° 21' 10.00'' Est, 45° 17' 23.00'' Nord";"19187";;"LES BLANCS NEGRES PROCHE D39E2";"19130";"SAINT-BONNET-LA-RIVIERE";"Pylône autostable"; 32.7;"TDF"
2235683;2.03833;45.42250;"02° 02' 18.00'' Est, 45° 25' 21.00'' Nord";"19263";;"ROUTE DE LA BESSE";"19300";"SOUDEILLES";"Pylône autostable"; 44.7;"TDF"
2235685;1.55278;45.43833;"01° 33' 10.00'' Est, 45° 26' 18.00'' Nord";"19276";;"LA BORDE BASSE";"19140";"UZERCHE";"Pylône autostable"; 38.7;"TDF"
2236616;2.13472;45.53028;"02° 08' 05.00'' Est, 45° 31' 49.00'' Nord";"19136";;"7 BD DES CHARPENTIERS CENTRE DE SECOURS";"19250";"MEYMAC";"Pylône autostable"; 23.0;"SDIS, secours, incendie"
2240070;2.31306;45.53417;"02° 18' 47.00'' Est, 45° 32' 03.00'' Nord";"19275";"RATOU";"CHEMIN D'EXPLOITATION N° 33";"19200";"USSEL";"Pylône autostable"; 40.0;"ORANGE"
2240081;1.56167;45.27667;"01° 33' 42.00'' Est, 45° 16' 36.00'' Nord";"19178";"LA FONSALADE";"TERRAIN DE M. ROUZIER";"19270";"SADROC";"Pylône haubané"; 22.0;"ORANGE"
2240589;2.42444;45.51861;"02° 25' 28.00'' Est, 45° 31' 07.00'' Nord";"19190";"LES VIOULEZACS";;"19200";"SAINT-BONNET-PRES-BORT";"Pylône autostable"; 38.3;"BOUYGUES"
2253759;1.79250;45.28028;"01° 47' 33.00'' Est, 45° 16' 49.00'' Nord";"19272";"ZONE INDUSTRIELLE EST";"AV EVARISTE GALLOIS CENTRE DE SECOURS";"19000";"TULLE";"Pylône autostable"; 30.0;"SDIS, secours, incendie"
2254250;2.05194;45.45889;"02° 03' 07.00'' Est, 45° 27' 32.00'' Nord";"19263";"CHAUDEMAISON";;"19300";"SOUDEILLES";"Pylône autostable"; 16.0;"Titulaire programme Radio/TV"
2266459;1.48694;45.06944;"01° 29' 13.00'' Est, 45° 04' 10.00'' Nord";"19147";"LE PIGEONNIER";"EN BORDURE DE COMMUNE AVEC CHASTEAUX A 1 KM DE LA D920 ET DE LA D19";"19600";"NESPOULS";"Pylône autostable"; 38.7;"TDF"
2267028;2.07222;45.06944;"02° 04' 20.00'' Est, 45° 04' 10.00'' Nord";"19205";"LE GOURDALOU";"D 13";"19220";"SAINT-GENIEZ-O-MERLE";"Pylône autostable"; 45.0;"SFR"
2271190;1.51972;45.16278;"01° 31' 11.00'' Est, 45° 09' 46.00'' Nord";"19031";;"25 AVENUE ADRIEN ALLARD";"19100";"BRIVE-LA-GAILLARDE";"Bâtiment"; 11.6;"Société Privée SA"
2271265;1.51556;45.46333;"01° 30' 56.00'' Est, 45° 27' 48.00'' Nord";"19248";"LA RADE";"PRÈS D20E7";"19140";"SAINT-YBARD";"Pylône autostable"; 32.6;"TDF"
2271267;1.59833;45.46833;"01° 35' 54.00'' Est, 45° 28' 06.00'' Nord";"19060";;"LA GENESTE BASSE";"19140";"CONDAT-SUR-GANAVEIX";"Pylône autostable"; 38.7;"TDF"
2288473;2.06861;45.40472;"02° 04' 07.00'' Est, 45° 24' 17.00'' Nord";"19073";;"26 RUE DE BELLEVUE";"19300";"EGLETONS";"Bâtiment"; 20.0;"Société Privée SA"
2288798;1.86222;45.41111;"01° 51' 44.00'' Est, 45° 24' 40.00'' Nord";"19137";;"FORET DOMANIALE VIA D 26";"19800";"MEYRIGNAC-L'EGLISE";"Pylône autostable"; 39.0;"IFW-FREE"
2291191;2.05250;45.40111;"02° 03' 09.00'' Est, 45° 24' 04.00'' Nord";"19073";;"19 AVENUE DES PAPES LIMOUSINS";"19300";"EGLETONS";"Bâtiment"; 20.0;"Société Privée SA"
2293779;1.97944;45.39583;"01° 58' 46.00'' Est, 45° 23' 45.00'' Nord";"19176";"LES TESSAUNIERES";"CROISEMENT D. 142 - D. 143";"19300";"ROSIERS-D'EGLETONS";"Pylône autostable"; 33.0;"ORANGE"
2294764;1.79306;45.28167;"01° 47' 35.00'' Est, 45° 16' 54.00'' Nord";"19272";"LES CHABANNES";"ZI EST";"19000";"TULLE";"Pylône autostable"; 40.0;"Towercast"
2303664;1.88778;45.32500;"01° 53' 16.00'' Est, 45° 19' 30.00'' Nord";"19236";"LA CROIX ROUGE";"LA TRANSEUROPEENNE A89";"19800";"SAINT-PRIEST-DE-GIMEL";"Pylône autostable"; 32.7;"TDF"
2303666;1.58917;45.23083;"01° 35' 21.00'' Est, 45° 13' 51.00'' Nord";"19202";;"CHEMIN RURAL DU BOIS VIDAL APRÈS LE CIMETIÈRE";"19270";"SAINTE-FEREOLE";"Pylône autostable"; 36.0;"IFW-FREE"
2306398;1.34722;45.18861;"01° 20' 50.00'' Est, 45° 11' 19.00'' Nord";"19030";"CHASSAT";"ROUTE DE CHASSAT";"19310";"BRIGNAC-LA-PLAINE";"Pylône autostable"; 39.0;"IFW-FREE"
2308718;2.20889;45.28000;"02° 12' 32.00'' Est, 45° 16' 48.00'' Nord";"19264";"PUY DE CARMANTAN";"PONT AUBERT";"19550";"SOURSAC";"Pylône autostable"; 30.0;"SFR"
2310617;2.24806;45.27944;"02° 14' 53.00'' Est, 45° 16' 46.00'' Nord";"19264";;"CHEMIN LAMIRANDE";"19550";"SOURSAC";"Pylône autostable"; 54.6;"SFR"
2315749;2.10611;45.38361;"02° 06' 22.00'' Est, 45° 23' 01.00'' Nord";"19145";"LA VALADE";"ROUTE DE LA VALADE";"19300";"MOUSTIER-VENTADOUR";"Pylône autostable"; 43.0;"IFW-FREE"
2320268;1.72417;45.28250;"01° 43' 27.00'' Est, 45° 16' 57.00'' Nord";"19146";"BOIS MAZEL";;"19460";"NAVES";"Pylône autostable"; 44.7;"TDF"
2325999;2.20194;45.50833;"02° 12' 07.00'' Est, 45° 30' 30.00'' Nord";"19136";;"ACCÈS DE SERVICE NORD RD 979";"19250";"MEYMAC";"Pylône autostable"; 21.0;"Sociétés d'Autoroutes"
2354567;2.03944;45.41500;"02° 02' 22.00'' Est, 45° 24' 54.00'' Nord";"19073";"LA RIBIERE";"D16";"19300";"EGLETONS";"Pylône autostable"; 38.7;"HIVORY"
2359028;1.37528;45.14056;"01° 22' 31.00'' Est, 45° 08' 26.00'' Nord";"19124";"LAS CLEDAS";"CHEMIN PRÈS DE D133";"19520";"MANSAC";"Pylône autostable"; 35.7;"ORANGE"
2362130;1.59889;45.41778;"01° 35' 56.00'' Est, 45° 25' 04.00'' Nord";"19076";"LE PUY DU VERDIER";"LE PRÉ GOUJON";"19140";"ESPARTIGNAC";"Pylône autostable"; 36.0;"TDF"
2362560;1.73222;45.46944;"01° 43' 56.00'' Est, 45° 28' 10.00'' Nord";"19118";;"8 RUE ROGER CEREZAT STADE";"19470";"LE LONZAC";"Pylône autostable"; 30.0;"ORANGE"
2366801;1.74833;45.06917;"01° 44' 54.00'' Est, 45° 04' 09.00'' Nord";"19163";"LESTRADE";;"19190";"LE PESCHER";"Pylône autostable"; 39.0;"IFW-FREE"
2367065;1.34611;45.37139;"01° 20' 46.00'' Est, 45° 22' 17.00'' Nord";"19059";;"ROUTE DE POMPADOUR STADE";"19350";"CONCEZE";"Pylône autostable"; 36.0;"ORANGE"
2375382;2.14000;45.18639;"02° 08' 24.00'' Est, 45° 11' 11.00'' Nord";"19014";"COUJOULS";"CHEMIN DE D111 À D75";"19220";"AURIAC";"Pylône autostable"; 39.0;"IFW-FREE"
2390333;1.64056;45.20722;"01° 38' 26.00'' Est, 45° 12' 26.00'' Nord";"19211";"L'ESTRADE";"D141";"19560";"SAINT-HILAIRE-PEYROUX";"Pylône autostable"; 44.5;"HIVORY"
2390806;1.55778;45.07611;"01° 33' 28.00'' Est, 45° 04' 34.00'' Nord";"19093";;"PROCHE D8";"19500";"JUGEALS-NAZARETH";"Pylône autostable"; 39.0;"TDF"
2397161;1.86639;45.27194;"01° 51' 59.00'' Est, 45° 16' 19.00'' Nord";"19220";"LA BITARELOUNE";"LE BOUYER / D61E";"19150";"SAINT-MARTIAL-DE-GIMEL";"Pylône autostable"; 36.0;"ORANGE"
2401802;1.73222;45.46944;"01° 43' 56.00'' Est, 45° 28' 10.00'' Nord";"19118";"LES PLAS";"RUE ROGER CEREZAT PRES DU CAMPING";"19470";"LE LONZAC";"Pylône autostable"; 34.8;"ATC FRANCE"
2409910;1.47778;45.26194;"01° 28' 40.00'' Est, 45° 15' 43.00'' Nord";"19005";;"1369 LA COTE RÉSIDENCE BELLEVUE - CORRÈZE HABITAT";"19240";"ALLASSAC";"Immeuble"; 17.0;"Société HLM"
2414961;2.10472;45.13778;"02° 06' 17.00'' Est, 45° 08' 16.00'' Nord";"19237";;"RUE DU PUY DU BASSIN CHÂTEAU D'EAU";"19220";"SAINT-PRIVAT";"Château d'eau - réservoir"; 26.0;"Commune, communauté de commune"
2424658;1.57417;45.10250;"01° 34' 27.00'' Est, 45° 06' 09.00'' Nord";"19063";"MONTPLAISIR";;"19360";"COSNAC";"Pylône autostable"; 38.9;"HIVORY"
2425227;2.00417;45.37306;"02° 00' 15.00'' Est, 45° 22' 23.00'' Nord";"19176";;"22  LA FONTAINE DU TRAIT";"19300";"ROSIERS-D'EGLETONS";"Pylône autostable"; 32.5;"HIVORY"
2437436;1.47000;45.42111;"01° 28' 12.00'' Est, 45° 25' 16.00'' Nord";"19230";"SAGEAUX";;"19210";"SAINT-PARDOUX-CORBIER";"Pylône autostable"; 30.0;"IFW-FREE"
