Numéro du support;Longitude;Latitude;"Position";"Insee";"Lieu dit";"Adresse";"Code postal";"Commune";"Nature du support";Hauteur en m;"Propriétaire"
8641;9.26917;42.27556;"09° 16' 09.00'' Est, 42° 16' 32.00'' Nord";"2B105";"PUNTA ALLA FAVA";;"20212";"ERBAJOLO";"Pylône autostable"; 22.0;"ORANGE Services Fixes"
26949;9.49278;42.27361;"09° 29' 34.00'' Est, 42° 16' 25.00'' Nord";"2B057";"PENTA CORVESE";;"20230";"CANALE-DI-VERDE";"Pylône autostable"; 15.0;"SFR"
26969;9.32500;42.01056;"09° 19' 30.00'' Est, 42° 00' 38.00'' Nord";"2B251";;"MAIRIE LE VILLAGE";"20243";"PRUNELLI-DI-FIUMORBO";"Immeuble"; 16.0;"Commune, communauté de commune"
45869;9.49667;42.12972;"09° 29' 48.00'' Est, 42° 07' 47.00'' Nord";"2B009";"BASTARDI";;"20270";"ALERIA";"Bâtiment"; 10.0;
91120;9.31722;42.50611;"09° 19' 02.00'' Est, 42° 30' 22.00'' Nord";"2B055";"LONGO";"NATIONALE 193 - ACCENDI PIPA";"20252";"CAMPITELLO";"Pylône autostable"; 24.0;"ORANGE"
91150;9.38889;42.67972;"09° 23' 20.00'' Est, 42° 40' 47.00'' Nord";"2B029";"TERRAIN COMMUNAL";"COL DE TEGHIME";"20253";"BARBAGGIO";"Pylône autostable"; 13.0;"ORANGE"
91156;8.87556;42.60750;"08° 52' 32.00'' Est, 42° 36' 27.00'' Nord";"2B020";"RÉGINIELLA";"PRÈS N.197 HÔT. PASCAL PAOLI";"20220";"AREGNO";"Immeuble"; 15.0;"Particulier"
114527;9.49056;42.33167;"09° 29' 26.00'' Est, 42° 19' 54.00'' Nord";"2B087";;"MAIRIE RUE PHILIPPE PESCETTI";"20221";"CERVIONE";"Bâtiment"; 30.0;"Commune, communauté de commune"
121156;9.36861;42.37417;"09° 22' 07.00'' Est, 42° 22' 27.00'' Nord";"2B219";"VILLAGE";"PAESE";"20229";"PIEDICROCE";"Bâtiment"; 10.0;"ORANGE Services Fixes"
121202;9.21417;42.09583;"09° 12' 51.00'' Est, 42° 05' 45.00'' Nord";"2B124";"AJA";"RN 194";"20227";"GHISONI";"Pylône autostable"; 15.0;"ORANGE Services Fixes"
121273;9.29306;42.23778;"09° 17' 35.00'' Est, 42° 14' 16.00'' Nord";"2B012";"BALTOGO";"CENTRE VILLAGE D 14";"20251";"ALTIANI";"Bâtiment"; 4.0;"ORANGE Services Fixes"
126614;9.35222;42.42083;"09° 21' 08.00'' Est, 42° 25' 15.00'' Nord";"2B246";"POGGIALE";"PIANE";"20237";"LA PORTA";"Pylône tubulaire"; 15.0;"ORANGE Services Fixes"
126616;9.04417;42.44528;"09° 02' 39.00'' Est, 42° 26' 43.00'' Nord";"2B023";"PIANO DI BARCALINO";;"20276";"ASCO";"Pylône autostable"; 6.5;"ORANGE Services Fixes"
126630;9.37028;42.50667;"09° 22' 13.00'' Est, 42° 30' 24.00'' Nord";"2B355";"BARCHETTA";"AUTOCOMMUTATEUR";"20290";"VOLPAJOLA";"Pylône autostable"; 12.0;"ORANGE Services Fixes"
126648;9.35278;42.46833;"09° 21' 10.00'' Est, 42° 28' 06.00'' Nord";"2B102";;"PUNTA DI AS SAINA";"20290";"CROCICCHIA";"Mât"; 9.0;"ORANGE Services Fixes"
126651;9.28083;42.48333;"09° 16' 51.00'' Est, 42° 29' 00.00'' Nord";"2B079";"PONTE NOVU";;"20235";"CASTELLO-DI-ROSTINO";"Bâtiment"; 7.0;"ORANGE Services Fixes"
126653;9.31556;42.46083;"09° 18' 56.00'' Est, 42° 27' 39.00'' Nord";"2B079";"PASTORECCIA";;"20235";"CASTELLO-DI-ROSTINO";"Pylône autostable"; 20.0;"ORANGE Services Fixes"
126655;9.28056;42.52167;"09° 16' 50.00'' Est, 42° 31' 18.00'' Nord";"2B140";;"RIGAGNOLE CARREFOUR D105/D5";"20252";"LENTO";"Bâtiment"; 10.0;"ORANGE Services Fixes"
126684;9.47667;42.42889;"09° 28' 36.00'' Est, 42° 25' 44.00'' Nord";"2B318";"LA CHAPELLE";;"20230";"TAGLIO-ISOLACCIO";"Pylône autostable"; 10.0;"ORANGE Services Fixes"
126704;9.36028;42.63417;"09° 21' 37.00'' Est, 42° 38' 03.00'' Nord";"2B185";;"CHEM DE ROMANACCE";"20232";"OLETTA";"Pylône autostable"; 8.0;
126709;9.35139;42.62917;"09° 21' 05.00'' Est, 42° 37' 45.00'' Nord";"2B185";;"GUADO IN LA D 82";"20232";"OLETTA";"Bâtiment"; 6.0;
126718;9.26722;42.59750;"09° 16' 02.00'' Est, 42° 35' 51.00'' Nord";"2B301";;"CASENOVE D 62";"20246";"SAN-GAVINO-DI-TENDA";"Mât"; 9.0;"ORANGE Services Fixes"
130288;8.86750;42.56833;"08° 52' 03.00'' Est, 42° 34' 06.00'' Nord";"2B138";"MONTESALVI";;"20225";"LAVATOGGIO";"Pylône autostable"; 12.0;"ORANGE Services Fixes"
145492;9.41806;42.84306;"09° 25' 05.00'' Est, 42° 50' 35.00'' Nord";"2B224";"CASALIANO";;"20233";"PIETRACORBARA";"Pylône autostable"; 20.0;"ORANGE"
164866;9.51694;42.07500;"09° 31' 01.00'' Est, 42° 04' 30.00'' Nord";"2B009";;"CTRE AGRICOLE DE CASABIANDA";"20270";"ALERIA";"Support non décrit"; 8.0;
170954;9.36667;41.90500;"09° 22' 00.00'' Est, 41° 54' 18.00'' Nord";"2B283";"TRAVO";"RESERVOIR DE LISTINCHELLO TRAVO";"20240";"SOLARO";"Support non décrit"; 5.0;
170956;9.38194;41.91306;"09° 22' 55.00'' Est, 41° 54' 47.00'' Nord";"2B283";"TRAVO";"POMPAGE DE LISTINCHELLO TRAVO";"20240";"SOLARO";"Support non décrit"; 5.0;
173685;9.43944;42.49278;"09° 26' 22.00'' Est, 42° 29' 34.00'' Nord";"2B346";;"PLACE LUCE DE CASABIANCA MAIRIE";"20215";"VESCOVATO";"Bâtiment"; 20.0;"Commune, communauté de commune"
186302;9.38111;42.97444;"09° 22' 52.00'' Est, 42° 58' 28.00'' Nord";"2B107";;"BOTICELLA";"20275";"ERSA";"Support non décrit"; 4.0;
186304;9.39667;42.96944;"09° 23' 48.00'' Est, 42° 58' 10.00'' Nord";"2B107";;"SUERTU";"20275";"ERSA";"Support non décrit"; 4.0;
207556;9.38306;42.97667;"09° 22' 59.00'' Est, 42° 58' 36.00'' Nord";"2B107";;"LE VILLAGE";"20275";"ERSA";"Bâtiment"; 4.0;"ORANGE Services Fixes"
240712;9.32417;42.01056;"09° 19' 27.00'' Est, 42° 00' 38.00'' Nord";"2B251";;"ANCIENNE GIE  DE SANTA CROCE";"20243";"PRUNELLI-DI-FIUMORBO";"Immeuble"; 16.0;"Commune, communauté de commune"
240880;8.67361;42.51194;"08° 40' 25.00'' Est, 42° 30' 43.00'' Nord";"2B049";;"RD 81 SEMAPHORE DE CAVALLO";"20214";"CALENZANA";"Sémaphore"; 15.0;
245292;9.15861;42.33000;"09° 09' 31.00'' Est, 42° 19' 48.00'' Nord";"2B096";"MONTE CECU";;"20250";"CORTE";"Pylône autostable"; 10.0;"EDF GDF"
253828;9.02222;42.44750;"09° 01' 20.00'' Est, 42° 26' 51.00'' Nord";"2B023";"PINELLO";;"20276";"ASCO";"Pylône autostable"; 12.0;"ORANGE Services Fixes"
256983;9.37972;42.96417;"09° 22' 47.00'' Est, 42° 57' 51.00'' Nord";"2B086";;"PARC EOLIEN D ERSA";"20238";"CENTURI";"Bâtiment"; 6.0;"Société Privée SA"
256985;9.03139;42.44667;"09° 01' 53.00'' Est, 42° 26' 48.00'' Nord";"2B023";"PONT GENOIS";"USINE ASCO 1";"20276";"ASCO";"Bâtiment"; 10.0;
256987;8.92556;42.40333;"08° 55' 32.00'' Est, 42° 24' 12.00'' Nord";"2B023";;"HAUT ASCO";"20276";"ASCO";"Bâtiment"; 10.0;"Commune, communauté de commune"
262606;9.20444;42.46250;"09° 12' 16.00'' Est, 42° 27' 45.00'' Nord";"2B169";"PONTE LECCIA";;"20218";"MOROSAGLIA";"Pylône autostable"; 15.0;"ORANGE Services Fixes"
266208;8.75306;42.56306;"08° 45' 11.00'' Est, 42° 33' 47.00'' Nord";"2B050";"SAN FRANCESCO";"RTE DE DORNIO CENTRAL FT";"20260";"CALVI";"Pylône tubulaire"; 22.0;"ORANGE Services Fixes"
267432;9.45028;42.69917;"09° 27' 01.00'' Est, 42° 41' 57.00'' Nord";"2B033";;"24 R NAPOLÉON";"20600";"BASTIA";"Bâtiment"; 22.0;"Copropriété, Syndic, SCI"
267434;9.44722;42.69611;"09° 26' 50.00'' Est, 42° 41' 46.00'' Nord";"2B033";;"1 BD PASCAL PAOLI";"20600";"BASTIA";"Bâtiment"; 24.0;"Copropriété, Syndic, SCI"
270541;9.45028;42.70361;"09° 27' 01.00'' Est, 42° 42' 13.00'' Nord";"2B033";;"41 AV CAMPINCHI";"20600";"BASTIA";"Immeuble"; 19.0;"Copropriété, Syndic, SCI"
271053;9.28639;42.37972;"09° 17' 11.00'' Est, 42° 22' 47.00'' Nord";"2B304";"TRIBBIO";;"20244";"SAN-LORENZO";"Pylône tubulaire"; 12.0;"ORANGE Services Fixes"
271763;9.42417;42.41111;"09° 25' 27.00'' Est, 42° 24' 40.00'' Nord";"2B299";"POGGIO";"D 36";"20213";"SAN-GAVINO-D'AMPUGNANI";"Bâtiment"; 9.0;"ORANGE Services Fixes"
271770;9.51083;42.44444;"09° 30' 39.00'' Est, 42° 26' 40.00'' Nord";"2B207";"FOLLELI";;"20213";"PENTA-DI-CASINCA";"Pylône tubulaire"; 15.0;"ORANGE Services Fixes"
277317;8.65389;42.41222;"08° 39' 14.00'' Est, 42° 24' 44.00'' Nord";"2B121";;"VALLÉE AMBASTA/RÉSERVOIR";"20245";"GALERIA";"Château d'eau - réservoir"; 6.0;"Commune, communauté de commune"
282753;9.14889;42.15528;"09° 08' 56.00'' Est, 42° 09' 19.00'' Nord";"2B354";;"HOP CORTE TATTONE DÉPARTEMENTAL D901";"20219";"VIVARIO";"Pylône autostable"; 18.0;"ORANGE Services Fixes"
283354;9.30000;42.43472;"09° 18' 00.00'' Est, 42° 26' 05.00'' Nord";"2B169";"CONVENTO";;"20218";"MOROSAGLIA";"Bâtiment"; 5.0;"ORANGE Services Fixes"
283358;9.23250;42.41333;"09° 13' 57.00'' Est, 42° 24' 48.00'' Nord";"2B003";"CIMA FERLETTA";"STATION SANTE / SSLI";"20244";"AITI";"Bâtiment"; 4.0;"ORANGE Services Fixes"
283471;9.12583;42.58528;"09° 07' 33.00'' Est, 42° 35' 07.00'' Nord";"2B180";"CIANCHINO";;"20226";"NOVELLA";"Pylône autostable"; 30.0;"BOUYGUES"
283500;9.01306;42.63611;"09° 00' 47.00'' Est, 42° 38' 10.00'' Nord";"2B034";"LOZARI";;"20226";"BELGODERE";"Bâtiment"; 6.0;"ORANGE Services Fixes"
287755;8.75222;42.56000;"08° 45' 08.00'' Est, 42° 33' 36.00'' Nord";"2B050";"SAN FRANCESCU";"CHEM COMMUNAL N° 5 AUTOCOMMUTATEUR";"20260";"CALVI";"Mât"; 25.0;"ORANGE Services Fixes"
287926;8.72139;42.57583;"08° 43' 17.00'' Est, 42° 34' 33.00'' Nord";"2B050";"REVELLATA";;"20260";"CALVI";"Bâtiment"; 3.0;"ORANGE Services Fixes"
288815;8.86778;42.56861;"08° 52' 04.00'' Est, 42° 34' 07.00'' Nord";"2B138";"COL DE SALVI";;"20225";"LAVATOGGIO";"Pylône autostable"; 10.0;"EDF GDF"
290654;9.47778;42.80944;"09° 28' 40.00'' Est, 42° 48' 34.00'' Nord";"2B281";"PIEVE";;"20233";"SISCO";"Bâtiment"; 5.0;"ORANGE Services Fixes"
301926;8.75611;42.47611;"08° 45' 22.00'' Est, 42° 28' 34.00'' Nord";"2B049";"MARSOLINO";;"20214";"CALENZANA";"Bâtiment"; 6.0;"EDF GDF"
301928;9.14000;42.42194;"09° 08' 24.00'' Est, 42° 25' 19.00'' Nord";"2B081";"CROCE D'ARBRITRO";;"20218";"CASTIGLIONE";"Pylône autostable"; 10.0;"EDF GDF"
301930;9.25028;42.49611;"09° 15' 01.00'' Est, 42° 29' 46.00'' Nord";"2B059";"MORTOLA";"QUERCITELLO";"20235";"CANAVAGGIA";"Pylône autostable"; 10.0;"EDF GDF"
301932;9.25028;42.18556;"09° 15' 01.00'' Est, 42° 11' 08.00'' Nord";"2B347";"LA RINGHELLA";;"20242";"VEZZANI";"Pylône autostable"; 10.0;"EDF GDF"
301936;9.38111;42.45222;"09° 22' 52.00'' Est, 42° 27' 08.00'' Nord";"2B206";;"COL DE TEGGHIE";"20290";"PENTA-ACQUATELLA";"Bâtiment"; 5.0;"EDF GDF"
301948;9.40111;42.69528;"09° 24' 04.00'' Est, 42° 41' 43.00'' Nord";"2B033";"SERRA DI PIGNO";;"20200";"BASTIA";"Bâtiment"; 3.0;"EDF GDF"
301952;9.44528;42.66361;"09° 26' 43.00'' Est, 42° 39' 49.00'' Nord";"2B033";;"ERBAJOLO USINE À GAZ";"20600";"BASTIA";"Bâtiment"; 5.0;"EDF GDF"
301954;9.13583;42.37611;"09° 08' 09.00'' Est, 42° 22' 34.00'' Nord";"2B083";"VANNE DE TETE DU BA";;"20236";"CASTIRLA";"Bâtiment"; 5.0;"EDF GDF"
305596;9.15861;42.33000;"09° 09' 31.00'' Est, 42° 19' 48.00'' Nord";"2B096";"MONTE CECU";;"20250";"CORTE";"Bâtiment"; 11.0;"Titulaire programme Radio/TV"
329667;9.44056;42.67667;"09° 26' 26.00'' Est, 42° 40' 36.00'' Nord";"2B033";;"ANCIENNE ROUTE DE ST FLORENT RÉSIDENCE LES IMPÉRIALES BÂT  LES ARALIAS";"20600";"BASTIA";"Immeuble"; 24.0;"Société HLM"
336003;9.22750;42.23861;"09° 13' 39.00'' Est, 42° 14' 19.00'' Nord";"2B341";"TURBIA";"N200 ANCIEN CHAMP DE COURSE";"20231";"VENACO";"Pylône autostable"; 20.0;"Particulier"
341827;9.18778;42.54056;"09° 11' 16.00'' Est, 42° 32' 26.00'' Nord";"2B223";"SANTA MARIA";"D.8 - CHEM RURAL STATION MÉTÉO";"20218";"PIETRALBA";"Pylône tubulaire"; 24.0;"ORANGE"
342539;9.43667;42.58722;"09° 26' 12.00'' Est, 42° 35' 14.00'' Nord";"2B042";"STRADA VECCHIA";"ZA DE PIANONE RN 193 PARC EUROPCAR";"20290";"BORGO";"Bâtiment"; 9.9;"Société Privée SA"
356702;9.44028;42.69444;"09° 26' 25.00'' Est, 42° 41' 40.00'' Nord";"2B033";"COUVENT ST ANTOINE";"COUVENT";"20600";"BASTIA";"Immeuble"; 35.0;
364084;9.14917;42.30472;"09° 08' 57.00'' Est, 42° 18' 17.00'' Nord";"2B096";"CITADELLE";"RUE DU VIEUX MARCHE";"20250";"CORTE";"Bâtiment"; 15.0;"Société Privée SA"
392190;9.14861;42.15556;"09° 08' 55.00'' Est, 42° 09' 20.00'' Nord";"2B354";"CHIOSELLI";;"20219";"VIVARIO";"Pylône autostable"; 18.0;"Conseil Général"
399218;9.44694;42.70361;"09° 26' 49.00'' Est, 42° 42' 13.00'' Nord";"2B033";;"ROND POINT DU MAL LECLERC";"20600";"BASTIA";"Bâtiment"; 20.0;
399222;9.44306;42.70361;"09° 26' 35.00'' Est, 42° 42' 13.00'' Nord";"2B033";;"11 BD DU FANGO";"20600";"BASTIA";"Bâtiment"; 20.0;
418050;9.00306;42.54944;"09° 00' 11.00'' Est, 42° 32' 58.00'' Nord";"2B235";"COL DE BATTAGLIA";;"20259";"PIOGGIOLA";"Pylône autostable"; 17.0;"TDF"
419191;9.48111;42.54722;"09° 28' 52.00'' Est, 42° 32' 50.00'' Nord";"2B148";"PORETTA";"AEROPORT BASTIA PORETTA";"20290";"LUCCIANA";"Bâtiment"; 33.0;
423047;9.32250;42.48167;"09° 19' 21.00'' Est, 42° 28' 54.00'' Nord";"2B039";;"CIMETIÈRE DE SAN MICHELE";"20235";"BISINCHI";"Pylône autostable"; 20.4;"SFR"
435876;8.77750;42.37278;"08° 46' 39.00'' Est, 42° 22' 22.00'' Nord";"2B153";"PUNTA DI PUCIMONE";"D 351";"20245";"MANSO";"Pylône autostable"; 33.6;"TDF"
436554;9.26139;41.92333;"09° 15' 41.00'' Est, 41° 55' 24.00'' Nord";"2B366";;"CHEM DE CAMPOLONGU - STN TDF DE CHISA";"20240";"CHISA";"Pylône autostable"; 34.5;"TDF"
436711;9.42556;42.06500;"09° 25' 32.00'' Est, 42° 03' 54.00'' Nord";"2B002";"ALZITONE";"CHEM RURAL";"20270";"AGHIONE";"Pylône autostable"; 45.0;"TDF"
437491;9.29722;42.37278;"09° 17' 50.00'' Est, 42° 22' 22.00'' Nord";"2B051";"LORIANI";"RTE DE LORIANI / RUSIO - PYLONE TDF";"20244";"CAMBIA";"Pylône autostable"; 29.5;"TDF"
437560;9.34139;42.16833;"09° 20' 29.00'' Est, 42° 10' 06.00'' Nord";"2B016";"CASTELLO VECCHIO";"D14";"20270";"ANTISANTI";"Bâtiment"; 10.0;"ORANGE Services Fixes"
437565;9.34333;42.23750;"09° 20' 36.00'' Est, 42° 14' 15.00'' Nord";"2B226";"SUALE";;"20251";"PIETRASERENA";"Bâtiment"; 6.0;"ORANGE Services Fixes"
437573;9.24750;42.17583;"09° 14' 51.00'' Est, 42° 10' 33.00'' Nord";"2B347";;"ROUTE DE LA GIE";"20242";"VEZZANI";"Bâtiment"; 4.0;"ORANGE Services Fixes"
437575;9.37333;42.25444;"09° 22' 24.00'' Est, 42° 15' 16.00'' Nord";"2B356";"CROCE";"D 216";"20272";"ZALANA";"Pylône autostable"; 21.0;"ORANGE Services Fixes"
437750;9.39250;42.32361;"09° 23' 33.00'' Est, 42° 19' 25.00'' Nord";"2B208";"FUNGAJA";"VALLEE D'ALESANI";"20234";"PERELLI";"Pylône autostable"; 25.5;"TDF"
438092;9.39472;42.48806;"09° 23' 41.00'' Est, 42° 29' 17.00'' Nord";"2B166";;"COL DE PIRELLO - PYLONE TDF DE VOLPAJOLA";"20290";"MONTE";"Pylône autostable"; 33.8;"TDF"
439478;9.37472;42.42111;"09° 22' 29.00'' Est, 42° 25' 16.00'' Nord";"2B113";"CHAPELLE STE MARIE";;"20237";"FICAJA";"Pylône autostable"; 41.0;"TDF"
439854;9.39972;42.69639;"09° 23' 59.00'' Est, 42° 41' 47.00'' Nord";"2B033";"SERRA DI PIGNO";"PYLONE FT";"20200";"BASTIA";"Pylône autostable"; 42.0;"ORANGE Services Fixes"
440118;9.54528;42.25111;"09° 32' 43.00'' Est, 42° 15' 04.00'' Nord";"2B303";"PHARE D'ALISTRO";;"20230";"SAN-GIULIANO";"Pylône tubulaire"; 12.0;"ORANGE Services Fixes"
441578;9.36833;42.21750;"09° 22' 06.00'' Est, 42° 13' 03.00'' Nord";"2B126";"ST JEAN BAPTISTE";"ANGELINI ZUCCARELLO";"20251";"GIUNCAGGIO";"Pylône autostable"; 20.0;"SFR"
442085;9.38000;42.96917;"09° 22' 48.00'' Est, 42° 58' 09.00'' Nord";"2B107";"BOTTICELLA";"LA CHAPELLE STE CATHERINE  STATION TDF DE ERSA";"20275";"ERSA";"Pylône autostable"; 42.0;"TDF"
442196;9.29556;41.98056;"09° 17' 44.00'' Est, 41° 58' 50.00'' Nord";"2B277";"NIVALLELI";"HAMEAU DE ANIA SITE TDF DE PRUNELLI";"20243";"SERRA-DI-FIUMORBO";"Pylône autostable"; 34.0;"TDF"
443280;9.15861;42.33000;"09° 09' 31.00'' Est, 42° 19' 48.00'' Nord";"2B096";"MONTE CECU";"PYLÔNE FT";"20250";"CORTE";"Pylône autostable"; 20.0;"ORANGE Services Fixes"
443898;9.47333;42.10556;"09° 28' 24.00'' Est, 42° 06' 20.00'' Nord";"2B009";"TEPPE ROSSE";"CHÂTEAU D'EAU D'ALÉRIA";"20270";"ALERIA";"Château d'eau - réservoir"; 61.0;"Syndicat des eaux, Adduction"
444298;9.21083;42.11889;"09° 12' 39.00'' Est, 42° 07' 08.00'' Nord";"2B124";"COL DE LA CROIX";"CHEM RURAL PYLÔNE TDF DE GHISONI";"20227";"GHISONI";"Pylône autostable"; 40.0;"TDF"
445846;8.72444;42.58306;"08° 43' 28.00'' Est, 42° 34' 59.00'' Nord";"2B050";"LA REVELLATA";;"20260";"CALVI";"Phare"; 17.0;"DDE"
453074;9.44806;42.69750;"09° 26' 53.00'' Est, 42° 41' 51.00'' Nord";"2B033";;"R CÉSAR CAMPINCHI THÉÂTRE MUNICIPAL";"20200";"BASTIA";"Immeuble"; 27.0;"Commune, communauté de commune"
453618;9.39917;42.31889;"09° 23' 57.00'' Est, 42° 19' 08.00'' Nord";"2B208";"CARCHEPIANE";;"20234";"PERELLI";"Mât"; 10.0;"ORANGE Services Fixes"
453945;9.55028;42.28417;"09° 33' 01.00'' Est, 42° 17' 03.00'' Nord";"2B303";"ALISTRO";"PRÈS N.198 SUMALTO";"20230";"SAN-GIULIANO";"Pylône autostable"; 40.0;"TDF"
454312;9.38250;42.34972;"09° 22' 57.00'' Est, 42° 20' 59.00'' Nord";"2B067";"COL D'ARCAROTA";"PRÉS D71";"20229";"CARPINETO";"Pylône autostable"; 22.0;"TDF"
454405;9.40972;42.50167;"09° 24' 35.00'' Est, 42° 30' 06.00'' Nord";"2B192";"FOUNTONE";;"20290";"OLMO";"Pylône autostable"; 20.0;"ORANGE Services Fixes"
456138;9.52861;42.37472;"09° 31' 43.00'' Est, 42° 22' 29.00'' Nord";"2B313";"MORIANI";"D 34";"20230";"SAN-NICOLAO";"Bâtiment"; 3.0;"ORANGE Services Fixes"
457403;8.86778;42.56833;"08° 52' 04.00'' Est, 42° 34' 06.00'' Nord";"2B138";"CAPIGLIOLE";;"20225";"LAVATOGGIO";"Pylône autostable"; 32.0;"Towercast"
457668;9.52139;42.44472;"09° 31' 17.00'' Est, 42° 26' 41.00'' Nord";"2B207";"FERME DE FOLLELI SOTTANO";"STADE TERRAIN COMMUNAL";"20213";"PENTA-DI-CASINCA";"Pylône autostable"; 29.0;"FPS TOWERS"
458830;9.34167;42.16833;"09° 20' 30.00'' Est, 42° 10' 06.00'' Nord";"2B016";"CASTELLO VECCHIO";;"20270";"ANTISANTI";"Pylône autostable"; 73.0;"TDF"
459435;9.46389;42.75500;"09° 27' 50.00'' Est, 42° 45' 18.00'' Nord";"2B043";"CIME DE PIETRA PINZUTA";"RÉÉMETTEUR TDF DE SANTA MARIA DI LOTA 2";"20222";"BRANDO";"Pylône autostable"; 20.0;"TDF"
460789;9.48139;42.38000;"09° 28' 53.00'' Est, 42° 22' 48.00'' Nord";"2B302";"SERRALE";"STATION TDF DE SAN NICOLAO";"20230";"SAN-GIOVANNI-DI-MORIANI";"Pylône autostable"; 34.0;"TDF"
461480;9.34417;41.93472;"09° 20' 39.00'' Est, 41° 56' 05.00'' Nord";"2B342";"SANTA LUCIA";"RD 45";"20240";"VENTISERI";"Pylône autostable"; 42.5;"TDF"
461675;9.47806;42.36750;"09° 28' 41.00'' Est, 42° 22' 03.00'' Nord";"2B302";"TRIBBIOLU";"STATION TDF";"20230";"SAN-GIOVANNI-DI-MORIANI";"Pylône autostable"; 17.0;"TDF"
463472;8.82500;42.58583;"08° 49' 30.00'' Est, 42° 35' 09.00'' Nord";"2B150";"PIATOZZE";;"20260";"LUMIO";"Pylône tubulaire"; 24.0;"SFR"
463478;9.15278;42.29833;"09° 09' 10.00'' Est, 42° 17' 54.00'' Nord";"2B096";"COLOMBO";"BÂTIMENT DU CRITT DE L'UNIVERSITÉ";"20250";"CORTE";"Bâtiment"; 22.0;"Etat, Ministère"
464379;9.01778;42.58083;"09° 01' 04.00'' Est, 42° 34' 51.00'' Nord";"2B034";"SAN GIOVANNI";;"20226";"BELGODERE";"Pylône tubulaire"; 12.0;"ORANGE Services Fixes"
464381;9.02194;42.58417;"09° 01' 19.00'' Est, 42° 35' 03.00'' Nord";"2B034";"MALASPINA";;"20226";"BELGODERE";"Pylône autostable"; 12.0;"ORANGE Services Fixes"
464873;9.02889;42.64861;"09° 01' 44.00'' Est, 42° 38' 55.00'' Nord";"2B199";"LOZARI RÉSERVOIR";"ROUTE DÉPARTEMENTALE 81";"20226";"PALASCA";"Pylône autostable"; 42.0;"ORANGE"
467327;9.17056;42.25444;"09° 10' 14.00'' Est, 42° 15' 16.00'' Nord";"2B074";"VALDO";"CD 193  PYLONE FRANCE TELECOM";"20250";"CASANOVA";"Pylône autostable"; 20.0;"ORANGE Services Fixes"
468944;8.91694;42.59833;"08° 55' 01.00'' Est, 42° 35' 54.00'' Nord";"2B316";"CAPO-CORBINO";;"20220";"SANTA-REPARATA-DI-BALAGNA";"Pylône autostable"; 40.0;"TDF"
469049;9.40556;42.01667;"09° 24' 20.00'' Est, 42° 00' 60.00'' Nord";"2B123";;"AV DU 9 SEPTEMBRE RN 198 RES LE FIUMORBU";"20240";"GHISONACCIA";"Immeuble"; 19.0;"Copropriété, Syndic, SCI"
471195;8.91667;42.59861;"08° 54' 60.00'' Est, 42° 35' 55.00'' Nord";"2B231";"CORBINO";;"20220";"PIGNA";"Bâtiment"; 3.5;"Particulier"
471455;9.44972;42.85750;"09° 26' 59.00'' Est, 42° 51' 27.00'' Nord";"2B224";"MUSCONE";"RÉÉMETTEUR TDF DE PIÉTRACORBARA";"20233";"PIETRACORBARA";"Pylône autostable"; 34.2;"TDF"
471907;9.53417;42.21528;"09° 32' 03.00'' Est, 42° 12' 55.00'' Nord";"2B143";"SUALA-MAYO";;"20230";"LINGUIZZETTA";"Pylône autostable"; 20.0;"SFR"
474585;9.43500;42.92056;"09° 26' 06.00'' Est, 42° 55' 14.00'' Nord";"2B159";"MONTE CASTELLU";;"20287";"MERIA";"Pylône autostable"; 42.0;"TDF"
474834;9.45556;42.96694;"09° 27' 20.00'' Est, 42° 58' 01.00'' Nord";"2B261";"STAGNOLI";"STATION TDF DE ROGLIANO";"20247";"ROGLIANO";"Pylône autostable"; 23.0;"TDF"
475180;9.26194;42.49556;"09° 15' 43.00'' Est, 42° 29' 44.00'' Nord";"2B059";"COSTA RODA";"RD 105";"20235";"CANAVAGGIA";"Pylône autostable"; 33.0;"TDF"
476912;9.43028;42.52639;"09° 25' 49.00'' Est, 42° 31' 35.00'' Nord";"2B148";"PROCOJO";"TERRAIN COMMUNAL";"20290";"LUCCIANA";"Bâtiment"; 5.0;"SFR"
477509;8.92500;42.63194;"08° 55' 30.00'' Est, 42° 37' 55.00'' Nord";"2B134";"FOGATA";;"20220";"L'ILE-ROUSSE";"Pylône autostable"; 59.0;"ORANGE Services Fixes"
478109;9.39944;42.69444;"09° 23' 58.00'' Est, 42° 41' 40.00'' Nord";"2B033";"SERRA DI PIGNO";"PYLONE TUBU TDF";"20200";"BASTIA";"Pylône tubulaire"; 115.2;"TDF"
478312;9.07278;42.57917;"09° 04' 22.00'' Est, 42° 34' 45.00'' Nord";"2B199";"SAN COLOMBANO";;"20226";"PALASCA";"Pylône autostable"; 21.0;"ORANGE Services Fixes"
478314;9.11611;42.58694;"09° 06' 58.00'' Est, 42° 35' 13.00'' Nord";"2B180";"SAN MICHELE";;"20226";"NOVELLA";"Bâtiment"; 7.0;"ORANGE Services Fixes"
478316;9.09500;42.64611;"09° 05' 42.00'' Est, 42° 38' 46.00'' Nord";"2B199";"PETRA MONETA";;"20226";"PALASCA";"Pylône autostable"; 8.0;"ORANGE Services Fixes"
480083;9.44056;42.66778;"09° 26' 26.00'' Est, 42° 40' 04.00'' Nord";"2B033";;"CHEM D'ERBAJOLO PRÈS DU CIMETIÈRE MILITAIRE ALLEMAND";"20200";"BASTIA";"Immeuble"; 24.0;"Copropriété, Syndic, SCI"
482817;8.72861;42.40917;"08° 43' 43.00'' Est, 42° 24' 33.00'' Nord";"2B121";"PUNTA GINEPARELLU";"CRÊTE DE CHIUMI STATION TDF MANSO 1";"20245";"GALERIA";"Pylône autostable"; 40.0;"TDF"
484251;9.48556;42.80472;"09° 29' 08.00'' Est, 42° 48' 17.00'' Nord";"2B281";"MARINA DE SISCO";;"20233";"SISCO";"Pylône haubané"; 83.0;"TDF"
484982;9.17694;42.25556;"09° 10' 37.00'' Est, 42° 15' 20.00'' Nord";"2B074";"L'ORESTU";"CAMPING DE LA MIELLERIE";"20250";"CASANOVA";"Pylône tubulaire"; 20.0;"SFR"
486200;9.01056;42.51639;"09° 00' 38.00'' Est, 42° 30' 59.00'' Nord";"2B156";"COL DE CROCO D'OLO";;"20259";"MAUSOLEO";"Pylône autostable"; 34.0;"TDF"
487733;9.44028;42.66389;"09° 26' 25.00'' Est, 42° 39' 50.00'' Nord";"2B033";"ZI PASTORECCIA";"FURIANI BAT EUROBAT";"20200";"BASTIA";"Bâtiment"; 12.7;"Copropriété, Syndic, SCI"
493250;8.76917;42.54056;"08° 46' 09.00'' Est, 42° 32' 26.00'' Nord";"2B050";"CHIOSU SOPRANU";"ENTRE LES  RESERVOIRS ET LA STATION DE TRAITEMENT";"20260";"CALVI";"Château d'eau - réservoir"; 10.3;"Commune, communauté de commune"
496072;9.44278;42.70333;"09° 26' 34.00'' Est, 42° 42' 12.00'' Nord";"2B033";;"17 AV ZUCCARELLI - LA POSTE DIRECTION DEPARTEMENTA";"20200";"BASTIA";"Bâtiment"; 22.0;"La Poste"
497700;8.97861;42.55667;"08° 58' 43.00'' Est, 42° 33' 24.00'' Nord";"2B290";"CARIGNELLI";;"20226";"SPELONCATO";"Pylône tubulaire"; 6.0;"ORANGE Services Fixes"
497702;8.99694;42.53139;"08° 59' 49.00'' Est, 42° 31' 53.00'' Nord";"2B235";"EGLISE";;"20259";"PIOGGIOLA";"Pylône autostable"; 12.0;"ORANGE Services Fixes"
497704;8.99167;42.54583;"08° 59' 30.00'' Est, 42° 32' 45.00'' Nord";"2B235";"BOCCA DI CROCE D'OLU";;"20259";"PIOGGIOLA";"Pylône autostable"; 12.0;"ORANGE Services Fixes"
501410;8.91694;42.59833;"08° 55' 01.00'' Est, 42° 35' 54.00'' Nord";"2B316";"CAPU CORBINU";;"20220";"SANTA-REPARATA-DI-BALAGNA";"Pylône autostable"; 17.0;"Titulaire programme Radio/TV"
502242;9.52972;42.37444;"09° 31' 47.00'' Est, 42° 22' 28.00'' Nord";"2B313";"MORIANI PLAGE";"N.198 - RES. SAN NICOLAO";"20230";"SAN-NICOLAO";"Bâtiment"; 19.5;"Copropriété, Syndic, SCI"
503093;9.34389;41.93444;"09° 20' 38.00'' Est, 41° 56' 04.00'' Nord";"2B342";"SANTA LUCIA";"RD 45";"20240";"VENTISERI";"Bâtiment"; 4.0;"ORANGE Services Fixes"
503095;9.32667;41.90500;"09° 19' 36.00'' Est, 41° 54' 18.00'' Nord";"2B283";"PL MAIRIE";;"20240";"SOLARO";"Bâtiment"; 4.0;"ORANGE Services Fixes"
504053;9.41972;42.44806;"09° 25' 11.00'' Est, 42° 26' 53.00'' Nord";"2B280";"COL DE SANT'AGOSTINO";"D.237";"20215";"SILVARECCIO";"Pylône autostable"; 18.0;"ORANGE Services Fixes"
506112;9.23278;42.41333;"09° 13' 58.00'' Est, 42° 24' 48.00'' Nord";"2B003";"CIMA FERLETTA";"RTE DÉPART. 239A";"20244";"AITI";"Pylône autostable"; 46.0;"TDF"
507060;9.35778;42.75500;"09° 21' 28.00'' Est, 42° 45' 18.00'' Nord";"2B187";;"CH D'ALTORNU";"20217";"OLMETA-DI-CAPOCORSO";"Pylône autostable"; 23.0;"Conseil Général"
511019;9.44028;42.64444;"09° 26' 25.00'' Est, 42° 38' 40.00'' Nord";"2B120";"FORNAQUINA";"RN 193 GARAGE FORMULE 1";"20600";"FURIANI";"Pylône autostable"; 15.3;"Particulier"
514854;9.40139;42.69528;"09° 24' 05.00'' Est, 42° 41' 43.00'' Nord";"2B033";"SERRA DI  PIGNO";"PYLONE TOWERCAST";"20200";"BASTIA";"Pylône autostable"; 62.0;"Towercast"
517590;9.12639;42.58306;"09° 07' 35.00'' Est, 42° 34' 59.00'' Nord";"2B180";"FALECCIA";;"20226";"NOVELLA";"Pylône autostable"; 35.0;"SFR"
519426;9.49694;42.34556;"09° 29' 49.00'' Est, 42° 20' 44.00'' Nord";"2B311";;"PRES DE LA D330 EGLISE";"20221";"SANTA-MARIA-POGGIO";"Monument religieux"; 23.6;"Commune, communauté de commune"
519947;9.15833;42.32972;"09° 09' 30.00'' Est, 42° 19' 47.00'' Nord";"2B096";"MONTE CECU";"PYLÔNE ET LOCAL TDF";"20250";"CORTE";"Pylône autostable"; 42.0;"TDF"
523088;9.18917;42.23639;"09° 11' 21.00'' Est, 42° 14' 11.00'' Nord";"2B341";"COL DE BELLE GRANAJE";"CALANELLO";"20231";"VENACO";"Pylône autostable"; 27.0;"TDF"
524619;9.40361;42.01722;"09° 24' 13.00'' Est, 42° 01' 02.00'' Nord";"2B123";;"R DES ÉCOLES RÉPARTITEUR FT CLASSE IV";"20240";"GHISONACCIA";"Pylône autostable"; 27.0;"ORANGE Services Fixes"
525187;9.45056;42.69167;"09° 27' 02.00'' Est, 42° 41' 30.00'' Nord";"2B033";"TUNNEL DE BASTIA VILLE";"RN 193";"20200";"BASTIA";"Tunnel"; 12.0;"Commune, communauté de commune"
526035;9.18833;42.54083;"09° 11' 18.00'' Est, 42° 32' 27.00'' Nord";"2B223";"CAPIATOJA";;"20218";"PIETRALBA";"Pylône autostable"; 15.0;"SFR"
526183;9.19222;42.37417;"09° 11' 32.00'' Est, 42° 22' 27.00'' Nord";"2B193";"ALZO MANINCO";"STATION TDF D'OMESSA";"20236";"OMESSA";"Pylône autostable"; 25.7;"TDF"
532416;9.30806;41.98889;"09° 18' 29.00'' Est, 41° 59' 20.00'' Nord";"2B277";"PIETRAPOLA";;"20243";"SERRA-DI-FIUMORBO";"Pylône autostable"; 19.0;"ORANGE Services Fixes"
533109;9.25833;42.13139;"09° 15' 30.00'' Est, 42° 07' 53.00'' Nord";"2B229";"PUNTA DI PRUNICCIOSA";;"20242";"PIETROSO";"Pylône autostable"; 20.0;"ORANGE Services Fixes"
533111;9.30111;42.05806;"09° 18' 04.00'' Est, 42° 03' 29.00'' Nord";"2B236";"MULINACCIO";;"20240";"POGGIO-DI-NAZZA";"Pylône autostable"; 9.0;"ORANGE Services Fixes"
533116;9.32250;42.00944;"09° 19' 21.00'' Est, 42° 00' 34.00'' Nord";"2B251";"PULITACCI";;"20243";"PRUNELLI-DI-FIUMORBO";"Bâtiment"; 12.0;"Particulier"
533118;9.30083;41.98833;"09° 18' 03.00'' Est, 41° 59' 18.00'' Nord";"2B135";"PIETRAPOLA";;"20243";"ISOLACCIO-DI-FIUMORBO";"Pylône autostable"; 12.0;"ORANGE Services Fixes"
533121;9.40361;42.01722;"09° 24' 13.00'' Est, 42° 01' 02.00'' Nord";"2B123";;"R DES ÉCOLES RÉPARTITEUR FT CLASSE IV";"20240";"GHISONACCIA";"Bâtiment"; 15.0;"ORANGE Services Fixes"
534051;8.83778;42.51222;"08° 50' 16.00'' Est, 42° 30' 44.00'' Nord";"2B165";"MONTCALE";"STATION TDF";"20214";"MONCALE";"Local technique"; 7.1;"TDF"
538000;8.86778;42.56806;"08° 52' 04.00'' Est, 42° 34' 05.00'' Nord";"2B138";"COL DE SALVI";"PYLONE TDF";"20225";"LAVATOGGIO";"Pylône autostable"; 47.0;"TDF"
538419;9.34333;41.98361;"09° 20' 36.00'' Est, 41° 59' 01.00'' Nord";"2B277";"PRES DE PEDIVENDOSA";;"20243";"SERRA-DI-FIUMORBO";"Pylône autostable"; 23.0;"Particulier"
539093;8.85722;42.51028;"08° 51' 26.00'' Est, 42° 30' 37.00'' Nord";"2B049";"SAN BAGGIO";"CHEM COMMUNAL CENTRAL TÉLÉPHONIQUE";"20214";"CALENZANA";"Pylône autostable"; 18.0;"ORANGE Services Fixes"
551678;9.35000;42.62778;"09° 20' 60.00'' Est, 42° 37' 40.00'' Nord";"2B185";"GUALLO";"MONTE DI TUDA";"20232";"OLETTA";"Pylône autostable"; 15.0;"FPS TOWERS"
553692;9.44972;42.49278;"09° 26' 59.00'' Est, 42° 29' 34.00'' Nord";"2B346";"FALCONAJA";;"20215";"VESCOVATO";"Pylône autostable"; 25.0;"TDF"
563971;8.67361;42.51222;"08° 40' 25.00'' Est, 42° 30' 44.00'' Nord";"2B049";"CAPO CAVALLO";;"20214";"CALENZANA";"Pylône tubulaire"; 5.0;"ORANGE Services Fixes"
563973;8.69833;42.40139;"08° 41' 54.00'' Est, 42° 24' 05.00'' Nord";"2B121";"LE FANGO";;"20245";"GALERIA";"Bâtiment"; 8.0;"ORANGE Services Fixes"
563975;8.73750;42.44167;"08° 44' 15.00'' Est, 42° 26' 30.00'' Nord";"2B121";"CHERCHISANI";;"20245";"GALERIA";"Pylône tubulaire"; 9.0;"ORANGE Services Fixes"
563977;8.74583;42.47250;"08° 44' 45.00'' Est, 42° 28' 21.00'' Nord";"2B049";"TAMBALIANU";"ABONNÉ CHERUBINI";"20214";"CALENZANA";"Bâtiment"; 5.0;"ORANGE Services Fixes"
564135;8.69194;42.51306;"08° 41' 31.00'' Est, 42° 30' 47.00'' Nord";"2B049";"BOCCA SERRIA";"CHEM DE PIETRA BIANCA";"20214";"CALENZANA";"Pylône tubulaire"; 25.0;"ORANGE Services Fixes"
564805;9.15833;42.32972;"09° 09' 30.00'' Est, 42° 19' 47.00'' Nord";"2B096";"MONTE CECU";"PYLÔNE ET LOCAL TDF";"20250";"CORTE";"Local technique"; 8.2;"TDF"
565946;8.98250;42.56389;"08° 58' 57.00'' Est, 42° 33' 50.00'' Nord";"2B290";"FORMICAJA";"D63";"20226";"SPELONCATO";"Bâtiment"; 7.0;"ORANGE Services Fixes"
567129;8.75611;42.56639;"08° 45' 22.00'' Est, 42° 33' 59.00'' Nord";"2B050";;"3, BD WILSON GRAND HOTEL";"20260";"CALVI";"Immeuble"; 23.5;"Particulier"
573328;9.18528;42.17917;"09° 11' 07.00'' Est, 42° 10' 45.00'' Nord";"2B171";"VALLE";"D343";"20219";"MURACCIOLE";"Pylône tubulaire"; 12.0;"ORANGE"
573731;9.04028;42.59083;"09° 02' 25.00'' Est, 42° 35' 27.00'' Nord";"2B199";"ZIRCAJOLA";"CHEM RURAL PRÈS DE LA D.163";"20226";"PALASCA";"Pylône haubané"; 10.0;"ORANGE"
576048;8.87028;42.56583;"08° 52' 13.00'' Est, 42° 33' 57.00'' Nord";"2B138";"BOCCA DI SALVI";;"20225";"LAVATOGGIO";"Pylône autostable"; 14.0;"Titulaire programme Radio/TV"
580237;9.44250;42.70333;"09° 26' 33.00'' Est, 42° 42' 12.00'' Nord";"2B033";;"BD DU FANGO IMM LE CASA BELLA";"20200";"BASTIA";"Immeuble"; 19.0;"Société Privée SA"
580261;9.44722;42.69333;"09° 26' 50.00'' Est, 42° 41' 36.00'' Nord";"2B033";;"MONTÉE DES FILIPPINA";"20200";"BASTIA";"Pylône autostable"; 27.0;"SFR"
580543;9.43556;42.62306;"09° 26' 08.00'' Est, 42° 37' 23.00'' Nord";"2B037";"CASATORA";"CORSICA MARINE - RN 193";"20620";"BIGUGLIA";"Pylône autostable"; 12.0;"Particulier"
590004;9.30667;42.68222;"09° 18' 24.00'' Est, 42° 40' 56.00'' Nord";"2B298";"CISTERNINO";"TRAVERSE DE LA PUNTA PRÈS D.81";"20217";"SAINT-FLORENT";"Pylône autostable"; 27.0;"ORANGE Services Fixes"
590032;9.49000;42.33250;"09° 29' 24.00'' Est, 42° 19' 57.00'' Nord";"2B087";"COSTA";"D.252";"20221";"CERVIONE";"Pylône tubulaire"; 8.0;"ORANGE"
590038;9.30111;42.67944;"09° 18' 04.00'' Est, 42° 40' 46.00'' Nord";"2B298";"LE PORT";"STATION DE SAUVETAGE - D.81";"20217";"SAINT-FLORENT";"Pylône tubulaire"; 12.0;"ORANGE"
590830;9.44500;42.68278;"09° 26' 42.00'' Est, 42° 40' 58.00'' Nord";"2B033";"PONTE PRADO";"AV DE LA LIBÉRATION RÉS DES ILES";"20200";"BASTIA";"Bâtiment"; 29.0;"Copropriété, Syndic, SCI"
595854;9.15833;42.33000;"09° 09' 30.00'' Est, 42° 19' 48.00'' Nord";"2B096";"MONTE CECU";;"20250";"CORTE";"Pylône autostable"; 20.0;"Particulier"
601416;9.42972;42.73472;"09° 25' 47.00'' Est, 42° 44' 05.00'' Nord";"2B305";"MUCCHIETE";"STATION TDF DE SAN MARTINO DI LOTA";"20200";"SAN-MARTINO-DI-LOTA";"Pylône autostable"; 48.0;"TDF"
610074;9.31333;42.83278;"09° 18' 48.00'' Est, 42° 49' 58.00'' Nord";"2B058";"ABRO";;"20217";"CANARI";"Pylône autostable"; 16.0;"ORANGE Services Fixes"
610181;9.44472;42.95583;"09° 26' 41.00'' Est, 42° 57' 21.00'' Nord";"2B261";"MACINAGGIO";;"20247";"ROGLIANO";"Bâtiment"; 4.0;"ORANGE Services Fixes"
610588;9.38000;42.50444;"09° 22' 48.00'' Est, 42° 30' 16.00'' Nord";"2B054";"PIETRA PINTURA";;"20290";"CAMPILE";"Pylône autostable"; 12.0;"ORANGE Services Fixes"
612779;9.45917;42.77444;"09° 27' 33.00'' Est, 42° 46' 28.00'' Nord";"2B043";"SAN GIUSEPPE";"STATION TDF DE BRANDO ERBALUNGA";"20222";"BRANDO";"Pylône autostable"; 51.5;"TDF"
618162;9.02167;42.58417;"09° 01' 18.00'' Est, 42° 35' 03.00'' Nord";"2B034";"VALDO 'TERRAJO'";;"20226";"BELGODERE";"Pylône autostable"; 12.0;"SFR"
619776;9.21861;42.32694;"09° 13' 07.00'' Est, 42° 19' 37.00'' Nord";"2B306";"SAN ROCCO";;"20250";"SANTA-LUCIA-DI-MERCURIO";"Bâtiment"; 8.0;"ORANGE Services Fixes"
623036;9.44972;42.70111;"09° 26' 59.00'' Est, 42° 42' 04.00'' Nord";"2B033";;"24 R CESAR CAMPINCHI";"20200";"BASTIA";"Immeuble"; 34.5;"Copropriété, Syndic, SCI"
628983;9.46889;42.78722;"09° 28' 08.00'' Est, 42° 47' 14.00'' Nord";"2B043";"PETRE SCRITE";"CARRIÈRE DE BRANDO";"20222";"BRANDO";"Pylône autostable"; 8.0;"SFR"
629057;9.44222;42.66500;"09° 26' 32.00'' Est, 42° 39' 54.00'' Nord";"2B033";"ERBAIOLO";"RN 193 HÔTEL SAMPIERO";"20200";"BASTIA";"Immeuble"; 14.0;"Société Privée SA"
639671;9.21194;42.66167;"09° 12' 43.00'' Est, 42° 39' 42.00'' Nord";"2B314";"TURICELLA";"HAMEAU DE CASTA ACCÈS PAR RN199 AJACCIO/BASTIA";"20246";"SANTO-PIETRO-DI-TENDA";"Pylône tubulaire"; 19.0;"FPS TOWERS"
647127;9.04028;42.59083;"09° 02' 25.00'' Est, 42° 35' 27.00'' Nord";"2B199";"ZIRCAJOLA";;"20226";"PALASCA";"Pylône autostable"; 10.0;"SFR"
651168;9.12667;42.58250;"09° 07' 36.00'' Est, 42° 34' 57.00'' Nord";"2B180";"CIANCHINO";"TERRAIN PIETRERA";"20226";"NOVELLA";"Pylône autostable"; 30.4;"FPS TOWERS"
651908;9.14889;42.30611;"09° 08' 56.00'' Est, 42° 18' 22.00'' Nord";"2B096";"LA CITADELLE";;"20250";"CORTE";"Immeuble"; 19.9;"SDIS, secours, incendie"
658362;9.01583;42.30806;"09° 00' 57.00'' Est, 42° 18' 29.00'' Nord";"2B073";"POZZACCHI";;"20224";"CASAMACCIOLI";"Pylône autostable"; 31.0;"TDF"
666819;9.36361;42.68472;"09° 21' 49.00'' Est, 42° 41' 05.00'' Nord";"2B029";"COLLO ALLA PERNICE";"RÉSERVOIR COMMUNAL";"20253";"BARBAGGIO";"Pylône autostable"; 20.0;"SFR"
673175;9.29500;42.30778;"09° 17' 42.00'' Est, 42° 18' 28.00'' Nord";"2B005";"CD 215";;"20212";"ALANDO";"Bâtiment"; 4.0;"ORANGE Services Fixes"
673179;9.17500;42.17250;"09° 10' 30.00'' Est, 42° 10' 21.00'' Nord";"2B354";"CIMETIÈRE";;"20219";"VIVARIO";"Bâtiment"; 5.0;"ORANGE Services Fixes"
674110;9.43528;42.88722;"09° 26' 07.00'' Est, 42° 53' 14.00'' Nord";"2B046";"COL DE LA SERRA";"RÉÉMETTEUR TDF DE CAGNANO";"20228";"CAGNANO";"Pylône autostable"; 34.0;"TDF"
675423;9.42833;42.47528;"09° 25' 42.00'' Est, 42° 28' 31.00'' Nord";"2B145";"COSTE";"MAISON PUCCI";"20215";"LORETO-DI-CASINCA";"Bâtiment"; 12.0;"Particulier"
676923;9.44111;42.52250;"09° 26' 28.00'' Est, 42° 31' 21.00'' Nord";"2B148";;"RÉSIDENCE ST MICHEL";"20290";"LUCCIANA";"Immeuble"; 19.0;"Copropriété, Syndic, SCI"
679377;9.25028;42.49639;"09° 15' 01.00'' Est, 42° 29' 47.00'' Nord";"2B059";"PINIA";"SITE FT";"20235";"CANAVAGGIA";"Pylône autostable"; 15.0;"ORANGE Services Fixes"
679407;9.31889;42.48167;"09° 19' 08.00'' Est, 42° 28' 54.00'' Nord";"2B039";"PIETRA INCOLLO";"D.15 PRÈS CIMETIÈRE DE SAN MICHÈLE";"20235";"BISINCHI";"Pylône autostable"; 12.0;"ORANGE"
681141;9.44250;42.71806;"09° 26' 33.00'' Est, 42° 43' 05.00'' Nord";"2B353";"MONTE PINZUTU";"PIETRA MALA D 31";"20200";"VILLE-DI-PIETRABUGNO";"Pylône autostable"; 42.0;"TDF"
681354;9.16333;42.42361;"09° 09' 48.00'' Est, 42° 25' 25.00'' Nord";"2B248";"PRATO SUTTANO";;"20218";"PRATO-DI-GIOVELLINA";"Bâtiment"; 5.0;"ORANGE Services Fixes"
682033;9.31361;42.83278;"09° 18' 49.00'' Est, 42° 49' 58.00'' Nord";"2B058";;"RD 80 - PUNTA DI CANELLE STATION TDF DE CANARI 1";"20217";"CANARI";"Pylône autostable"; 18.0;"TDF"
682050;9.33944;42.87778;"09° 20' 22.00'' Est, 42° 52' 40.00'' Nord";"2B030";"MONTE GROSSU";"RD 33 STATION TDF DE CANARI 2";"20228";"BARRETTALI";"Pylône autostable"; 25.2;"TDF"
682775;9.19139;42.23583;"09° 11' 29.00'' Est, 42° 14' 09.00'' Nord";"2B341";"COL DE BEL GRANAJO";"RÉÉMETTEUR TDF";"20231";"VENACO";"Pylône autostable"; 26.0;"TDF"
683758;9.46750;42.93611;"09° 28' 03.00'' Est, 42° 56' 10.00'' Nord";"2B159";"ANCIEN MOULIN-TORRE";"STATION TDF DE MERIA 2 - LA MARINE";"20287";"MERIA";"Pylône autostable"; 16.0;"TDF"
686577;9.44361;42.69361;"09° 26' 37.00'' Est, 42° 41' 37.00'' Nord";"2B033";;"CH FORT LACROIX VILLA BARRATIER";"20200";"BASTIA";"Immeuble"; 11.5;"Particulier"
687843;9.49306;42.33389;"09° 29' 35.00'' Est, 42° 20' 02.00'' Nord";"2B335";;"RN 197 DE CERVIONE HALLE DES SPORTS";"20221";"VALLE-DI-CAMPOLORO";"Bâtiment"; 12.5;"Commune, communauté de commune"
691086;9.37694;41.91861;"09° 22' 37.00'' Est, 41° 55' 07.00'' Nord";"2B342";"CHIOVA";"ROUTE D 45 DE VENTISERI TRAVO";"20240";"VENTISERI";"Pylône autostable"; 25.0;"SFR"
693800;9.36306;42.94000;"09° 21' 47.00'' Est, 42° 56' 24.00'' Nord";"2B170";;"RTE DE MUCCHIETA STATION T.D.F";"20238";"MORSIGLIA";"Pylône autostable"; 15.0;"TDF"
693850;9.34472;42.90528;"09° 20' 41.00'' Est, 42° 54' 19.00'' Nord";"2B233";"LA CROIX GROTELLA";"RD33 STATION TDF";"20228";"PINO";"Pylône autostable"; 15.0;"TDF"
693868;9.33028;42.81806;"09° 19' 49.00'' Est, 42° 49' 05.00'' Nord";"2B183";;"RTE DE L'USINE D'AMIANTE STATION TDF DE OGLIASTRO";"20217";"OGLIASTRO";"Pylône autostable"; 24.0;"TDF"
699940;9.54000;42.34056;"09° 32' 24.00'' Est, 42° 20' 26.00'' Nord";"2B311";"PORT DE TAVERNA";;"20221";"SANTA-MARIA-POGGIO";"Pylône tubulaire"; 15.0;"SFR"
709355;9.44250;42.59361;"09° 26' 33.00'' Est, 42° 35' 37.00'' Nord";"2B042";;"ALLÉE VERTE Z.I DE PURETTONE SCI CANALE (TRAGECO)";"20290";"BORGO";"Pylône autostable"; 25.0;"ORANGE"
712171;9.44028;42.67083;"09° 26' 25.00'' Est, 42° 40' 15.00'' Nord";"2B033";;"CITÉ SCOLAIRE DE MONTESORO R DE LA 4ÈME DMM";"20600";"BASTIA";"Bâtiment"; 31.0;"Etat, Ministère"
720349;8.95333;42.61667;"08° 57' 12.00'' Est, 42° 37' 00.00'' Nord";"2B168";"SAN QUILICO";"CIMETIERE DE MONTICELLO";"20220";"MONTICELLO";"Mât"; 5.0;"BOUYGUES"
721570;9.41000;42.50083;"09° 24' 36.00'' Est, 42° 30' 03.00'' Nord";"2B192";"FOUNTONE";"PRES DE LA D10";"20290";"OLMO";"Dalle en béton"; 4.0;"Particulier"
721657;9.43944;42.64528;"09° 26' 22.00'' Est, 42° 38' 43.00'' Nord";"2B120";"FURNAGINA";"RN.193 NAUTICA";"20600";"FURIANI";"Immeuble"; 15.0;"Société Privée SA"
725759;9.03028;42.22861;"09° 01' 49.00'' Est, 42° 13' 43.00'' Nord";"2B096";"GROTELLE";;"20250";"CORTE";"Bâtiment"; 3.0;"Particulier"
737081;9.45611;42.70944;"09° 27' 22.00'' Est, 42° 42' 34.00'' Nord";"2B353";"TOGA";"CAPITAINERIE DU PORT DE TOGA";"20200";"VILLE-DI-PIETRABUGNO";"Bâtiment"; 16.0;"Société Privée SA"
737941;9.45056;42.70306;"09° 27' 02.00'' Est, 42° 42' 11.00'' Nord";"2B033";;"R. CÉSAR CAMPINCHI BÂT. FRANCE TÉLÉCOM";"20200";"BASTIA";"Bâtiment"; 31.0;"ORANGE Services Fixes"
738572;9.01528;42.33500;"09° 00' 55.00'' Est, 42° 20' 06.00'' Nord";"2B047";"PONT DE VIGNACCIO";"CAMPANA";"20224";"CALACUCCIA";"Bâtiment"; 8.0;"ORANGE Services Fixes"
738574;8.89278;42.28667;"08° 53' 34.00'' Est, 42° 17' 12.00'' Nord";"2B007";"CASTELLU DI VERGIO";;"20224";"ALBERTACCE";"Bâtiment"; 10.0;"Particulier"
738576;8.88944;42.29361;"08° 53' 22.00'' Est, 42° 17' 37.00'' Nord";"2B007";"CIATTARINU";"COL DE VERGIO 2ÈME REP";"20224";"ALBERTACCE";"Bâtiment"; 7.0;"Particulier"
740146;9.46778;42.78750;"09° 28' 04.00'' Est, 42° 47' 15.00'' Nord";"2B043";"PIETRE SCRITE";;"20222";"BRANDO";"Pylône tubulaire"; 15.0;"ORANGE"
744769;9.44083;42.70667;"09° 26' 27.00'' Est, 42° 42' 24.00'' Nord";"2B353";;"LES TERRASSE DU FANGO-D.I.S.S. -";"20200";"VILLE-DI-PIETRABUGNO";"Immeuble"; 22.0;"Société Privée SA"
752718;9.00944;42.34806;"09° 00' 34.00'' Est, 42° 20' 53.00'' Nord";"2B147";"BATTAIOLA";;"20224";"LOZZI";"Pylône autostable"; 18.0;"ORANGE Services Fixes"
774574;9.37500;42.90528;"09° 22' 30.00'' Est, 42° 54' 19.00'' Nord";"2B152";"TOUR DE SENEQUE";"PYLONE TDF DE LURI";"20228";"LURI";"Pylône autostable"; 26.0;"TDF"
774607;9.45694;42.72722;"09° 27' 25.00'' Est, 42° 43' 38.00'' Nord";"2B305";;"58 RTE DE SAN MARTINO D.131";"20200";"SAN-MARTINO-DI-LOTA";"Immeuble"; 8.0;"Particulier"
774611;9.15194;42.29917;"09° 09' 07.00'' Est, 42° 17' 57.00'' Nord";"2B096";;"QUARTIER GROSSETTI UNIVERSITÉ DE CORTE";"20250";"CORTE";"Immeuble"; 15.0;"Etat, Ministère"
774614;9.43639;42.62083;"09° 26' 11.00'' Est, 42° 37' 15.00'' Nord";"2B037";"CASATORA";"RN 193 - PETRELLE";"20620";"BIGUGLIA";"Immeuble"; 19.0;"Copropriété, Syndic, SCI"
774616;9.44194;42.56222;"09° 26' 31.00'' Est, 42° 33' 44.00'' Nord";"2B042";"RIVINCO";"5075 CHEM DE BORGO À LA PLAINE RÉS. LE KALLISTE";"20290";"BORGO";"Immeuble"; 19.0;"Particulier"
774625;9.42639;42.67750;"09° 25' 35.00'' Est, 42° 40' 39.00'' Nord";"2B033";"PAESE NOVU";"CHEMIN DE PINELLO";"20200";"BASTIA";"Pylône autostable"; 12.0;"ORANGE"
774627;9.44306;42.70333;"09° 26' 35.00'' Est, 42° 42' 12.00'' Nord";"2B033";"LE FANGO";"15 BD FANGO MAISON DE L'AGRICULTURE";"20200";"BASTIA";"Immeuble"; 22.0;"Etat, Ministère"
774629;8.76167;42.55500;"08° 45' 42.00'' Est, 42° 33' 18.00'' Nord";"2B050";;"AV CHRISTOPHE COLOMB";"20260";"CALVI";"Pylône autostable"; 18.0;"ORANGE"
774631;9.44444;42.68111;"09° 26' 40.00'' Est, 42° 40' 52.00'' Nord";"2B033";"LUPINO";"R DE LA LIBÉRATION RÉS. STELLA MARINA";"20200";"BASTIA";"Immeuble"; 27.0;"Copropriété, Syndic, SCI"
774633;9.45056;42.70722;"09° 27' 02.00'' Est, 42° 42' 26.00'' Nord";"2B033";;"BD  DE TOGA";"20200";"BASTIA";"Immeuble"; 24.0;"Etablissement de soins"
774657;9.50944;42.11667;"09° 30' 34.00'' Est, 42° 07' 00.00'' Nord";"2B009";;"PASTORICCIA";"20270";"ALERIA";"Pylône autostable"; 22.0;"ORANGE"
774661;8.76972;42.53944;"08° 46' 11.00'' Est, 42° 32' 22.00'' Nord";"2B050";"CARDETTU";"RTE CHIOSU SOPRANU";"20260";"CALVI";"Pylône autostable"; 11.0;"ORANGE"
774665;8.92222;42.40389;"08° 55' 20.00'' Est, 42° 24' 14.00'' Nord";"2B023";"PLATEAU DE STAGNU";"STATION ASCO";"20276";"ASCO";"Pylône autostable"; 12.0;"ORANGE Services Fixes"
774671;9.44750;42.69028;"09° 26' 51.00'' Est, 42° 41' 25.00'' Nord";"2B033";"ST-JOSEPH";"1 R CÉSAR VEZZANI RÉS. LE COTI";"20200";"BASTIA";"Bâtiment"; 24.0;"Copropriété, Syndic, SCI"
774676;9.43139;42.66139;"09° 25' 53.00'' Est, 42° 39' 41.00'' Nord";"2B120";"BRACONE";"CHEMIN DE CARRAGHJA CENTRE DE SECOURS SDIS";"20600";"FURIANI";"Pylône autostable"; 21.0;"SDIS, secours, incendie"
774678;9.15056;42.30889;"09° 09' 02.00'' Est, 42° 18' 32.00'' Nord";"2B096";"PANATE";"D 623 - AV DU BARON MARIANI CENTRAL TRANS DE CORTE";"20250";"CORTE";"Pylône tubulaire"; 20.0;"ORANGE"
774721;9.44972;42.54861;"09° 26' 59.00'' Est, 42° 32' 55.00'' Nord";"2B148";"CROCETTA";"D.507 - CHEM RURAL";"20290";"LUCCIANA";"Pylône autostable"; 20.0;"ORANGE Services Fixes"
779826;9.48111;42.54778;"09° 28' 52.00'' Est, 42° 32' 52.00'' Nord";"2B148";"PORETTA";"AEROPORT BASTIA PORETTA";"20290";"LUCCIANA";"Bâtiment"; 18.0;"CCI,Ch Metiers,Port Aut,Aérop"
781289;9.43972;42.67194;"09° 26' 23.00'' Est, 42° 40' 19.00'' Nord";"2B033";;"AV PAUL GIACCOBI IMM TDF";"20200";"BASTIA";"Immeuble"; 13.0;"Copropriété, Syndic, SCI"
787138;9.44361;42.48917;"09° 26' 37.00'' Est, 42° 29' 21.00'' Nord";"2B346";"SANTI";;"20215";"VESCOVATO";"Pylône autostable"; 10.0;"Commune, communauté de commune"
787531;9.34222;42.78222;"09° 20' 32.00'' Est, 42° 46' 56.00'' Nord";"2B178";;"ROUTE DE BONIFACIO D80 LICCIOLE";"20217";"NONZA";"Mât"; 9.0;"ORANGE Services Fixes"
787533;9.35972;42.57917;"09° 21' 35.00'' Est, 42° 34' 45.00'' Nord";"2B265";;"MAIRIE";"20239";"RUTALI";"Bâtiment"; 10.0;"Commune, communauté de commune"
788635;8.91917;42.54500;"08° 55' 09.00'' Est, 42° 32' 42.00'' Nord";"2B173";"COSTA";"RD 71 TERRAIN NAPOLEONI";"20225";"MURO";"Pylône autostable"; 8.0;"FPS TOWERS"
792184;9.36722;42.93500;"09° 22' 02.00'' Est, 42° 56' 06.00'' Nord";"2B170";"STE LUCIE";"CD 35";"20238";"MORSIGLIA";"Pylône autostable"; 13.0;"FPS TOWERS"
794487;9.43694;42.63667;"09° 26' 13.00'' Est, 42° 38' 12.00'' Nord";"2B120";"PRECOJO";"PRÈS N193";"20600";"FURIANI";"Pylône tubulaire"; 25.0;"ORANGE"
800992;9.44694;42.69639;"09° 26' 49.00'' Est, 42° 41' 47.00'' Nord";"2B033";;"4 R FAVALLELI";"20200";"BASTIA";"Immeuble"; 33.0;"Société Privée SA"
817786;9.33556;42.89111;"09° 20' 08.00'' Est, 42° 53' 28.00'' Nord";"2B030";"MURU ALTU";;"20228";"BARRETTALI";"Pylône autostable"; 7.0;"ORANGE Services Fixes"
817788;9.33556;42.88778;"09° 20' 08.00'' Est, 42° 53' 16.00'' Nord";"2B030";"MINERVIU";;"20228";"BARRETTALI";"Pylône autostable"; 10.0;"ORANGE Services Fixes"
817795;9.33167;42.58611;"09° 19' 54.00'' Est, 42° 35' 10.00'' Nord";"2B172";"SAN MICHELE";;"20239";"MURATO";"Bâtiment"; 6.0;"ORANGE Services Fixes"
817797;9.26556;42.67389;"09° 15' 56.00'' Est, 42° 40' 26.00'' Nord";"2B298";"MONTE REVINCU";;"20217";"SAINT-FLORENT";"Pylône autostable"; 12.0;"ORANGE Services Fixes"
817799;9.21722;42.66556;"09° 13' 02.00'' Est, 42° 39' 56.00'' Nord";"2B314";"CASTA";;"20246";"SANTO-PIETRO-DI-TENDA";"Pylône autostable"; 12.0;"ORANGE Services Fixes"
825368;9.42611;42.70250;"09° 25' 34.00'' Est, 42° 42' 09.00'' Nord";"2B033";"CARDO";"VILLA VISTA BELLA";"20200";"BASTIA";"Pylône autostable"; 8.0;"Particulier"
827789;9.20194;42.72056;"09° 12' 07.00'' Est, 42° 43' 14.00'' Nord";"2B314";;"ABONNÉ MISTRALI CAMPING U  PARADISO";"20246";"SANTO-PIETRO-DI-TENDA";"Bâtiment"; 4.0;"Particulier"
827791;9.20083;42.72111;"09° 12' 03.00'' Est, 42° 43' 16.00'' Nord";"2B314";;"ABONNÉ SYNDICAT DES AGRIATES SALECCIA";"20246";"SANTO-PIETRO-DI-TENDA";"Bâtiment"; 4.0;"Particulier"
827793;9.20222;42.72056;"09° 12' 08.00'' Est, 42° 43' 14.00'' Nord";"2B314";;"ABONNÉ SALECCIA PUBLIPHONE CAMPING U PARADISO";"20246";"SANTO-PIETRO-DI-TENDA";"Bâtiment"; 4.0;"Particulier"
829470;8.88917;42.54139;"08° 53' 21.00'' Est, 42° 32' 29.00'' Nord";"2B167";"RÉSERVOIR DE LUNGHIGNANO";;"20214";"MONTEGROSSO";"Pylône autostable"; 10.0;"ORANGE Services Fixes"
829472;8.87778;42.54250;"08° 52' 40.00'' Est, 42° 32' 33.00'' Nord";"2B167";"SANTA CROCCE";;"20214";"MONTEGROSSO";"Bâtiment"; 5.0;"ORANGE Services Fixes"
830859;8.63111;42.37361;"08° 37' 52.00'' Est, 42° 22' 25.00'' Nord";"2B121";;"PUNTA DI LITERNICCIA";"20245";"GALERIA";"Mât"; 7.0;"Société Privée SA"
848001;9.48111;42.54722;"09° 28' 52.00'' Est, 42° 32' 50.00'' Nord";"2B148";;"AEROPORT BASTIA PORETTA AEROPORT BASTIA PORETTA";"20290";"LUCCIANA";"Bâtiment"; 10.0;"Aviation Civile"
848725;9.14444;42.31250;"09° 08' 40.00'' Est, 42° 18' 45.00'' Nord";"2B096";"ST PANCRACE PETRERA";"TERRAIN ORI";"20250";"CORTE";"Pylône tubulaire"; 12.0;"SFR"
848830;8.88333;42.28556;"08° 52' 60.00'' Est, 42° 17' 08.00'' Nord";"2B007";"CAPU DI VERGIO";"VERGHIU SUPRANU";"20224";"ALBERTACCE";"Pylône autostable"; 15.0;"Société Privée SA"
848930;9.45111;42.70583;"09° 27' 04.00'' Est, 42° 42' 21.00'' Nord";"2B033";;"R HENRI TOMASI MAISON COMTE";"20200";"BASTIA";"Immeuble"; 11.0;"Copropriété, Syndic, SCI"
850238;9.46500;42.55528;"09° 27' 54.00'' Est, 42° 33' 19.00'' Nord";"2B042";"PERRONE";"SITE ITAS TIM";"20290";"BORGO";"Pylône autostable"; 24.0;"Itas Tim"
852199;9.41417;42.27972;"09° 24' 51.00'' Est, 42° 16' 47.00'' Nord";"2B161";;"CHIOSO AL CAPO SANTO";"20270";"MOITA";"Bâtiment"; 8.0;"ORANGE Services Fixes"
852640;9.42944;42.28389;"09° 25' 46.00'' Est, 42° 17' 02.00'' Nord";"2B225";"COL DE SAN GAVINO";"D.117 STATION TDF DE PIETRA DI VERDE";"20230";"PIETRA-DI-VERDE";"Pylône autostable"; 20.0;"TDF"
855520;8.75806;42.56778;"08° 45' 29.00'' Est, 42° 34' 04.00'' Nord";"2B050";;"PL BEL'OMBRA HOTEL CHRISTOPHE COLOMB";"20260";"CALVI";"Immeuble"; 21.0;"Copropriété, Syndic, SCI"
857568;9.15417;42.30167;"09° 09' 15.00'' Est, 42° 18' 06.00'' Nord";"2B096";;"AV DU 9 SEPTEMBRE HOP CORTE TATTONE";"20250";"CORTE";"Bâtiment"; 15.0;"Etablissement de soins"
857578;9.42583;42.70111;"09° 25' 33.00'' Est, 42° 42' 04.00'' Nord";"2B033";;"RESERVOIR DE CARDO";"20200";"BASTIA";"Pylône autostable"; 25.0;"Société Privée SA"
857700;9.40056;42.69500;"09° 24' 02.00'' Est, 42° 41' 42.00'' Nord";"2B033";;"SERRA DI PIGNO";"20200";"BASTIA";"Pylône autostable"; 15.0;"Société Privée SA"
857772;8.74389;42.56278;"08° 44' 38.00'' Est, 42° 33' 46.00'' Nord";"2B050";;"D 81 ROUTE DE PORTO RESERVOIR GIE";"20260";"CALVI";"Pylône autostable"; 14.0;"Société Privée SA"
857778;9.22000;42.16417;"09° 13' 12.00'' Est, 42° 09' 51.00'' Nord";"2B347";;"PUNTA PAGLIA";"20242";"VEZZANI";"Pylône autostable"; 18.0;"Particulier"
857835;9.41861;42.78861;"09° 25' 07.00'' Est, 42° 47' 19.00'' Nord";"2B043";;"MONTE STELLO";"20222";"BRANDO";"Pylône autostable"; 10.0;"Particulier"
857892;9.24972;42.49611;"09° 14' 59.00'' Est, 42° 29' 46.00'' Nord";"2B059";;"MORTULA SITE CRT";"20235";"CANAVAGGIA";"Pylône autostable"; 21.0;"Société Privée SA"
858300;9.46528;42.55556;"09° 27' 55.00'' Est, 42° 33' 20.00'' Nord";"2B042";;"PERRONE";"20290";"BORGO";"Pylône autostable"; 18.0;"TDF"
858315;8.83611;42.51194;"08° 50' 10.00'' Est, 42° 30' 43.00'' Nord";"2B165";"CUNTEE";"MONCALE";"20214";"MONCALE";"Pylône autostable"; 20.0;"TDF"
880840;8.72861;42.40917;"08° 43' 43.00'' Est, 42° 24' 33.00'' Nord";"2B121";"PUNTA GINEPARELLU";"CRETE DE CHIUMI";"20245";"GALERIA";"Bâtiment"; 2.0;"EDF GDF"
881529;9.37028;42.06583;"09° 22' 13.00'' Est, 42° 03' 57.00'' Nord";"2B123";"CIARLINO";"POSTE 90 KV";"20240";"GHISONACCIA";"Bâtiment"; 15.0;"EDF GDF"
894852;9.36972;42.00611;"09° 22' 11.00'' Est, 42° 00' 22.00'' Nord";"2B251";"ABBAZIA";"CAPELLA SOPRANA STADE COMMUNAL";"20243";"PRUNELLI-DI-FIUMORBO";"Pylône tubulaire"; 30.0;"ORANGE"
896872;9.00278;42.54944;"09° 00' 10.00'' Est, 42° 32' 58.00'' Nord";"2B235";"COL DE BATTAGLIA";"OLMI CAPPELLA";"20259";"PIOGGIOLA";"Pylône autostable"; 11.0;"EDF GDF"
899660;8.74694;42.56083;"08° 44' 49.00'' Est, 42° 33' 39.00'' Nord";"2B050";"SANTORE";"SIEGE DU DISTRICT EDF";"20260";"CALVI";"Bâtiment"; 5.0;"EDF GDF"
904834;9.01306;42.34833;"09° 00' 47.00'' Est, 42° 20' 54.00'' Nord";"2B147";"LOZZI";"BOCCA DI SANSARIO";"20224";"LOZZI";"Pylône autostable"; 15.9;"TDF"
908425;9.44556;42.57722;"09° 26' 44.00'' Est, 42° 34' 38.00'' Nord";"2B042";;"RN N193  AJA ROSSA LD CANAVAGGIO";"20290";"BORGO";"Bâtiment"; 12.0;"Etat, Ministère"
918095;9.14111;42.47750;"09° 08' 28.00'' Est, 42° 28' 39.00'' Nord";"2B162";"CAPANNACCE";"D47";"20218";"MOLTIFAO";"Pylône autostable"; 12.0;"ORANGE Services Fixes"
928562;9.03389;42.45444;"09° 02' 02.00'' Est, 42° 27' 16.00'' Nord";"2B023";"A FUNTANELLA";"ASCO VILLAGE PYLÔNE FT";"20276";"ASCO";"Pylône autostable"; 13.0;"ORANGE Services Fixes"
943650;9.11417;42.48806;"09° 06' 51.00'' Est, 42° 29' 17.00'' Nord";"2B162";"POGGIOLA";;"20218";"MOLTIFAO";"Pylône tubulaire"; 15.0;"ORANGE"
951779;9.18972;42.23583;"09° 11' 23.00'' Est, 42° 14' 09.00'' Nord";"2B341";"BUTTILARSA";;"20231";"VENACO";"Pylône autostable"; 25.0;"ORANGE"
955634;8.75583;42.47611;"08° 45' 21.00'' Est, 42° 28' 34.00'' Nord";"2B049";"MISSOJA";"COL DE MARSOLINO BOCA DI MARSOLINU";"20214";"CALENZANA";"Pylône autostable"; 21.0;"TDF"
956420;9.42972;42.46167;"09° 25' 47.00'' Est, 42° 27' 42.00'' Nord";"2B280";"CAVALLERIA";"COL SAN ANGELO";"20215";"SILVARECCIO";"Pylône autostable"; 15.0;"ORANGE Services Fixes"
961123;9.51000;42.09583;"09° 30' 36.00'' Est, 42° 05' 45.00'' Nord";"2B009";"LAMAJIONE";"RN198";"20270";"ALERIA";"Pylône autostable"; 25.0;"SFR"
967163;9.34861;42.01528;"09° 20' 55.00'' Est, 42° 00' 55.00'' Nord";"2B251";;"RESERVOIR DE MORTA SAN GIOVANNI";"20243";"PRUNELLI-DI-FIUMORBO";"Château d'eau - réservoir"; 5.0;"Syndicat des eaux, Adduction"
967165;9.36611;42.07611;"09° 21' 58.00'' Est, 42° 04' 34.00'' Nord";"2B123";;"D 344 RESERVOIR ST ANTOINE";"20240";"GHISONACCIA";"Château d'eau - réservoir"; 6.0;"Syndicat des eaux, Adduction"
967645;9.40389;42.01111;"09° 24' 14.00'' Est, 42° 00' 40.00'' Nord";"2B123";;"AV DU 9 SEPTEMBRE STATION DE POMPAGE";"20240";"GHISONACCIA";"Bâtiment"; 5.0;"Syndicat des eaux, Adduction"
971286;8.82528;42.58583;"08° 49' 31.00'' Est, 42° 35' 09.00'' Nord";"2B150";"PIATOZZE";"LUMIO";"20260";"LUMIO";"Pylône tubulaire"; 20.0;"FPS TOWERS"
974474;8.79000;42.52472;"08° 47' 24.00'' Est, 42° 31' 29.00'' Nord";"2B050";;"AEROPORT DE CALVI STE CATHERINE AEROGARE LOCAL CASAVIA";"20260";"CALVI";"Bâtiment"; 8.0;"Société Privée SA"
974476;8.79000;42.52528;"08° 47' 24.00'' Est, 42° 31' 31.00'' Nord";"2B050";;"AEROPORT DE CALVI STE CATHERINE AEROGARE";"20260";"CALVI";"Bâtiment"; 8.0;"Société Privée SA"
992171;8.71889;42.57861;"08° 43' 08.00'' Est, 42° 34' 43.00'' Nord";"2B050";;"STARESO SITE LVMC";"20260";"CALVI";"Pylône autostable"; 10.0;"Société Privée SA"
992196;9.43667;42.69444;"09° 26' 12.00'' Est, 42° 41' 40.00'' Nord";"2B033";;"SAN GAETANO SITE RESERVOIR CGE";"20200";"BASTIA";"Château d'eau - réservoir"; 6.0;"Société Privée SA"
1006430;9.54000;42.26028;"09° 32' 24.00'' Est, 42° 15' 37.00'' Nord";"2B303";"PHARE D'ALISTRO";"CANALE DI VERDÉ";"20230";"SAN-GIULIANO";"Pylône autostable"; 12.0;"EDF GDF"
1008327;9.34694;42.16639;"09° 20' 49.00'' Est, 42° 09' 59.00'' Nord";"2B016";"CHEMIN DÉPARTEMENTAL N° 143";"CHE DEP DE ALERIA  À  ANTISANTI";"20270";"ANTISANTI";"Bâtiment"; 8.0;"ORANGE Services Fixes"
1033048;9.44250;42.55139;"09° 26' 33.00'' Est, 42° 33' 05.00'' Nord";"2B042";;"AV DE BORGO MORMORANA";"20290";"BORGO";"Bâtiment"; 15.0;"Société Privée SA"
1034517;9.07806;42.57861;"09° 04' 41.00'' Est, 42° 34' 43.00'' Nord";"2B180";;"CIMA DI L ALTURAILA";"20226";"NOVELLA";"Pylône autostable"; 6.0;"ORANGE Services Fixes"
1034552;9.24833;42.49611;"09° 14' 54.00'' Est, 42° 29' 46.00'' Nord";"2B059";;"MORTULA";"20235";"CANAVAGGIA";"Pylône autostable"; 21.0;"Société Privée SA"
1037954;9.40528;42.00056;"09° 24' 19.00'' Est, 42° 00' 02.00'' Nord";"2B251";;"ZI MIGLIACCIARO RN 198";"20243";"PRUNELLI-DI-FIUMORBO";"Pylône autostable"; 30.0;"SFR"
1038171;9.45250;42.69583;"09° 27' 09.00'' Est, 42° 41' 45.00'' Nord";"2B033";"LA CITADELLE";"TUNNEL DE BASTIA";"20200";"BASTIA";"Bâtiment"; 6.0;"Commune, communauté de commune"
1046937;9.40000;42.69389;"09° 24' 00.00'' Est, 42° 41' 38.00'' Nord";"2B033";"SERRA DI PIGNO";"PYLONE TUBU TDF";"20200";"BASTIA";"Bâtiment"; 24.0;"TDF"
1047255;9.44444;42.59250;"09° 26' 40.00'' Est, 42° 35' 33.00'' Nord";"2B042";"LES CHENES";"RUE DES ORANGERS ZI DE TRAGONE ALLÉE VERTE";"20290";"BORGO";"Pylône autostable"; 30.0;"TDF"
1047257;8.77000;42.54083;"08° 46' 12.00'' Est, 42° 32' 27.00'' Nord";"2B050";"CARDETTU";;"20260";"CALVI";"Pylône autostable"; 18.0;"Particulier"
1047264;9.16861;42.30111;"09° 10' 07.00'' Est, 42° 18' 04.00'' Nord";"2B096";;"ROUTE D'ALERIA N 200 ZA DE PORETTA";"20250";"CORTE";"Pylône autostable"; 12.0;"SFR"
1049037;9.44639;42.69250;"09° 26' 47.00'' Est, 42° 41' 33.00'' Nord";"2B033";"LES TORETTA";"CHEMIN SAN ROCUCCIO TERRAIN ALBERTINI";"20200";"BASTIA";"Pylône tubulaire"; 11.0;"SFR"
1050339;9.39944;42.69361;"09° 23' 58.00'' Est, 42° 41' 37.00'' Nord";"2B033";"SERRA DI PIGNO";"PYLÔLE DEF";"20200";"BASTIA";"Pylône autostable"; 35.0;"Autres"
1056418;9.44417;42.70139;"09° 26' 39.00'' Est, 42° 42' 05.00'' Nord";"2B033";;"RUE MARCEL PAUL POSTE 90 KV";"20200";"BASTIA";"Bâtiment"; 5.0;"EDF GDF"
1058078;9.40111;42.69528;"09° 24' 04.00'' Est, 42° 41' 43.00'' Nord";"2B033";"SERRA DI PIGNO";"RELAIS EDF";"20200";"BASTIA";"Mât"; 15.0;"EDF GDF"
1074105;8.88333;42.28528;"08° 52' 60.00'' Est, 42° 17' 07.00'' Nord";"2B007";;"CAPU DI VERGIO";"20224";"ALBERTACCE";"Mât métallique"; 5.0;"ORANGE"
1133740;9.42139;42.60139;"09° 25' 17.00'' Est, 42° 36' 05.00'' Nord";"2B037";"POGGIO";"ROUTE DE ST FLORENT - D82 POSTE 90 KV BIGUGLIA";"20620";"BIGUGLIA";"Bâtiment"; 4.0;"EDF GDF"
1142192;9.52583;42.33361;"09° 31' 33.00'' Est, 42° 20' 01.00'' Nord";"2B335";"DIRUDU";"RESERVOIR";"20221";"VALLE-DI-CAMPOLORO";"Château d'eau - réservoir"; 13.0;"Syndicat des eaux, Adduction"
1194750;9.20389;42.46556;"09° 12' 14.00'' Est, 42° 27' 56.00'' Nord";"2B169";;"GARE DE PONTE LECCIA N 197";"20218";"MOROSAGLIA";"Mât"; 5.0;"Commune, communauté de commune"
1194752;9.16917;42.17750;"09° 10' 09.00'' Est, 42° 10' 39.00'' Nord";"2B354";;"GARE DE VIVARIO";"20219";"VIVARIO";"Bâtiment"; 4.0;"Commune, communauté de commune"
1194756;9.13250;42.12806;"09° 07' 57.00'' Est, 42° 07' 41.00'' Nord";"2B354";;"GARE DE VIZZAVONA";"20219";"VIVARIO";"Bâtiment"; 4.0;"Commune, communauté de commune"
1194833;9.15889;42.30361;"09° 09' 32.00'' Est, 42° 18' 13.00'' Nord";"2B096";;"GARE DE CORTE";"20250";"CORTE";"Bâtiment"; 8.0;"Commune, communauté de commune"
1195381;9.44139;42.52139;"09° 26' 29.00'' Est, 42° 31' 17.00'' Nord";"2B148";;"HANGAR REPARATION CASAMOZZA";"20290";"LUCCIANA";"Bâtiment"; 10.0;"Commune, communauté de commune"
1201166;9.34417;42.10111;"09° 20' 39.00'' Est, 42° 06' 04.00'' Nord";"2B123";"PUNTA CORBARA";"PERTICALE - D343";"20240";"GHISONACCIA";"Pylône autostable"; 20.0;"EDF GDF"
1279429;8.87028;42.56583;"08° 52' 13.00'' Est, 42° 33' 57.00'' Nord";"2B138";"COL DE SALVI";"PIETRA ROSSA D161";"20225";"LAVATOGGIO";"Pylône autostable"; 30.0;"SFR"
1283160;9.39917;42.69500;"09° 23' 57.00'' Est, 42° 41' 42.00'' Nord";"2B205";;"SERRA DI PIGNO";"20253";"PATRIMONIO";"Bâtiment"; 6.0;"Commune, communauté de commune"
1287121;9.13417;42.38056;"09° 08' 03.00'' Est, 42° 22' 50.00'' Nord";"2B083";"CENTRALE HYDRAULIQUE DE CASTIR";"BARBANELLO";"20236";"CASTIRLA";"Bâtiment"; 5.0;"EDF GDF"
1287172;9.31611;42.09139;"09° 18' 58.00'' Est, 42° 05' 29.00'' Nord";"2B149";"RETENUE DE TREVADINE";"ASPRELLI";"20240";"LUGO-DI-NAZZA";"Bâtiment"; 10.0;"EDF GDF"
1287174;9.53972;42.31500;"09° 32' 23.00'' Est, 42° 18' 54.00'' Nord";"2B087";"CHEBBIA";"FINOCCHI";"20221";"CERVIONE";"Bâtiment"; 4.0;"EDF GDF"
1287176;9.15361;42.30167;"09° 09' 13.00'' Est, 42° 18' 06.00'' Nord";"2B096";"PORETTE";"8 PLACE PORETTE";"20250";"CORTE";"Bâtiment"; 6.0;"EDF GDF"
1287178;9.44056;42.66833;"09° 26' 26.00'' Est, 42° 40' 06.00'' Nord";"2B033";"ERBAIOLO";"RUE DE LA 1° DIVISION MAROCAINE DE MONTAGNE";"20200";"BASTIA";"Bâtiment"; 4.0;"EDF GDF"
1287180;9.42500;42.66417;"09° 25' 30.00'' Est, 42° 39' 51.00'' Nord";"2B120";"PATERNO";"CHEMIN DE PASTORECCIA";"20600";"FURIANI";"Bâtiment"; 5.0;"EDF GDF"
1287469;9.47861;42.80722;"09° 28' 43.00'' Est, 42° 48' 26.00'' Nord";"2B281";"CODE DI E VOLPE";"BORGHIO DI CODE VOLPI";"20233";"SISCO";"Bâtiment"; 3.0;"EDF GDF"
1287473;9.44806;42.52694;"09° 26' 53.00'' Est, 42° 31' 37.00'' Nord";"2B148";;"CHEMIN DE TORRA CENTRALE THERMIQUE";"20290";"LUCCIANA";"Bâtiment"; 3.0;"EDF GDF"
1287770;9.41194;42.02361;"09° 24' 43.00'' Est, 42° 01' 25.00'' Nord";"2B123";"STOLLO";"AVENUE DU 9 SEPTEMBRE N 198";"20240";"GHISONACCIA";"Bâtiment"; 5.0;"EDF GDF"
1287772;9.50222;42.44028;"09° 30' 08.00'' Est, 42° 26' 25.00'' Nord";"2B318";"PADULELLE";"VALLONE";"20230";"TAGLIO-ISOLACCIO";"Bâtiment"; 5.0;"EDF GDF"
1287774;9.32889;42.65972;"09° 19' 44.00'' Est, 42° 39' 35.00'' Nord";"2B185";"VICCIOLATA";"LUMIO";"20232";"OLETTA";"Bâtiment"; 3.0;"EDF GDF"
1287778;9.21444;42.45556;"09° 12' 52.00'' Est, 42° 27' 20.00'' Nord";"2B169";"CORBOLO";"PIEVE";"20218";"MOROSAGLIA";"Bâtiment"; 5.0;"EDF GDF"
1288855;9.38139;42.45222;"09° 22' 53.00'' Est, 42° 27' 08.00'' Nord";"2B206";"PANICALE";"PANICALE";"20290";"PENTA-ACQUATELLA";"Pylône autostable"; 10.0;"EDF GDF"
1293519;9.34167;42.16833;"09° 20' 30.00'' Est, 42° 10' 06.00'' Nord";"2B016";"CASTELLO VECCHIO";;"20270";"ANTISANTI";"Bâtiment"; 8.4;"TDF"
1302445;8.76111;42.56722;"08° 45' 40.00'' Est, 42° 34' 02.00'' Nord";"2B050";;"MAIRIE";"20260";"CALVI";"Bâtiment"; 10.0;"Commune, communauté de commune"
1305091;9.51722;42.43306;"09° 31' 02.00'' Est, 42° 25' 59.00'' Nord";"2B318";"FICAJOLA";;"20230";"TAGLIO-ISOLACCIO";"Pylône autostable"; 13.0;"SFR"
1318878;9.38083;42.45222;"09° 22' 51.00'' Est, 42° 27' 08.00'' Nord";"2B206";;"COL DE TEGHIE";"20290";"PENTA-ACQUATELLA";"Pylône autostable"; 12.0;"Société Privée SA"
1323236;9.00861;42.34806;"09° 00' 31.00'' Est, 42° 20' 53.00'' Nord";"2B147";"LOZZI";;"20224";"LOZZI";"Mât"; 12.0;"ORANGE"
1325538;9.53000;42.18861;"09° 31' 48.00'' Est, 42° 11' 19.00'' Nord";"2B143";"AJE BLANCHE";"N 198 DOMAINE CASABIANCA";"20230";"LINGUIZZETTA";"Pylône tubulaire"; 21.0;"FPS TOWERS"
1330841;8.83611;42.51194;"08° 50' 10.00'' Est, 42° 30' 43.00'' Nord";"2B165";"CUNTEE";"MONCALE";"20214";"MONCALE";"Local technique"; 9.0;"TDF"
1335705;8.74833;42.56278;"08° 44' 54.00'' Est, 42° 33' 46.00'' Nord";"2B050";"POGGIALE";"HÔTEL LES ALOÈS";"20260";"CALVI";"Pylône autostable"; 11.3;"SFR"
1344235;9.46083;42.79722;"09° 27' 39.00'' Est, 42° 47' 50.00'' Nord";"2B043";"SCRIGNOLI BATIMMENT";"CARRIERE PIETRE SCRITTE";"20222";"BRANDO";"Bâtiment"; 3.0;"EDF GDF"
1344237;9.46083;42.79694;"09° 27' 39.00'' Est, 42° 47' 49.00'' Nord";"2B043";"SCRIGNOLI";"D54 CARRIERE PIETRE SCRITTE";"20222";"BRANDO";"Pylône haubané"; 6.0;"EDF GDF"
1384799;9.45083;42.52778;"09° 27' 03.00'' Est, 42° 31' 40.00'' Nord";"2B148";"SUALE";"STATION DE CONVERSION";"20290";"LUCCIANA";"Pylône autostable"; 22.0;"EDF GDF"
1393209;9.16611;42.30139;"09° 09' 58.00'' Est, 42° 18' 05.00'' Nord";"2B096";"QUATIER GROSSETTI";"ROUTE D ALERIA";"20250";"CORTE";"Bâtiment"; 5.0;"EDF GDF"
1393215;9.12639;42.58306;"09° 07' 35.00'' Est, 42° 34' 59.00'' Nord";"2B180";"BOCCA DI A FUATA DURA";"U MULINU DI TESA";"20226";"NOVELLA";"Pylône autostable"; 40.0;"EDF GDF"
1393338;9.13583;42.37639;"09° 08' 09.00'' Est, 42° 22' 35.00'' Nord";"2B083";"BARBANELLO";"BARBANELLO";"20236";"CASTIRLA";"Mât"; 8.0;"EDF GDF"
1393374;9.02222;42.33167;"09° 01' 20.00'' Est, 42° 19' 54.00'' Nord";"2B047";"BARRAGE DE CALACUCCIA";"TAMBURO";"20224";"CALACUCCIA";"Bâtiment"; 3.0;"EDF GDF"
1397313;9.39917;42.69417;"09° 23' 57.00'' Est, 42° 41' 39.00'' Nord";"2B033";"SERRA-DI-PIGNO";;"20200";"BASTIA";"Bâtiment"; 23.0;"Copropriété, Syndic, SCI"
1415909;8.72861;42.40917;"08° 43' 43.00'' Est, 42° 24' 33.00'' Nord";"2B121";"CRETE DE CHIUMI-PYLÔNE";"PUNTA GINEPARELLU";"20245";"GALERIA";"Pylône autostable"; 11.0;"TDF"
1418882;8.76056;42.56833;"08° 45' 38.00'' Est, 42° 34' 06.00'' Nord";"2B050";"CITADELLE";"EGLISE SAINT-JEAN-BAPTISTE";"20260";"CALVI";"Monument religieux"; 21.0;"Société Privée SA"
1423011;8.91694;42.59833;"08° 55' 01.00'' Est, 42° 35' 54.00'' Nord";"2B316";"CAPU CORBINU";;"20220";"SANTA-REPARATA-DI-BALAGNA";"Local technique"; 2.0;"Société Privée SA"
1423875;9.43556;42.67750;"09° 26' 08.00'' Est, 42° 40' 39.00'' Nord";"2B033";;"41 RES SAN PETRONE";"20200";"BASTIA";"Bâtiment"; 28.1;"TDF"
1426896;9.48556;42.80472;"09° 29' 08.00'' Est, 42° 48' 17.00'' Nord";"2B281";;"MARINE DE SISCO";"20233";"SISCO";"Pylône autostable"; 48.0;"TDF"
1428047;8.93944;42.63333;"08° 56' 22.00'' Est, 42° 37' 60.00'' Nord";"2B134";;"PL PAOLI HÔTEL NAPOLÉON BONAPARTE";"20220";"L'ILE-ROUSSE";"Bâtiment"; 15.5;"BOUYGUES"
1441781;9.27611;42.09778;"09° 16' 34.00'' Est, 42° 05' 52.00'' Nord";"2B124";"RETENUE D EAU DE SAMPOLO";"D344 GHISONI BARRAGE SAMPOLO";"20227";"GHISONI";"Bâtiment"; 10.0;"EDF GDF"
1441783;9.25778;42.10194;"09° 15' 28.00'' Est, 42° 06' 07.00'' Nord";"2B124";"PONT DE SAMPOLO";"D344 GHISONI DEBIT ENTRANT";"20227";"GHISONI";"Mât béton"; 10.0;"EDF GDF"
1465795;9.34889;42.62528;"09° 20' 56.00'' Est, 42° 37' 31.00'' Nord";"2B188";;"MONTE DI TUDA PYLÔNE TDF";"20232";"OLMETA-DI-TUDA";"Pylône autostable"; 15.0;"TDF"
1476709;8.82556;42.58611;"08° 49' 32.00'' Est, 42° 35' 10.00'' Nord";"2B150";;"RTE DE MONTE ORTO";"20260";"LUMIO";"Pylône autostable"; 20.0;"TDF"
1500308;8.93333;42.61750;"08° 56' 00.00'' Est, 42° 37' 03.00'' Nord";"2B316";;"36 CHEMIN DE PALAZZII";"20220";"SANTA-REPARATA-DI-BALAGNA";"Pylône autostable"; 12.0;"Société Privée SA"
1507316;9.43972;42.66389;"09° 26' 23.00'' Est, 42° 39' 50.00'' Nord";"2B033";;"PASTORECCIA ZI ERBAJOLO HONDA AUTOMOBILE GRAZIANI";"20200";"BASTIA";"Bâtiment"; 14.7;"Société Privée SA"
1509906;9.45028;42.69306;"09° 27' 01.00'' Est, 42° 41' 35.00'' Nord";"2B033";;"BASTION NORD LA CITADELLE";"20200";"BASTIA";"Monument historique"; 15.0;"Commune, communauté de commune"
1510080;9.26083;41.92306;"09° 15' 39.00'' Est, 41° 55' 23.00'' Nord";"2B366";"HAUT DU VILLAGE";;"20240";"CHISA";"Bâtiment"; 5.0;"ORANGE Services Fixes"
1530257;9.44472;42.67639;"09° 26' 41.00'' Est, 42° 40' 35.00'' Nord";"2B033";;"AVENUE SAMPIERO CORSO N 193 STATION SERVICE LE CHALET";"20200";"BASTIA";"Bâtiment"; 5.0;"Société Privée SA"
1546668;9.40028;42.69583;"09° 24' 01.00'' Est, 42° 41' 45.00'' Nord";"2B033";"SERRA DI PIGNO";"SITE ITAS TIM";"20600";"BASTIA";"Pylône autostable"; 74.0;"Itas Tim"
1548442;9.44000;41.99250;"09° 26' 24.00'' Est, 41° 59' 33.00'' Nord";"2B123";;"DOMAINE DE CAPERONE";"20240";"GHISONACCIA";"Bâtiment"; 15.0;"Société Privée SA"
1557892;9.44333;42.54917;"09° 26' 36.00'' Est, 42° 32' 57.00'' Nord";"2B148";"CROCETTA";"ROUTE DEPARTEMENTALE 507";"20290";"LUCCIANA";"Immeuble"; 17.6;"Copropriété, Syndic, SCI"
1558674;9.29528;42.53806;"09° 17' 43.00'' Est, 42° 32' 17.00'' Nord";"2B036";"BUSSO";"COL DE BIGORNO";"20252";"BIGORNO";"Pylône autostable"; 15.0;"Société Privée SA"
1558675;9.29528;42.53806;"09° 17' 43.00'' Est, 42° 32' 17.00'' Nord";"2B036";"BUSSO";"COL DE BIGORNO";"20252";"BIGORNO";"Pylône autostable"; 16.0;"BOUYGUES"
1563379;9.15444;42.30111;"09° 09' 16.00'' Est, 42° 18' 04.00'' Nord";"2B096";"PORETTE";"AV DU 9 SEPTEMBRE";"20250";"CORTE";"Immeuble"; 20.0;"Copropriété, Syndic, SCI"
1572644;8.79028;42.52528;"08° 47' 25.00'' Est, 42° 31' 31.00'' Nord";"2B050";;"AEROPORT DE CALVI STE CATHERINE";"20260";"CALVI";"Bâtiment"; 12.0;"Aviation Civile"
1572834;9.44556;41.99583;"09° 26' 44.00'' Est, 41° 59' 45.00'' Nord";"2B123";"BRUSCHETO";"CAMPING ARINELLA BIANCA ROUTE DE LA MER";"20240";"GHISONACCIA";"Pylône tubulaire"; 18.0;"ORANGE"
1580715;9.19083;42.23611;"09° 11' 27.00'' Est, 42° 14' 10.00'' Nord";"2B315";"QUERCIOLO";"CHEMIN VIDAMONTE PYLONE CORSICA RADIO";"20250";"SANTO-PIETRO-DI-VENACO";"Pylône autostable"; 25.0;"Société Privée SA"
1581823;9.23278;42.41306;"09° 13' 58.00'' Est, 42° 24' 47.00'' Nord";"2B003";"CIMA PERLETTA";"PYLONE CORSICA RADIO";"20244";"AITI";"Pylône autostable"; 18.0;"Société Privée SA"
1581833;9.43500;42.67833;"09° 26' 06.00'' Est, 42° 40' 42.00'' Nord";"2B033";"QUARTIER LUPINO";"R DES CAROUBIERS RÉS. ALTÉGA";"20200";"BASTIA";"Immeuble"; 36.4;"Copropriété, Syndic, SCI"
1582160;9.23250;42.41306;"09° 13' 57.00'' Est, 42° 24' 47.00'' Nord";"2B003";"CIMA FERLETTA";"CORSICA RADIO TELECOM";"20244";"AITI";"Pylône autostable"; 20.0;"Société Privée SA"
1591714;9.45306;42.72278;"09° 27' 11.00'' Est, 42° 43' 22.00'' Nord";"2B305";"VILLA LOUIS PAUL";"28 RTE DE SAN MARTINO DI LOTA";"20200";"SAN-MARTINO-DI-LOTA";"Immeuble"; 8.8;"Particulier"
1591729;9.44028;42.65972;"09° 26' 25.00'' Est, 42° 39' 35.00'' Nord";"2B120";"CASARONE";"IMM PAVOLETTI QUARTIER MONTE CARLO";"20600";"FURIANI";"Immeuble"; 16.0;"Copropriété, Syndic, SCI"
1591739;9.42861;42.55444;"09° 25' 43.00'' Est, 42° 33' 16.00'' Nord";"2B042";"UMBRIA";"ROUTE DE SAINT ROCH";"20290";"BORGO";"Pylône autostable"; 15.4;"SFR"
1593062;9.34944;42.62611;"09° 20' 58.00'' Est, 42° 37' 34.00'' Nord";"2B185";"TUDA";"TERRAIN PIAZZA ALESSANDRINI";"20232";"OLETTA";"Pylône autostable"; 9.0;"SFR"
1593068;9.28222;42.67694;"09° 16' 56.00'' Est, 42° 40' 37.00'' Nord";"2B298";"OCHINESE";"BD PAVILLON RORQUAL";"20217";"SAINT-FLORENT";"Immeuble"; 8.0;"Particulier"
1593081;9.45389;42.76611;"09° 27' 14.00'' Est, 42° 45' 58.00'' Nord";"2B043";"CAMPO ALLI CIPRESSI";"RÉSERVOIR DE FRISCOLACCIO";"20222";"BRANDO";"Pylône tubulaire"; 17.5;"SFR"
1593493;9.42778;42.59333;"09° 25' 40.00'' Est, 42° 35' 36.00'' Nord";"2B037";"ORTALE";"TER RTE VILLA BASTELICA";"20620";"BIGUGLIA";"Immeuble"; 11.7;"Copropriété, Syndic, SCI"
1595190;9.44722;42.69472;"09° 26' 50.00'' Est, 42° 41' 41.00'' Nord";"2B033";;"15 BD AUGUSTE GAUDIN VILLA LOUIS PAUL";"20200";"BASTIA";"Immeuble"; 27.0;"Copropriété, Syndic, SCI"
1596081;9.44500;42.81194;"09° 26' 42.00'' Est, 42° 48' 43.00'' Nord";"2B281";"ST ANTOINE";;"20233";"SISCO";"Monument religieux"; 19.7;"Commune, communauté de commune"
1596572;9.33667;42.57583;"09° 20' 12.00'' Est, 42° 34' 33.00'' Nord";"2B172";"CHIOSELLO";"FERME DE CAMPO DI MONTE";"20239";"MURATO";"Pylône autostable"; 9.0;"SFR"
1596736;8.93694;42.62639;"08° 56' 13.00'' Est, 42° 37' 35.00'' Nord";"2B134";"ALZELLO";"D 13 PADULE ROUTE SANTA REPARATA";"20220";"L'ILE-ROUSSE";"Local technique"; 5.0;"EDF GDF"
1597214;9.47861;42.54167;"09° 28' 43.00'' Est, 42° 32' 30.00'' Nord";"2B148";"MICORIA";"RTE DE PINETO - VILLA LOUIS PAUL";"20290";"LUCCIANA";"Pylône tubulaire"; 14.0;"SFR"
