Numéro du support;Longitude;Latitude;"Position";"Insee";"Lieu dit";"Adresse";"Code postal";"Commune";"Nature du support";Hauteur en m;"Propriétaire"
8908;1.39944;43.71722;"01° 23' 58.00'' Est, 43° 43' 02.00'' Nord";"31091";"ECH DE ST JORY";;"31150";"BRUGUIERES";"Pylône autostable"; 40.0;"Sociétés d'Autoroutes"
8914;1.32500;43.84500;"01° 19' 30.00'' Est, 43° 50' 42.00'' Nord";"31202";"GROS BOIS";"P.S RD 47 A";"31620";"FRONTON";"Mât métallique"; 25.0;"Sociétés d'Autoroutes"
8926;1.65056;43.42250;"01° 39' 02.00'' Est, 43° 25' 21.00'' Nord";"31576";"DESCOURDAT";"NOEUD A61/A66";"31290";"VIEILLEVIGNE";"Pylône autostable"; 40.0;"Sociétés d'Autoroutes"
8936;2.00278;43.46528;"02° 00' 10.00'' Est, 43° 27' 55.00'' Nord";"31451";;"REVEL - AV. DES FRERES ARNAUD";"31250";"REVEL";"Support non décrit";;
8954;0.70917;43.29361;"00° 42' 33.00'' Est, 43° 17' 37.00'' Nord";"31350";;"LA PAQUÈRE DU VILLAGE";"31350";"MONDILHAN";"Pylône autostable"; 21.0;"ORANGE Services Fixes"
8980;1.65833;43.65472;"01° 39' 30.00'' Est, 43° 39' 17.00'' Nord";"31573";;"R DU PUITS DU PLA AV COMTESSE DE SÉGUR";"31590";"VERFEIL";"Pylône autostable"; 16.0;"ORANGE Services Fixes"
8992;0.76500;42.91444;"00° 45' 54.00'' Est, 42° 54' 52.00'' Nord";"31085";;"LE MOURTIS";"31440";"BOUTX";"Pylône autostable"; 13.0;"ORANGE Services Fixes"
8994;0.69111;42.91083;"00° 41' 28.00'' Est, 42° 54' 39.00'' Nord";"31471";;"AV DU GÉNÉRAL DE GAULLE AUTOCOMMUTATEUR";"31440";"SAINT-BEAT";"Mât métallique"; 5.0;"ORANGE Services Fixes"
8996;0.61500;42.79167;"00° 36' 54.00'' Est, 42° 47' 30.00'' Nord";"31360";"LA CASCADE";"RTE FORESTIÈRE MONTAUBAN DE LUCHON";"31110";"MONTAUBAN-DE-LUCHON";"Pylône autostable"; 8.0;"ORANGE Services Fixes"
8998;0.52250;42.80611;"00° 31' 21.00'' Est, 42° 48' 22.00'' Nord";"31133";;"SOUBERVIELLE RTE DE GARIN";"31110";"CAZEAUX-DE-LARBOUST";"Pylône autostable"; 20.0;"ORANGE Services Fixes"
9032;1.23250;43.73972;"01° 13' 57.00'' Est, 43° 44' 23.00'' Nord";"31592";"LA PLAINE DE CAVAILLE";"LE VILLAGE";"31330";"LARRA";"Pylône autostable"; 16.0;"ORANGE Services Fixes"
9038;0.63972;42.91333;"00° 38' 23.00'' Est, 42° 54' 48.00'' Nord";"31144";"CAP DE LAS AGOUAOUX";"R DU DR JEAN VIVES";"31440";"CIERP-GAUD";"Mât"; 10.0;"ORANGE Services Fixes"
9044;0.79972;43.01472;"00° 47' 59.00'' Est, 43° 00' 53.00'' Nord";"31020";;"BOUT DE FONTAGNERES VC N °6";"31160";"ASPET";"Bâtiment"; 10.0;"ORANGE Services Fixes"
9046;0.81194;42.97306;"00° 48' 43.00'' Est, 42° 58' 23.00'' Nord";"31447";;"LE PICON";"31160";"RAZECUEILLE";"Pylône haubané"; 10.0;"TDF"
9048;0.80500;42.92528;"00° 48' 18.00'' Est, 42° 55' 31.00'' Nord";"31085";;"COULEDOUX LE COURET COULEDOUX";"31440";"BOUTX";"Mât métallique"; 5.0;"ORANGE Services Fixes"
9098;1.11472;43.51528;"01° 06' 53.00'' Est, 43° 30' 55.00'' Nord";"31518";"BEDATS";;"31470";"SAINT-THOMAS";"Pylône autostable"; 46.0;"ANFR"
9100;1.31083;43.59167;"01° 18' 39.00'' Est, 43° 35' 30.00'' Nord";"31557";"ZI DE PAHIN";"BD MARCEL PAUL";"31170";"TOURNEFEUILLE";"Pylône autostable"; 46.0;"ANFR"
29033;0.71278;43.10083;"00° 42' 46.00'' Est, 43° 06' 03.00'' Nord";"31483";"QUARTIER PUJAMENS";"CHÂTEAU D'EAU R DU PIC DU GAR";"31800";"SAINT-GAUDENS";"Château d'eau - réservoir"; 34.5;"Syndicat des eaux, Adduction"
29129;1.33722;43.22778;"01° 20' 14.00'' Est, 43° 13' 40.00'' Nord";"31111";"SOULEILLA DE MARGUET";;"31310";"CASTAGNAC";"Pylône autostable"; 40.0;"SFR"
29133;1.19944;43.18944;"01° 11' 58.00'' Est, 43° 11' 22.00'' Nord";"31375";"TROUMPET";;"31310";"MONTESQUIEU-VOLVESTRE";"Pylône autostable"; 35.0;"SFR"
29143;1.62222;43.80306;"01° 37' 20.00'' Est, 43° 48' 11.00'' Nord";"31066";"VERMAS";;"31660";"BESSIERES";"Pylône autostable"; 12.0;"SFR"
29175;1.07528;43.47389;"01° 04' 31.00'' Est, 43° 28' 26.00'' Nord";"31087";"PRAT LOUNG";;"31470";"BRAGAYRAC";"Pylône autostable"; 33.0;"SFR"
29181;0.76250;43.08889;"00° 45' 45.00'' Est, 43° 05' 20.00'' Nord";"31344";"MONT JAMMES HAUT";;"31800";"MIRAMONT-DE-COMMINGES";"Pylône autostable"; 30.0;"SFR"
29193;1.43722;43.61139;"01° 26' 14.00'' Est, 43° 36' 41.00'' Nord";"31555";;"10 BD LASCROSSES";"31500";"TOULOUSE";"Immeuble"; 11.0;"Copropriété, Syndic, SCI"
29197;1.44278;43.61056;"01° 26' 34.00'' Est, 43° 36' 38.00'' Nord";"31555";;"3 BLD D'ARCOLE";"31500";"TOULOUSE";"Immeuble"; 25.0;"Copropriété, Syndic, SCI"
29199;1.44833;43.60667;"01° 26' 54.00'' Est, 43° 36' 24.00'' Nord";"31555";;"6 BD  DE STRASBOURG";"31500";"TOULOUSE";"Immeuble"; 19.0;"Copropriété, Syndic, SCI"
29225;1.46472;43.63167;"01° 27' 53.00'' Est, 43° 37' 54.00'' Nord";"31555";;"R D'AVRANCHES";"31500";"TOULOUSE";"Pylône tubulaire"; 22.0;"Commune, communauté de commune"
51649;1.19444;43.66667;"01° 11' 40.00'' Est, 43° 39' 60.00'' Nord";"31297";"LA HALLE";"PLACE DE LA HALLE 4 RUE DE LA MAIRIE";"31530";"LEVIGNAC";"Bâtiment"; 15.0;"Commune, communauté de commune"
53507;0.89028;43.22306;"00° 53' 25.00'' Est, 43° 13' 23.00'' Nord";"31083";"CAP D'ARMAS";"CHEM DE CAUBETON";"31420";"BOUSSAN";"Pylône autostable"; 21.0;"ORANGE Services Fixes"
59645;0.92472;43.35194;"00° 55' 29.00'' Est, 43° 21' 07.00'' Nord";"31456";"EN GIMARRE";"RLP RADIO COTEAUX - L'ISLE EN";"31230";"RIOLAS";"Château d'eau - réservoir"; 45.0;"Syndicat des eaux, Adduction"
59671;0.67500;43.05833;"00° 40' 30.00'' Est, 43° 03' 30.00'' Nord";"31247";;"LABARTHE DE RIVIERE/ OCCITANIE";"31800";"LABARTHE-RIVIERE";"Support non décrit";;
64121;1.41278;43.61111;"01° 24' 46.00'' Est, 43° 36' 40.00'' Nord";"31555";;"19 R EDMOND GUYAUX";"31200";"TOULOUSE";"Immeuble"; 16.0;"Copropriété, Syndic, SCI"
64129;1.42694;43.60000;"01° 25' 37.00'' Est, 43° 36' 00.00'' Nord";"31555";;"28 B  R DES FONTAINES";"31500";"TOULOUSE";"Immeuble"; 25.0;"Société HLM"
64811;0.97694;43.18194;"00° 58' 37.00'' Est, 43° 10' 55.00'' Nord";"31324";"ECH DE BOUSSENS";;"31220";"MARTRES-TOLOSANE";"Pylône autostable"; 40.0;"Sociétés d'Autoroutes"
65557;1.45083;43.61167;"01° 27' 03.00'' Est, 43° 36' 42.00'' Nord";"31555";;"18 BIS RUE AGATHOISE";"31500";"TOULOUSE";"Immeuble"; 31.0;"Copropriété, Syndic, SCI"
65561;1.44111;43.59972;"01° 26' 28.00'' Est, 43° 35' 59.00'' Nord";"31555";;"23 R DE LA DESCENTE DE L'ANCIENNE HALLE AUX POISSONS";"31500";"TOULOUSE";"Immeuble"; 16.0;"Copropriété, Syndic, SCI"
65767;1.48333;43.56000;"01° 29' 00.00'' Est, 43° 33' 36.00'' Nord";"31555";"L'ESPINET";;"31500";"TOULOUSE";"Dalle en béton"; 1.0;
65774;1.48333;43.56000;"01° 29' 00.00'' Est, 43° 33' 36.00'' Nord";"31555";"L'ESPINET";;"31500";"TOULOUSE";"Dalle en béton"; 1.0;
76481;2.01361;43.45278;"02° 00' 49.00'' Est, 43° 27' 10.00'' Nord";"31451";"MOULIN DU ROI";"R JULIEN NOUGUIER";"31250";"REVEL";"Pylône autostable"; 27.0;"BOUYGUES"
76515;1.46972;43.55222;"01° 28' 11.00'' Est, 43° 33' 08.00'' Nord";"31446";;"2 RUE DES CIGOGNES";"31520";"RAMONVILLE-SAINT-AGNE";"Immeuble"; 18.0;"Copropriété, Syndic, SCI"
76617;1.08167;43.20222;"01° 04' 54.00'' Est, 43° 12' 08.00'' Nord";"31135";;"R DES CAPUCINS  LE STADE";"31220";"CAZERES";"Pylône autostable"; 32.0;"BOUYGUES"
76661;0.59167;42.79139;"00° 35' 30.00'' Est, 42° 47' 29.00'' Nord";"31042";;"PL JOFFRE";"31110";"BAGNERES-DE-LUCHON";"Monument religieux"; 31.0;"Commune, communauté de commune"
91992;1.23111;43.31917;"01° 13' 52.00'' Est, 43° 19' 09.00'' Nord";"31320";"AUGE";"CHEM RURAL LONGEANT LA VOIE DE CHEM DE FER";"31390";"MARQUEFAVE";"Silo"; 42.0;"Coopérative Agricole, Vinicole"
92036;1.47111;43.59306;"01° 28' 16.00'' Est, 43° 35' 35.00'' Nord";"31555";;"50 R DE LIMAYRAC";"31500";"TOULOUSE";"Immeuble"; 16.0;"Association"
92070;1.45722;43.61972;"01° 27' 26.00'' Est, 43° 37' 11.00'' Nord";"31555";;"64 FAUBOURG BONNEFOY";"31500";"TOULOUSE";"Immeuble"; 25.0;
92086;1.44917;43.61278;"01° 26' 57.00'' Est, 43° 36' 46.00'' Nord";"31555";;"43 R AGATHOISE";"31500";"TOULOUSE";"Immeuble"; 27.0;"Copropriété, Syndic, SCI"
92088;1.43000;43.59889;"01° 25' 48.00'' Est, 43° 35' 56.00'' Nord";"31555";;"79 ALL CHARLES DE FITTE";"31500";"TOULOUSE";"Immeuble"; 29.0;"Société HLM"
92130;1.47778;43.54667;"01° 28' 40.00'' Est, 43° 32' 48.00'' Nord";"31446";;"26, PL MARNAC CTRE CIAL DE RAMONVILLE";"31520";"RAMONVILLE-SAINT-AGNE";"Immeuble"; 33.0;"Copropriété, Syndic, SCI"
92138;1.45028;43.58278;"01° 27' 01.00'' Est, 43° 34' 58.00'' Nord";"31555";;"26/28 AV M.LANGER";"31500";"TOULOUSE";"Immeuble"; 27.0;"Copropriété, Syndic, SCI"
92158;1.41111;43.57278;"01° 24' 40.00'' Est, 43° 34' 22.00'' Nord";"31555";;"1/3 CHEM DE PAPUS";"31500";"TOULOUSE";"Immeuble"; 30.0;"Copropriété, Syndic, SCI"
92168;1.44389;43.59472;"01° 26' 38.00'' Est, 43° 35' 41.00'' Nord";"31555";;"17, PL DU SALIN";"31500";"TOULOUSE";"Immeuble"; 26.0;"Copropriété, Syndic, SCI"
92180;1.43667;43.58861;"01° 26' 12.00'' Est, 43° 35' 19.00'' Nord";"31555";;"1, ALLÉE ALFRED MAYSSONNIE";"31000";"TOULOUSE";"Immeuble"; 11.0;"Commune, communauté de commune"
92184;1.46028;43.57917;"01° 27' 37.00'' Est, 43° 34' 45.00'' Nord";"31555";;"77 R LOUIS BONRN";"31500";"TOULOUSE";"Immeuble"; 20.0;"Société HLM"
92206;1.45194;43.60944;"01° 27' 07.00'' Est, 43° 36' 34.00'' Nord";"31555";;"8, R STALINGRAD";"31500";"TOULOUSE";"Immeuble"; 21.0;"EDF GDF"
92260;1.60583;43.64389;"01° 36' 21.00'' Est, 43° 38' 38.00'' Nord";"31285";"MARQUET";"D.112 - A CÔTÉ DU CHÂTEAU D'EAU";"31590";"LAVALETTE";"Pylône autostable"; 40.0;"ORANGE"
92288;0.49167;43.16278;"00° 29' 30.00'' Est, 43° 09' 46.00'' Nord";"31289";"LA LOSSE";;"31580";"LECUSSAN";"Château d'eau - réservoir"; 28.0;"Syndicat des eaux, Adduction"
92308;1.44556;43.61500;"01° 26' 44.00'' Est, 43° 36' 54.00'' Nord";"31555";;"23 BD MATABIAU";"31500";"TOULOUSE";"Immeuble"; 40.0;"Copropriété, Syndic, SCI"
92322;1.44778;43.57778;"01° 26' 52.00'' Est, 43° 34' 40.00'' Nord";"31555";;"64 R ST ROCH";"31500";"TOULOUSE";"Immeuble"; 19.0;"Société HLM"
92324;0.96583;43.16778;"00° 57' 57.00'' Est, 43° 10' 04.00'' Nord";"31084";"ESTARAC";"CHÂTEAU D'EAU";"31360";"BOUSSENS";"Château d'eau - réservoir"; 29.0;"Société Privée SA"
92432;0.77556;43.05083;"00° 46' 32.00'' Est, 43° 03' 03.00'' Nord";"31550";"ESCAZALASSES";"TERRAIN DE SPORT - D.5";"31160";"SOUEICH";"Pylône tubulaire"; 30.0;"ORANGE"
110788;1.62000;43.43611;"01° 37' 12.00'' Est, 43° 26' 10.00'' Nord";"31374";;"AIRE DE REPOS DE BAZIÈGE AUTOROUTE DES DEUX MERS A61";"31450";"MONTESQUIEU-LAURAGAIS";"Pylône autostable"; 41.0;"Sociétés d'Autoroutes"
114025;1.41111;43.47722;"01° 24' 40.00'' Est, 43° 28' 38.00'' Nord";"31248";"VAL DE CYGNES";"RTE DE FOIX MAISON DE REPOS";"31860";"LABARTHE-SUR-LEZE";"Bâtiment"; 16.0;"Etablissement de soins"
116120;1.70056;43.40500;"01° 42' 02.00'' Est, 43° 24' 18.00'' Nord";"31582";"DISTRICT DE VILLEFRANCHE";;"31290";"VILLEFRANCHE-DE-LAURAGAIS";"Pylône autostable"; 43.0;"Sociétés d'Autoroutes"
127725;1.66417;43.41722;"01° 39' 51.00'' Est, 43° 25' 02.00'' Nord";"31514";"LA BOULBENNE";;"31290";"SAINT-ROME";"Pylône autostable"; 36.0;"BOUYGUES"
131944;1.48361;43.48778;"01° 29' 01.00'' Est, 43° 29' 16.00'' Nord";"31448";"AS-BLANC";"CHEM DU VIEUX MOULIN";"31320";"REBIGUE";"Château d'eau - réservoir"; 21.0;"Syndicat des eaux, Adduction"
141639;1.34083;43.48056;"01° 20' 27.00'' Est, 43° 28' 50.00'' Nord";"31395";;"25 R JEAN-FRANÇOIS ROMIEU";"31600";"MURET";"Pylône autostable"; 25.0;"ORANGE"
152167;1.42667;43.63917;"01° 25' 36.00'' Est, 43° 38' 21.00'' Nord";"31555";;"8 R FONDEYRE";"31500";"TOULOUSE";"Support non décrit"; 30.0;
172076;0.48694;42.81750;"00° 29' 13.00'' Est, 42° 49' 03.00'' Nord";"31242";"VILLAGE";"CTRE DE VACANCES VILLAGE";"31110";"JURVIELLE";"Support non décrit"; 9.0;
190678;1.42833;43.58417;"01° 25' 42.00'' Est, 43° 35' 03.00'' Nord";"31555";;"18 R DE LA DIGUE";"31500";"TOULOUSE";"Support non décrit"; 45.0;
190694;1.76056;43.53306;"01° 45' 38.00'' Est, 43° 31' 59.00'' Nord";"31106";;"BD DE LA GARE";"31460";"CARAMAN";"Support non décrit"; 35.0;
190720;1.56528;43.77639;"01° 33' 55.00'' Est, 43° 46' 35.00'' Nord";"31094";;"FORET DE BUZET";"31660";"BUZET-SUR-TARN";"Support non décrit"; 10.0;
190840;1.35972;43.61139;"01° 21' 35.00'' Est, 43° 36' 41.00'' Nord";"31555";;"316 RTE DE BAYONNE AEROSPATIALE BAT M 96";"31500";"TOULOUSE";"Support non décrit"; 18.0;
190860;1.46194;43.61056;"01° 27' 43.00'' Est, 43° 36' 38.00'' Nord";"31555";;"132 R PROVIDENCE";"31500";"TOULOUSE";"Support non décrit"; 20.0;
190972;1.37889;43.61500;"01° 22' 44.00'' Est, 43° 36' 54.00'' Nord";"31555";;"316 RTE DE BAYONNE";"31500";"TOULOUSE";"Support non décrit"; 20.0;
209980;1.34278;43.78472;"01° 20' 34.00'' Est, 43° 47' 05.00'' Nord";"31118";;"RST POMPIGNAN PK 231.980";"31620";"CASTELNAU-D'ESTRETEFONDS";"Mât"; 15.0;"SNCF Réseau"
209984;1.35806;43.76583;"01° 21' 29.00'' Est, 43° 45' 57.00'' Nord";"31490";;"RST TROIS PONTS PN 162 PK 237.660";"31790";"SAINT-JORY";"Mât"; 22.0;"SNCF Réseau"
209988;1.38417;43.71556;"01° 23' 03.00'' Est, 43° 42' 56.00'' Nord";"31293";;"RST ST JORY POSTE 10 PK 243.200";"31150";"LESPINASSE";"Mât"; 27.0;"SNCF Réseau"
209992;1.44528;43.61917;"01° 26' 43.00'' Est, 43° 37' 09.00'' Nord";"31555";;"RST TOULOUSE RAYNAL PK 255.590";"31500";"TOULOUSE";"Mât"; 30.0;"SNCF Réseau"
209994;1.45528;43.59306;"01° 27' 19.00'' Est, 43° 35' 35.00'' Nord";"31555";;"RST PONT DES DEMOISELLES PK 258.600";"31500";"TOULOUSE";"Mât"; 22.0;"SNCF Réseau"
209996;1.47417;43.57528;"01° 28' 27.00'' Est, 43° 34' 31.00'' Nord";"31555";;"RST MONTAUDRAN PRS PK 262.250";"31500";"TOULOUSE";"Mât"; 15.0;"SNCF Réseau"
209998;1.52111;43.53833;"01° 31' 16.00'' Est, 43° 32' 18.00'' Nord";"31254";;"RST LABEGE INNOPOLE PK 266.200";"31670";"LABEGE";"Mât"; 22.0;"SNCF Réseau"
210002;1.53361;43.52667;"01° 32' 01.00'' Est, 43° 31' 36.00'' Nord";"31254";;"RST PONT RTE DES LAPINS PK 272.045";"31670";"LABEGE";"Mât"; 22.0;"SNCF Réseau"
210006;1.61194;43.45278;"01° 36' 43.00'' Est, 43° 27' 10.00'' Nord";"31048";;"RST BAZIEGE PK 280.220";"31450";"BAZIEGE";"Mât"; 15.0;"SNCF Réseau"
210010;1.66139;43.43194;"01° 39' 41.00'' Est, 43° 25' 55.00'' Nord";"31589";;"RST VILLENOUVELLE PK 283.370";"31290";"VILLENOUVELLE";"Mât"; 22.0;"SNCF Réseau"
210013;1.42194;43.58056;"01° 25' 19.00'' Est, 43° 34' 50.00'' Nord";"31555";;"RST ST AGNE BV PK 003.850";"31500";"TOULOUSE";"Mât"; 15.0;"SNCF Réseau"
210016;1.38972;43.52833;"01° 23' 23.00'' Est, 43° 31' 42.00'' Nord";"31433";;"RST PORTET ST SIMON PK 012.850";"31120";"PORTET-SUR-GARONNE";"Mât"; 22.0;"SNCF Réseau"
210018;1.33750;43.49056;"01° 20' 15.00'' Est, 43° 29' 26.00'' Nord";"31395";;"RST SEYSSES PN 15 PK 017.310";"31600";"MURET";"Mât"; 15.0;"SNCF Réseau"
210022;1.31389;43.45083;"01° 18' 50.00'' Est, 43° 27' 03.00'' Nord";"31395";;"RST MURET PN 20 PK 022.570";"31600";"MURET";"Mât"; 10.0;"SNCF Réseau"
210026;1.30139;43.43194;"01° 18' 05.00'' Est, 43° 25' 55.00'' Nord";"31395";;"RST OX PN 24 PK 026.620";"31600";"MURET";"Mât"; 10.0;"SNCF Réseau"
210030;1.27806;43.39694;"01° 16' 41.00'' Est, 43° 23' 49.00'' Nord";"31181";;"RST LA VERNOSSE LACASSE PN 26 PK 029.300";"31410";"LE FAUGA";"Mât"; 10.0;"SNCF Réseau"
210032;1.22389;43.30972;"01° 13' 26.00'' Est, 43° 18' 35.00'' Nord";"31107";;"RST CARBONNE PN 38 PK 039.400";"31390";"CARBONNE";"Mât"; 10.0;"SNCF Réseau"
210034;1.18972;43.28528;"01° 11' 23.00'' Est, 43° 17' 07.00'' Nord";"31107";;"RST SALLES EX PN 44 PK 043.380";"31390";"CARBONNE";"Mât"; 10.0;"SNCF Réseau"
210038;1.13750;43.25556;"01° 08' 15.00'' Est, 43° 15' 20.00'' Nord";"31286";;"RST ST JULIEN LAVELANET PN 51 PK 049.230";"31220";"LAVELANET-DE-COMMINGES";"Mât"; 22.0;"SNCF Réseau"
210042;0.99361;43.19167;"00° 59' 37.00'' Est, 43° 11' 30.00'' Nord";"31324";;"RST MARTRES TOLOSANNE PN 68 PK 063.420";"31220";"MARTRES-TOLOSANE";"Mât"; 5.0;"SNCF Réseau"
210046;0.96222;43.15333;"00° 57' 44.00'' Est, 43° 09' 12.00'' Nord";"31457";;"RST LE FOURC PK 068.770";"31360";"ROQUEFORT-SUR-GARONNE";"Mât"; 22.0;"SNCF Réseau"
210050;0.92889;43.13861;"00° 55' 44.00'' Est, 43° 08' 19.00'' Nord";"31503";;"RST ST MARTORY PK 071.890";"31360";"SAINT-MARTORY";"Mât"; 22.0;"SNCF Réseau"
210052;0.81361;43.10361;"00° 48' 49.00'' Est, 43° 06' 13.00'' Nord";"31246";;"RST LAMAGUERE PK 082.750";"31800";"LABARTHE-INARD";"Mât"; 10.0;"SNCF Réseau"
210054;0.73167;43.10528;"00° 43' 54.00'' Est, 43° 06' 19.00'' Nord";"31483";;"RST ST GAUDENS PK 089.980";"31800";"SAINT-GAUDENS";"Mât"; 22.0;"SNCF Réseau"
210058;0.66500;43.08389;"00° 39' 54.00'' Est, 43° 05' 02.00'' Nord";"31247";;"RST LABARTHE RIVIERE PN 103 PK 096.600";"31800";"LABARTHE-RIVIERE";"Mât"; 22.0;"SNCF Réseau"
210062;0.58583;43.07472;"00° 35' 09.00'' Est, 43° 04' 29.00'' Nord";"31224";;"RST MONTREJEAU PK 103.200";"31210";"GOURDAN-POLIGNAN";"Mât"; 22.0;"SNCF Réseau"
221761;1.52278;43.46722;"01° 31' 22.00'' Est, 43° 28' 02.00'' Nord";"31366";"ABSSENQ DU CAPELIE";"RTE DÉPARTEMENTALE N°74";"31450";"MONTBRUN-LAURAGAIS";"Bâtiment"; 10.0;"Particulier"
224054;1.12972;43.46667;"01° 07' 47.00'' Est, 43° 28' 00.00'' Nord";"31481";"MANTES";"RTE DE BARDY ANGLE DÉPARTEMENTALE 7D";"31470";"SAINTE-FOY-DE-PEYROLIERES";"Pylône autostable"; 30.0;"SFR"
240607;1.58917;43.71972;"01° 35' 21.00'' Est, 43° 43' 11.00'' Nord";"31358";;"AV DE CURIÈRES AUTOCOMMUTATEUR";"31380";"MONTASTRUC-LA-CONSEILLERE";"Pylône tubulaire"; 17.0;"ORANGE Services Fixes"
253505;1.41306;43.66611;"01° 24' 47.00'' Est, 43° 39' 58.00'' Nord";"31555";;"RST PK 249.600 LACOURTANSOURT & ST JORY POSTE 15";"31500";"TOULOUSE";"Mât"; 15.0;"SNCF Réseau"
255610;1.58306;43.62222;"01° 34' 59.00'' Est, 43° 37' 20.00'' Nord";"31285";"CHÂTEAU DE RAVY";"CHEM RURAL CROISEMENT DE LA D66";"31590";"LAVALETTE";"Pylône autostable"; 30.0;"SFR"
255881;1.46694;43.59500;"01° 28' 01.00'' Est, 43° 35' 42.00'' Nord";"31555";;"2 R PAUL BONAMY";"31500";"TOULOUSE";"Immeuble"; 15.0;"Copropriété, Syndic, SCI"
258193;1.29333;43.60611;"01° 17' 36.00'' Est, 43° 36' 22.00'' Nord";"31149";;"32 RTE D'AUCH";"31770";"COLOMIERS";"Pylône autostable"; 28.0;"ORANGE"
259341;1.02694;43.30500;"01° 01' 37.00'' Est, 43° 18' 18.00'' Nord";"31119";;"LA MARSALLE LA MARSALLE";"31430";"CASTELNAU-PICAMPEAU";"Château d'eau - réservoir"; 3.0;
259343;1.20944;43.44361;"01° 12' 34.00'' Est, 43° 26' 37.00'' Nord";"31299";;"245 RTE DE ST CLAR LE MONA";"31600";"LHERM";"Bâtiment"; 3.0;
261395;1.44417;43.59222;"01° 26' 39.00'' Est, 43° 35' 32.00'' Nord";"31555";;"10 PL LAFOURCADE";"31500";"TOULOUSE";"Bâtiment"; 22.2;"Particulier"
263159;1.42139;43.57583;"01° 25' 17.00'' Est, 43° 34' 33.00'' Nord";"31555";;"308 RTE DE SEYSSES";"31500";"TOULOUSE";"Bâtiment"; 18.6;"Copropriété, Syndic, SCI"
269891;1.70694;43.46361;"01° 42' 25.00'' Est, 43° 27' 49.00'' Nord";"31560";"LA GRANGE";;"31290";"TREBONS-SUR-LA-GRASSE";"Pylône autostable"; 42.1;"SFR"
277686;1.45722;43.62056;"01° 27' 26.00'' Est, 43° 37' 14.00'' Nord";"31555";;"117-119 R DU FAUBOURG BONNEFOY";"31500";"TOULOUSE";"Immeuble"; 29.0;"Copropriété, Syndic, SCI"
285079;1.16944;43.37556;"01° 10' 10.00'' Est, 43° 22' 32.00'' Nord";"31065";"PICOHORT";;"31370";"BERAT";"Pylône autostable"; 30.0;"SFR"
295992;1.41944;43.61722;"01° 25' 10.00'' Est, 43° 37' 02.00'' Nord";"31555";;"29 BD  DE GENÈVE À CÔTÉ DU CANAL DU MIDI";"31500";"TOULOUSE";"Bâtiment"; 30.0;"Copropriété, Syndic, SCI"
300096;0.51472;42.85167;"00° 30' 53.00'' Est, 42° 51' 06.00'' Nord";"31146";"ARTIGUEBOUSSOUS";;"31110";"CIRES";"Pylône autostable"; 17.0;"TDF"
305432;1.45861;43.64528;"01° 27' 31.00'' Est, 43° 38' 43.00'' Nord";"31555";;"IMP PAUL HARRIS ZEC BORDE ROUGE";"31500";"TOULOUSE";"Bâtiment"; 6.0;
306739;1.44472;43.60167;"01° 26' 41.00'' Est, 43° 36' 06.00'' Nord";"31555";;"5 R BARONIE";"31500";"TOULOUSE";"Immeuble"; 22.6;"Particulier"
314835;1.32111;43.47417;"01° 19' 16.00'' Est, 43° 28' 27.00'' Nord";"31395";;"182 BD PEYRAMOND A64 POINT D APPUI MURET";"31600";"MURET";"Bâtiment"; 7.0;
315718;1.70111;43.40361;"01° 42' 04.00'' Est, 43° 24' 13.00'' Nord";"31582";;"BORDE BLANCHE DISTRICT VILLEFRANCHE";"31290";"VILLEFRANCHE-DE-LAURAGAIS";"Pylône autostable"; 17.0;
317052;0.89556;43.11972;"00° 53' 44.00'' Est, 43° 07' 11.00'' Nord";"31296";;"CAP DE PORC GARE DE PEAGE LESTELLE BARRIERE";"31360";"LESTELLE-DE-SAINT-MARTORY";"Bâtiment"; 7.0;
319446;1.50556;43.66167;"01° 30' 20.00'' Est, 43° 39' 42.00'' Nord";"31488";"BORDE NEUVE";"CHEM DE BELBÈZE STADE ROGER PUJOL";"31240";"SAINT-JEAN";"Pylône tubulaire"; 25.0;"Commune, communauté de commune"
324853;1.45500;43.60750;"01° 27' 18.00'' Est, 43° 36' 27.00'' Nord";"31555";;"36 BD RIQUET";"31500";"TOULOUSE";"Immeuble"; 36.0;"Commune, communauté de commune"
324940;0.54111;42.84167;"00° 32' 28.00'' Est, 42° 50' 30.00'' Nord";"31335";"CHAMPS DE ST PÉ";"VILLAGE D51";"31110";"MAYREGNE";"Mât"; 6.0;"ORANGE Services Fixes"
329289;1.46056;43.66194;"01° 27' 38.00'' Est, 43° 39' 43.00'' Nord";"31561";;"47 ROUTE DE MONS NISSEN FRANCE";"31240";"L'UNION";"Pylône tubulaire"; 14.3;"SFR"
337995;0.94056;43.36278;"00° 56' 26.00'' Est, 43° 21' 46.00'' Nord";"31007";"LA PLANE";"ST MARTIN";"31230";"AMBAX";"Pylône autostable"; 23.0;"FPS TOWERS"
338389;0.94306;43.34750;"00° 56' 35.00'' Est, 43° 20' 51.00'' Nord";"31593";"PAGUERE DE MEILHAN";"ADER";"31230";"CAZAC";"Pylône autostable"; 22.0;"BOUYGUES"
340628;0.90111;43.36139;"00° 54' 04.00'' Est, 43° 21' 41.00'' Nord";"31115";"COUMO DE SAMAN";"TUCOULET";"31230";"CASTELGAILLARD";"Pylône autostable"; 32.0;"FPS TOWERS"
343117;1.73278;43.57611;"01° 43' 58.00'' Est, 43° 34' 34.00'' Nord";"31441";"SOULEILLA DE BELER";"PRÉS D66 FERME DU BEL AIR";"31460";"PRUNET";"Pylône autostable"; 33.0;"ORANGE"
345578;1.34194;43.44806;"01° 20' 31.00'' Est, 43° 26' 53.00'' Nord";"31395";;"CHEM DE BRIOUDE";"31600";"MURET";"Bâtiment"; 14.0;"EDF GDF"
347165;1.34667;43.58278;"01° 20' 48.00'' Est, 43° 34' 58.00'' Nord";"31557";;"PLACE DE LA MAIRIE MAIRIE";"31170";"TOURNEFEUILLE";"Bâtiment"; 11.0;"Commune, communauté de commune"
348275;1.43417;43.59222;"01° 26' 03.00'' Est, 43° 35' 32.00'' Nord";"31555";;"310 AV DE MURET";"31500";"TOULOUSE";"Immeuble"; 37.0;"Copropriété, Syndic, SCI"
363906;1.46028;43.59139;"01° 27' 37.00'' Est, 43° 35' 29.00'' Nord";"31555";;"11 BD GRIFFOUL DORVAL";"31500";"TOULOUSE";"Bâtiment"; 20.0;"Conseil Général"
365872;1.13833;43.68778;"01° 08' 18.00'' Est, 43° 41' 16.00'' Nord";"31120";;"MIEJANES CHEM D'EN NAUDON";"31530";"LE CASTERA";"Pylône autostable"; 46.0;"EDF GDF"
366038;1.34000;43.39917;"01° 20' 24.00'' Est, 43° 23' 57.00'' Nord";"31052";"ROQUEMBOL";;"31870";"BEAUMONT-SUR-LEZE";"Pylône autostable"; 36.0;"EDF GDF"
367184;1.60111;43.28556;"01° 36' 04.00'' Est, 43° 17' 08.00'' Nord";"31100";;"CHEM DE TERRAQUEUSE";"31560";"CALMONT";"Bâtiment"; 10.0;"Particulier"
392964;1.28917;43.39444;"01° 17' 21.00'' Est, 43° 23' 40.00'' Nord";"31181";;"25 R DU LUXEMBOURG";"31410";"LE FAUGA";"Bâtiment"; 13.0;
395832;1.46944;43.61972;"01° 28' 10.00'' Est, 43° 37' 11.00'' Nord";"31555";;"4 AV DU PARC";"31500";"TOULOUSE";"Immeuble"; 21.0;"Copropriété, Syndic, SCI"
398962;1.39417;43.53917;"01° 23' 39.00'' Est, 43° 32' 21.00'' Nord";"31433";"BIXIO";"3 IMP DE CANDIE";"31120";"PORTET-SUR-GARONNE";"Pylône autostable"; 25.0;"SFR"
399840;1.43583;43.61444;"01° 26' 09.00'' Est, 43° 36' 52.00'' Nord";"31555";;"1 BD DE LA MARQUETTE HÔTEL DEPARTEMENTAL DU CG31 -";"31500";"TOULOUSE";"Immeuble"; 31.0;"Conseil Général"
403390;0.64750;43.28667;"00° 38' 51.00'' Est, 43° 17' 12.00'' Nord";"31080";;"R DE L AUBISQUE";"31350";"BOULOGNE-SUR-GESSE";"Bâtiment"; 18.0;
404068;1.22528;43.29333;"01° 13' 31.00'' Est, 43° 17' 36.00'' Nord";"31107";;"7 PL JULES FERRY";"31390";"CARBONNE";"Bâtiment"; 10.0;
420719;1.43139;43.61111;"01° 25' 53.00'' Est, 43° 36' 40.00'' Nord";"31555";;"4 PL ALPHONSE JOURDAIN";"31500";"TOULOUSE";"Bâtiment"; 20.0;"Copropriété, Syndic, SCI"
420991;1.49750;43.55889;"01° 29' 51.00'' Est, 43° 33' 32.00'' Nord";"31555";;"31 R DES COSMONAUTES Z.I. DU PALAYS";"31000";"TOULOUSE";"Dalle en béton"; 1.0;"Société Privée SA"
423028;1.63333;43.78000;"01° 38' 00.00'' Est, 43° 46' 48.00'' Nord";"31094";;"17 GRAND R DES FLEURS";"31660";"BUZET-SUR-TARN";"Bâtiment"; 12.3;"Particulier"
426577;1.46056;43.62444;"01° 27' 38.00'' Est, 43° 37' 28.00'' Nord";"31555";;"24 R VEILLON";"31500";"TOULOUSE";"Bâtiment"; 12.0;"Particulier"
427738;1.47389;43.60722;"01° 28' 26.00'' Est, 43° 36' 26.00'' Nord";"31555";;"CHEM DE PELLEPORT RÉSIDENCE LA COQUILLE";"31500";"TOULOUSE";"Bâtiment"; 20.2;"Société HLM"
428692;1.41167;43.54417;"01° 24' 42.00'' Est, 43° 32' 39.00'' Nord";"31433";;"12 AV DE GUTENBERG ZA LARRIEU";"31120";"PORTET-SUR-GARONNE";"Pylône autostable"; 13.8;
434838;1.02694;43.13278;"01° 01' 37.00'' Est, 43° 07' 58.00'' Nord";"31059";;"EGLISE";"31260";"BELBEZE-EN-COMMINGES";"Monument religieux"; 18.0;"Commune, communauté de commune"
434840;1.06056;43.15778;"01° 03' 38.00'' Est, 43° 09' 28.00'' Nord";"31422";;"EGLISE";"31220";"PLAGNE";"Monument religieux"; 17.0;"Commune, communauté de commune"
434842;1.03750;43.10639;"01° 02' 15.00'' Est, 43° 06' 23.00'' Nord";"31591";"HAUCON";;"31260";"ESCOULIS";"Pylône autostable"; 18.0;"Société Privée SA"
434850;0.76833;42.91250;"00° 46' 06.00'' Est, 42° 54' 45.00'' Nord";"31085";"LES COURRAOUS";"MOURTIS SYNDICAT D'INITIATIVE";"31440";"BOUTX";"Bâtiment"; 9.0;"Société Privée SA"
434864;0.51667;42.85056;"00° 31' 00.00'' Est, 42° 51' 02.00'' Nord";"31146";"ARTIGUEBOUSSOUS";;"31110";"CIRES";"Pylône autostable"; 5.0;"TDF"
434872;0.88944;43.31278;"00° 53' 22.00'' Est, 43° 18' 46.00'' Nord";"31178";"LE PLAN";;"31230";"FABAS";"Château d'eau - réservoir"; 30.0;"Syndicat des eaux, Adduction"
434878;0.67250;43.22472;"00° 40' 21.00'' Est, 43° 13' 29.00'' Nord";"31138";"CASSAGNE";"STADE DE CHARLAS";"31350";"CHARLAS";"Pylône autostable"; 18.0;"Commune, communauté de commune"
434880;0.52944;43.19389;"00° 31' 46.00'' Est, 43° 11' 38.00'' Nord";"31078";"LA RAUDERE";"CHÂTEAU D'EAU";"31580";"BOUDRAC";"Château d'eau - réservoir"; 29.0;"Syndicat des eaux, Adduction"
434882;0.58778;43.25639;"00° 35' 16.00'' Est, 43° 15' 23.00'' Nord";"31218";;"CARRERE DE SABIN RÉSERVOIR";"31350";"GENSAC-DE-BOULOGNE";"Pylône autostable"; 13.0;"Société Privée SA"
434886;0.76111;43.06528;"00° 45' 40.00'' Est, 43° 03' 55.00'' Nord";"31294";"LES COUSTOUS";"D5";"31160";"LESPITEAU";"Pylône autostable"; 15.0;"Société Privée SA"
434894;1.71417;43.34528;"01° 42' 51.00'' Est, 43° 20' 43.00'' Nord";"31262";"LAS COUNQUES";"CHÂTEAU D'EAU DE LAGARDE";"31290";"LAGARDE";"Château d'eau - réservoir"; 29.0;"Syndicat des eaux, Adduction"
434898;1.57083;43.40417;"01° 34' 15.00'' Est, 43° 24' 15.00'' Nord";"31495";"RIGAILLET";"CHATEAU D EAU";"31560";"SAINT-LEON";"Château d'eau - réservoir"; 22.0;"Syndicat des eaux, Adduction"
434902;1.43611;43.22833;"01° 26' 10.00'' Est, 43° 13' 42.00'' Nord";"31206";"LOUISE";;"31550";"GAILLAC-TOULZA";"Château d'eau - réservoir"; 48.0;"Syndicat des eaux, Adduction"
434906;1.13139;43.18639;"01° 07' 53.00'' Est, 43° 11' 11.00'' Nord";"31474";"MACHENT";"CHATEAU D EAU";"31310";"SAINT-CHRISTAUD";"Château d'eau - réservoir"; 14.0;"Syndicat des eaux, Adduction"
434908;1.15250;43.14722;"01° 09' 09.00'' Est, 43° 08' 50.00'' Nord";"31362";;"PRAT BEDIAOU RÉSERVOIR DE MONBERAUD";"31220";"MONTBERAUD";"Pylône autostable"; 20.0;"Société Privée SA"
435014;0.99694;43.10000;"00° 59' 49.00'' Est, 43° 06' 00.00'' Nord";"31321";"MASSECOSTES";;"31260";"MARSOULAS";"Pylône autostable"; 22.0;"Altitude Telecom"
435094;1.17361;43.37500;"01° 10' 25.00'' Est, 43° 22' 30.00'' Nord";"31065";"CANTON";"CHÂTEAU D'EAU";"31370";"BERAT";"Château d'eau - réservoir"; 35.0;"Syndicat des eaux, Adduction"
435158;1.46556;43.58583;"01° 27' 56.00'' Est, 43° 35' 09.00'' Nord";"31555";;"2 R BARRAU";"31500";"TOULOUSE";"Bâtiment"; 24.0;"Copropriété, Syndic, SCI"
435372;1.61278;43.45111;"01° 36' 46.00'' Est, 43° 27' 04.00'' Nord";"31048";;"R DU STADE";"31450";"BAZIEGE";"Pylône autostable"; 33.0;"FPS TOWERS"
435404;1.32222;43.46167;"01° 19' 20.00'' Est, 43° 27' 42.00'' Nord";"31395";;"3 SQ DES COMBATTANTS D'AFRIQUE DU NORD";"31600";"MURET";"Immeuble"; 17.9;"Société Privée SA"
436964;1.01167;43.37944;"01° 00' 42.00'' Est, 43° 22' 46.00'' Nord";"31520";"CAMBETTES";"CHÂTEAU D'EAU";"31370";"SAJAS";"Château d'eau - réservoir"; 43.0;"Syndicat des eaux, Adduction"
437001;0.92306;43.21028;"00° 55' 23.00'' Est, 43° 12' 37.00'' Nord";"31005";"ST JOSEPH";"PYLÔNE DE ALAN DDE";"31420";"ALAN";"Pylône autostable"; 27.0;"Conseil Général"
437294;1.27972;43.70917;"01° 16' 47.00'' Est, 43° 42' 33.00'' Nord";"31341";"AU TUCOL";"D.37 - ROUTE DE DAUX";"31330";"MERVILLE";"Pylône autostable"; 35.0;"FPS TOWERS"
438120;1.28000;43.67250;"01° 16' 48.00'' Est, 43° 40' 21.00'' Nord";"31351";"CANNONGE";"ENTRE D1 ET RTE DE LA FORÊT DE BOUCONNE PRÈS DU CHÂTEAU D'EAU";"31700";"MONDONVILLE";"Pylône autostable"; 45.0;"SFR"
438127;1.51917;43.32611;"01° 31' 09.00'' Est, 43° 19' 34.00'' Nord";"31145";"LA GARDETTE DE DESSUS";;"31550";"CINTEGABELLE";"Pylône autostable"; 20.0;"SFR"
439135;1.50778;43.55361;"01° 30' 28.00'' Est, 43° 33' 13.00'' Nord";"31254";"GRANDE BORDE-CTRE";;"31670";"LABEGE";"Pylône autostable"; 40.0;"SFR"
439481;1.31944;43.50167;"01° 19' 10.00'' Est, 43° 30' 06.00'' Nord";"31547";;"550 AV DE TOULOUSE";"31600";"SEYSSES";"Château d'eau - réservoir"; 50.0;"Commune, communauté de commune"
440763;1.37194;43.55250;"01° 22' 19.00'' Est, 43° 33' 09.00'' Nord";"31157";;"37 R ARISTIDE BERGES";"31270";"CUGNAUX";"Pylône autostable"; 13.3;"SFR"
440785;1.28806;43.34222;"01° 17' 17.00'' Est, 43° 20' 32.00'' Nord";"31361";"MOURELOU";"BORDENEUVE D'EN BAS";"31410";"MONTAUT";"Pylône autostable"; 40.0;"ORANGE Services Fixes"
441149;1.40139;43.53250;"01° 24' 05.00'' Est, 43° 31' 57.00'' Nord";"31433";;"BD DE L'EUROPE CC CARREFOUR";"31120";"PORTET-SUR-GARONNE";"Pylône autostable"; 31.4;"BOUYGUES"
442752;1.25500;43.36333;"01° 15' 18.00'' Est, 43° 21' 48.00'' Nord";"31303";"SABATOUSE";"LA GRAVIERE";"31410";"LONGAGES";"Pylône autostable"; 39.0;"FPS TOWERS"
444268;1.37139;43.52806;"01° 22' 17.00'' Est, 43° 31' 41.00'' Nord";"31588";;"CHEM DE GOUBARD CD 24";"31270";"VILLENEUVE-TOLOSANE";"Bâtiment"; 10.0;"Société Privée SA"
444433;1.47500;43.63444;"01° 28' 30.00'' Est, 43° 38' 04.00'' Nord";"31555";;"7 IMP GASTON MONNERVILLE PARC ATLANTA";"31000";"TOULOUSE";"Pylône autostable"; 47.5;"BOUYGUES"
444825;0.59250;42.78917;"00° 35' 33.00'' Est, 42° 47' 21.00'' Nord";"31042";;"ALL D'ETIGNY";"31110";"BAGNERES-DE-LUCHON";"Bâtiment"; 20.0;"Particulier"
445417;1.46556;43.70417;"01° 27' 56.00'' Est, 43° 42' 15.00'' Nord";"31410";;"4,CHEM DE LABASTIDOLE";"31140";"PECHBONNIEU";"Tour hertzienne"; 52.0;"TDF"
445457;1.44194;43.52861;"01° 26' 31.00'' Est, 43° 31' 43.00'' Nord";"31575";;"1 CHEM DE VENTENAC";"31320";"VIEILLE-TOULOUSE";"Pylône tubulaire"; 18.0;"ORANGE"
446615;0.66667;42.93639;"00° 40' 00.00'' Est, 42° 56' 11.00'' Nord";"31067";"MAIL LONG";;"31440";"BEZINS-GARRAUX";"Pylône haubané"; 48.0;"TDF"
448729;1.22556;43.30417;"01° 13' 32.00'' Est, 43° 18' 15.00'' Nord";"31107";;"R DU CHATEAU D'EAU";"31390";"CARBONNE";"Château d'eau - réservoir"; 48.7;"Commune, communauté de commune"
450071;1.37361;43.64250;"01° 22' 25.00'' Est, 43° 38' 33.00'' Nord";"31069";;"19 AV LÉONARD DE VINCI";"31700";"BLAGNAC";"Bâtiment"; 19.0;"Société Privée SA"
450318;0.76917;43.13861;"00° 46' 09.00'' Est, 43° 08' 19.00'' Nord";"31270";"LA GUILLONIE";"CHATEAU D'EAU";"31800";"LANDORTHE";"Château d'eau - réservoir"; 26.0;"Syndicat des eaux, Adduction"
450483;1.40028;43.60778;"01° 24' 01.00'' Est, 43° 36' 28.00'' Nord";"31555";;"1 PL  DR BAYLAC HOP PURPAN";"31000";"TOULOUSE";"Bâtiment"; 42.0;"Etablissement de soins"
451399;1.47667;43.67444;"01° 28' 36.00'' Est, 43° 40' 28.00'' Nord";"31484";"BARTIE SUD";"LONGUE VUE";"31180";"SAINT-GENIES-BELLEVUE";"Pylône autostable"; 21.0;"SFR"
452170;1.51333;43.31194;"01° 30' 48.00'' Est, 43° 18' 43.00'' Nord";"31145";"LES BACCARETS D'EN BAS";;"31550";"CINTEGABELLE";"Pylône autostable"; 35.0;"TDF"
452182;1.47750;43.59639;"01° 28' 39.00'' Est, 43° 35' 47.00'' Nord";"31555";;"3 CHEM DE LAFILAIRE";"31000";"TOULOUSE";"Château d'eau - réservoir"; 52.0;"Syndicat des eaux, Adduction"
452921;1.33306;43.61333;"01° 19' 59.00'' Est, 43° 36' 48.00'' Nord";"31149";;"4, ALLÉE DU POITOU";"31770";"COLOMIERS";"Immeuble"; 39.0;"Société HLM"
452925;1.57472;43.73028;"01° 34' 29.00'' Est, 43° 43' 49.00'' Nord";"31358";"GRIFOULET";"PIERRESOL";"31380";"MONTASTRUC-LA-CONSEILLERE";"Pylône autostable"; 40.0;"Sociétés d'Autoroutes"
453090;0.81472;43.13000;"00° 48' 53.00'' Est, 43° 07' 48.00'' Nord";"31504";"CAP DE LA OUREST";"D92 - D92B PRÈS DE LA D33E";"31360";"SAINT-MEDARD";"Pylône autostable"; 48.0;"Sociétés d'Autoroutes"
454516;1.31417;43.59444;"01° 18' 51.00'' Est, 43° 35' 40.00'' Nord";"31557";"FERRET";"1 BD DENIS PAPIN ZI PAHIN CONCERTO";"31170";"TOURNEFEUILLE";"Pylône autostable"; 41.0;"SFR"
455378;1.44833;43.60333;"01° 26' 54.00'' Est, 43° 36' 12.00'' Nord";"31555";;"1 R ST JEROME HOTEL MERCURE ST GEORGES";"31000";"TOULOUSE";"Immeuble"; 28.0;"Copropriété, Syndic, SCI"
455866;1.57861;43.53111;"01° 34' 43.00'' Est, 43° 31' 52.00'' Nord";"31036";"BROC";;"31650";"AUZIELLE";"Pylône autostable"; 32.2;"SFR"
455914;1.40250;43.68389;"01° 24' 09.00'' Est, 43° 41' 02.00'' Nord";"31182";;"5, R DES USINES";"31150";"FENOUILLET";"Pylône tubulaire"; 31.0;"SFR"
455964;1.39806;43.59583;"01° 23' 53.00'' Est, 43° 35' 45.00'' Nord";"31555";;"32 CHEM DE BEAUREGARD RÉSIDENCE OLYMPIA";"31000";"TOULOUSE";"Immeuble"; 37.0;"Société HLM"
456792;1.24972;43.26972;"01° 14' 59.00'' Est, 43° 16' 11.00'' Nord";"31455";"SOLEILLA DE CLARETTE";;"31310";"RIEUX";"Château d'eau - réservoir"; 35.0;"Syndicat des eaux, Adduction"
457704;1.47639;43.60306;"01° 28' 35.00'' Est, 43° 36' 11.00'' Nord";"31555";;"20-22 R DES ARBUSTES";"31000";"TOULOUSE";"Immeuble"; 25.6;"Société HLM"
458192;1.47333;43.60167;"01° 28' 24.00'' Est, 43° 36' 06.00'' Nord";"31555";"BONHOURE";"CHEM DE SANSOU 73 CHEM DES FONTANELLES";"31000";"TOULOUSE";"Pylône autostable"; 71.0;"TDF"
458731;1.49806;43.61056;"01° 29' 53.00'' Est, 43° 36' 38.00'' Nord";"31044";;"8 - 8BIS AV PIERRE COUPEAU";"31130";"BALMA";"Immeuble"; 21.0;"Copropriété, Syndic, SCI"
459090;1.43722;43.62500;"01° 26' 14.00'' Est, 43° 37' 30.00'' Nord";"31555";;"3 AV DES MAZADES";"31000";"TOULOUSE";"Bâtiment"; 6.0;"Société Privée SA"
459784;1.40194;43.63722;"01° 24' 07.00'' Est, 43° 38' 14.00'' Nord";"31069";;"R DU MOULIN STADE DU RAMIER";"31700";"BLAGNAC";"Pylône autostable"; 43.1;"Commune, communauté de commune"
460180;1.35667;43.69750;"01° 21' 24.00'' Est, 43° 41' 51.00'' Nord";"31541";"ESPITALIS";;"31840";"SEILH";"Pylône tubulaire"; 35.0;"SFR"
460338;1.39056;43.83278;"01° 23' 26.00'' Est, 43° 49' 58.00'' Nord";"31202";"BUGUET-NORD";"RTE DE CASTELNAU";"31620";"FRONTON";"Château d'eau - réservoir"; 27.0;"Commune, communauté de commune"
461533;1.42806;43.66639;"01° 25' 41.00'' Est, 43° 39' 59.00'' Nord";"31022";;"4 IMP DES VIOLETTES";"31140";"AUCAMVILLE";"Immeuble"; 42.0;"ORANGE Services Fixes"
462123;1.44889;43.60639;"01° 26' 56.00'' Est, 43° 36' 23.00'' Nord";"31555";;"17 ALLÉE JEAN JAURES";"31000";"TOULOUSE";"Immeuble"; 32.0;"Copropriété, Syndic, SCI"
462553;1.09278;43.40389;"01° 05' 34.00'' Est, 43° 24' 14.00'' Nord";"31454";"LES PINS";"FORÊT DE RIEUMES";"31370";"RIEUMES";"Pylône autostable"; 40.0;"SFR"
463388;1.43361;43.63000;"01° 26' 01.00'' Est, 43° 37' 48.00'' Nord";"31555";;"67 AV DE FRONTON";"31000";"TOULOUSE";"Immeuble"; 23.0;"Particulier"
463390;1.45278;43.59778;"01° 27' 10.00'' Est, 43° 35' 52.00'' Nord";"31555";;"12 ALLÉES FORAIN FRANÇOIS VERDIER";"31000";"TOULOUSE";"Immeuble"; 18.8;"Particulier"
463592;1.43444;43.62444;"01° 26' 04.00'' Est, 43° 37' 28.00'' Nord";"31555";;"140 AV DES MINIMES";"31000";"TOULOUSE";"Immeuble"; 37.4;"Copropriété, Syndic, SCI"
463600;1.41639;43.57000;"01° 24' 59.00'' Est, 43° 34' 12.00'' Nord";"31555";;"9,11 CHEM DES MARTYRS BORDELONGUE";"31000";"TOULOUSE";"Immeuble"; 42.0;"Société HLM"
463662;1.73000;43.57722;"01° 43' 48.00'' Est, 43° 34' 38.00'' Nord";"31441";"BEL AIR";"CHEM DE SAUSSENS";"31460";"PRUNET";"Pylône autostable"; 33.0;"BOUYGUES"
466376;0.55194;43.09444;"00° 33' 07.00'' Est, 43° 05' 40.00'' Nord";"31390";"LOUBET";"CHEM DE  CASAGRAND";"31210";"MONTREJEAU";"Pylône autostable"; 44.0;"TDF"
466394;0.81167;42.97306;"00° 48' 42.00'' Est, 42° 58' 23.00'' Nord";"31447";"LE PICON";;"31160";"RAZECUEILLE";"Pylône autostable"; 33.8;"TDF"
467959;1.36861;43.57778;"01° 22' 07.00'' Est, 43° 34' 40.00'' Nord";"31555";;"15 AV DU DR MAURICE GRYNFOGEL CHEM DE GAILLARDIE";"31000";"TOULOUSE";"Pylône tubulaire"; 21.0;"ORANGE"
468046;1.45639;43.53972;"01° 27' 23.00'' Est, 43° 32' 23.00'' Nord";"31446";"LA CORNASSE";"CHEM DE PEYRE-D'ESCALE-POUZO";"31520";"RAMONVILLE-SAINT-AGNE";"Tour hertzienne"; 81.2;"TDF"
470908;1.56972;43.58528;"01° 34' 11.00'' Est, 43° 35' 07.00'' Nord";"31184";;"PLAINE DE CISAROL";"31130";"FLOURENS";"Château d'eau - réservoir"; 32.0;"Syndicat des eaux, Adduction"
470924;1.03972;43.78694;"01° 02' 23.00'' Est, 43° 47' 13.00'' Nord";"31096";"LAILLÈRE";"CHEM RURAL LES TROPBIOUS";"31480";"CABANAC-SEGUENVILLE";"Pylône autostable"; 40.0;"SFR"
472250;1.41778;43.59889;"01° 25' 04.00'' Est, 43° 35' 56.00'' Nord";"31555";;"88 AV DE GRANDE BRETAGNE";"31000";"TOULOUSE";"Immeuble"; 34.4;"Copropriété, Syndic, SCI"
473357;1.41333;43.64889;"01° 24' 48.00'' Est, 43° 38' 56.00'' Nord";"31555";;"105 CHEM DE FENOUILLET STÉ LAFARGE BÉTON";"31000";"TOULOUSE";"Pylône autostable"; 35.0;"SFR"
473718;1.45333;43.60333;"01° 27' 12.00'' Est, 43° 36' 12.00'' Nord";"31555";;"46 R D'AUBUISSON";"31000";"TOULOUSE";"Bâtiment"; 14.9;"Particulier"
475643;1.55472;43.47472;"01° 33' 17.00'' Est, 43° 28' 29.00'' Nord";"31162";"ENCLOS";"R RIQUET";"31450";"DONNEVILLE";"Pylône autostable"; 30.0;"SFR"
475657;1.55167;43.52556;"01° 33' 06.00'' Est, 43° 31' 32.00'' Nord";"31169";"BARTOLE";"CHEM DU PECH";"31750";"ESCALQUENS";"Pylône autostable"; 12.0;"SFR"
475799;1.37889;43.60861;"01° 22' 44.00'' Est, 43° 36' 31.00'' Nord";"31555";;"176 ROUTE DE BAYONNE AIRPORT HOTEL";"31000";"TOULOUSE";"Bâtiment"; 20.0;"Société Privée SA"
476866;1.42500;43.57139;"01° 25' 30.00'' Est, 43° 34' 17.00'' Nord";"31555";;"99,ROUTE D'ESPAGNE";"31100";"TOULOUSE";"Immeuble"; 21.0;"Société HLM"
479713;1.21472;43.70333;"01° 12' 53.00'' Est, 43° 42' 12.00'' Nord";"31507";"LA BOUERO";;"31530";"SAINT-PAUL-SUR-SAVE";"Pylône autostable"; 26.3;"SFR"
480089;1.47500;43.66306;"01° 28' 30.00'' Est, 43° 39' 47.00'' Nord";"31561";"LE RÉSERVOIR";"AV DE CORNAUDRIC";"31240";"L'UNION";"Pylône autostable"; 21.0;"ORANGE"
481486;1.05417;43.73944;"01° 03' 15.00'' Est, 43° 44' 22.00'' Nord";"31275";"LAOUZET";"DÉPARTEMENTALE D1 ROUTE DE LECTOURE";"31480";"LAREOLE";"Pylône autostable"; 35.0;"SFR"
481926;1.42500;43.79083;"01° 25' 30.00'' Est, 43° 47' 27.00'' Nord";"31079";"BOUDON";"MAROU CHEM DES PEYROTS";"31620";"BOULOC";"Pylône autostable"; 34.0;"ORANGE Services Fixes"
482211;0.95694;43.12000;"00° 57' 25.00'' Est, 43° 07' 12.00'' Nord";"31336";"RAMOUNAT";"MARIDOU";"31260";"MAZERES-SUR-SALAT";"Pylône autostable"; 41.6;"SFR"
483788;1.31250;43.59806;"01° 18' 45.00'' Est, 43° 35' 53.00'' Nord";"31149";;"CHEM DE BORDEBLANQUE ZI EN JACCA";"31770";"COLOMIERS";"Pylône tubulaire"; 35.0;"TDF"
484044;1.10278;43.68528;"01° 06' 10.00'' Est, 43° 41' 07.00'' Nord";"31061";"CORNAC";"D 24 TOUR TÉLÉCOM";"31530";"BELLEGARDE-SAINTE-MARIE";"Tour hertzienne"; 64.0;"TDF"
487739;1.32611;43.41944;"01° 19' 34.00'' Est, 43° 25' 10.00'' Nord";"31395";"LA FERRANE";"CHEM DE JOULIOU PYLONE FT";"31600";"MURET";"Pylône autostable"; 44.0;"ORANGE Services Fixes"
492770;1.46111;43.61361;"01° 27' 40.00'' Est, 43° 36' 49.00'' Nord";"31555";"JOLIMONT";"7, PL COMMERCIALE";"31000";"TOULOUSE";"Immeuble"; 68.0;"Copropriété, Syndic, SCI"
493256;1.40000;43.84167;"01° 23' 60.00'' Est, 43° 50' 30.00'' Nord";"31202";"LE CAMP DE LIGOUNAUD";"RTE DES TERMES CAPDEVILLE";"31620";"FRONTON";"Château d'eau - réservoir"; 48.0;"Commune, communauté de commune"
493881;1.39056;43.47833;"01° 23' 26.00'' Est, 43° 28' 42.00'' Nord";"31421";"LE PÉRIÉ";"R DU PÉRIÉ STADE DE FOOTBALL";"31860";"PINS-JUSTARET";"Pylône autostable"; 25.0;"ORANGE"
493963;1.46806;43.55333;"01° 28' 05.00'' Est, 43° 33' 12.00'' Nord";"31555";;"271 ROUTE DE NARBONNE RES HERMES";"31000";"TOULOUSE";"Immeuble"; 18.4;"Copropriété, Syndic, SCI"
494286;1.33944;43.39889;"01° 20' 22.00'' Est, 43° 23' 56.00'' Nord";"31052";"PARIA - LES CATHOLIQUES";;"31870";"BEAUMONT-SUR-LEZE";"Pylône autostable"; 43.0;"FPS TOWERS"
496589;1.34306;43.61750;"01° 20' 35.00'' Est, 43° 37' 03.00'' Nord";"31149";;"9 AV GEORGES GUYNEMER";"31770";"COLOMIERS";"Bâtiment"; 23.9;"Copropriété, Syndic, SCI"
499502;1.52278;43.61611;"01° 31' 22.00'' Est, 43° 36' 58.00'' Nord";"31044";"LA COSTE";"D 64 CHÂTEAU D'EAU";"31130";"BALMA";"Château d'eau - réservoir"; 23.0;"Commune, communauté de commune"
501146;1.39306;43.46639;"01° 23' 35.00'' Est, 43° 27' 59.00'' Nord";"31248";;"400 CHEM DES AGNÈS";"31860";"LABARTHE-SUR-LEZE";"Pylône tubulaire"; 30.0;"SFR"
502110;1.27556;43.58444;"01° 16' 32.00'' Est, 43° 35' 04.00'' Nord";"31526";;"AV DE LEONARD DE VINCI ZA TAUR";"31880";"LA SALVETAT-SAINT-GILLES";"Pylône autostable"; 35.0;"SFR"
502172;1.27056;43.59861;"01° 16' 14.00'' Est, 43° 35' 55.00'' Nord";"31291";"LES MULATIERS";"D65.C";"31490";"LEGUEVIN";"Pylône autostable"; 42.0;"SFR"
502222;1.47250;43.60778;"01° 28' 21.00'' Est, 43° 36' 28.00'' Nord";"31555";;"79 AV DE LA GLOIRE";"31000";"TOULOUSE";"Immeuble"; 39.0;"Copropriété, Syndic, SCI"
505515;1.39917;43.45083;"01° 23' 57.00'' Est, 43° 27' 03.00'' Nord";"31248";"LE FORT";"CHEM DE LA CROIX DE MITRAC";"31860";"LABARTHE-SUR-LEZE";"Château d'eau - réservoir"; 31.0;"Commune, communauté de commune"
506105;1.37278;43.63083;"01° 22' 22.00'' Est, 43° 37' 51.00'' Nord";"31069";;"AÉROPORT DE TOULOUSE BLAGNAC";"31700";"BLAGNAC";"Bâtiment"; 25.0;"CCI,Ch Metiers,Port Aut,Aérop"
506366;0.69833;43.12056;"00° 41' 54.00'' Est, 43° 07' 14.00'' Nord";"31483";"LA TOURASSE";"44 CH. COM. DE LA COURRÈGE";"31800";"SAINT-GAUDENS";"Pylône autostable"; 42.0;"TDF"
506963;1.44778;43.57972;"01° 26' 52.00'' Est, 43° 34' 47.00'' Nord";"31555";;"17 AV DU 14IÈME RÉGIMENT D'INFANTERIE";"31400";"TOULOUSE";"Bâtiment"; 17.0;"Copropriété, Syndic, SCI"
507177;2.00889;43.44139;"02° 00' 32.00'' Est, 43° 26' 29.00'' Nord";"31451";"CALES ST FERREOL";"R DES QUATRE VENTS";"31250";"REVEL";"Pylône autostable"; 23.0;"ORANGE Services Fixes"
508734;1.01306;43.16028;"01° 00' 47.00'' Est, 43° 09' 37.00'' Nord";"31457";"PÉRÉ";"PICON ET PÈRE";"31360";"ROQUEFORT-SUR-GARONNE";"Pylône autostable"; 30.0;"ORANGE Services Fixes"
508759;1.55694;43.66806;"01° 33' 25.00'' Est, 43° 40' 05.00'' Nord";"31117";"BOURUSSEL";"CH DES FUSILLES DE LA REULE";"31180";"CASTELMAUROU";"Pylône autostable"; 29.0;"TDF"
509011;0.57806;42.76944;"00° 34' 41.00'' Est, 42° 46' 10.00'' Nord";"31470";"SUPERBAGNÈRES";;"31110";"SAINT-AVENTIN";"Pylône autostable"; 47.0;"TDF"
509477;0.71361;43.12861;"00° 42' 49.00'' Est, 43° 07' 43.00'' Nord";"31483";"BARDINS";"CHEM DES BARDINS";"31800";"SAINT-GAUDENS";"Pylône autostable"; 50.0;"TDF"
512163;1.37167;43.42694;"01° 22' 18.00'' Est, 43° 25' 37.00'' Nord";"31165";"BRAMOFAM";;"31600";"EAUNES";"Pylône autostable"; 34.0;"SFR"
513700;1.37556;43.79333;"01° 22' 32.00'' Est, 43° 47' 36.00'' Nord";"31118";"LES HEBRAILS";"RTE DE BOULOC";"31620";"CASTELNAU-D'ESTRETEFONDS";"Pylône autostable"; 46.5;"FPS TOWERS"
514313;1.53306;43.55500;"01° 31' 59.00'' Est, 43° 33' 18.00'' Nord";"31506";;"PL DE LA POSTE CHÂTEAU D'EAU";"31650";"SAINT-ORENS-DE-GAMEVILLE";"Château d'eau - réservoir"; 34.0;"Commune, communauté de commune"
515697;1.55611;43.58889;"01° 33' 22.00'' Est, 43° 35' 20.00'' Nord";"31184";"PLAINE DE LALIE";"PRÈS DE LA D 64";"31130";"FLOURENS";"Pylône autostable"; 51.0;"SFR"
515703;1.38167;43.47722;"01° 22' 54.00'' Est, 43° 28' 38.00'' Nord";"31580";"LAS NAUSES";"CHATEAU D'EAU";"31860";"VILLATE";"Château d'eau - réservoir"; 26.0;"Commune, communauté de commune"
515719;1.39694;43.55556;"01° 23' 49.00'' Est, 43° 33' 20.00'' Nord";"31555";;"R PAUL ROCACHE";"31000";"TOULOUSE";"Pylône autostable"; 38.0;"ORANGE"
516139;1.19222;43.54917;"01° 11' 32.00'' Est, 43° 32' 57.00'' Nord";"31188";"MOULIN PICHETTE";"RTE DÉPART. DE CARBONNE";"31470";"FONTENILLES";"Château d'eau - réservoir"; 32.7;"Syndicat des eaux, Adduction"
516215;1.62167;43.38306;"01° 37' 18.00'' Est, 43° 22' 59.00'' Nord";"31374";"LA PEPILLE";"D.11";"31450";"MONTESQUIEU-LAURAGAIS";"Pylône autostable"; 44.5;"TDF"
516574;1.50833;43.67333;"01° 30' 30.00'' Est, 43° 40' 24.00'' Nord";"31117";"LES CANCÈRES";"RTE DU CLOS DU LOUP - D.77F";"31180";"CASTELMAUROU";"Pylône tubulaire"; 24.0;"SFR"
516648;1.57667;43.46694;"01° 34' 36.00'' Est, 43° 28' 01.00'' Nord";"31381";"LE PONT";"ENTRE L'HERS ET L'A A61";"31450";"MONTGISCARD";"Pylône autostable"; 34.0;"TDF"
517228;1.72000;43.34083;"01° 43' 12.00'' Est, 43° 20' 27.00'' Nord";"31262";"SOULEILLA DE LA GINESTIÈRE";"D.91";"31290";"LAGARDE";"Pylône autostable"; 33.9;"FPS TOWERS"
518867;0.47667;42.78889;"00° 28' 36.00'' Est, 42° 47' 20.00'' Nord";"31221";"LES AGUDES VILLAGE";;"31110";"GOUAUX-DE-LARBOUST";"Immeuble"; 17.6;"Copropriété, Syndic, SCI"
519147;1.46444;43.60194;"01° 27' 52.00'' Est, 43° 36' 07.00'' Nord";"31555";;"17 R DU PR MARTIN";"31000";"TOULOUSE";"Immeuble"; 27.0;"Copropriété, Syndic, SCI"
519321;1.45028;43.50806;"01° 27' 01.00'' Est, 43° 30' 29.00'' Nord";"31578";;"2 AV DES PYRÉNÉES";"31320";"VIGOULET-AUZIL";"Pylône autostable"; 24.0;"RTE"
520774;1.42250;43.43889;"01° 25' 21.00'' Est, 43° 26' 20.00'' Nord";"31574";"LESPEZ";"CD 19";"31810";"VERNET";"Château d'eau - réservoir"; 28.0;"Syndicat des eaux, Adduction"
520780;1.06306;43.23333;"01° 03' 47.00'' Est, 43° 14' 00.00'' Nord";"31349";"PATER";"CHEM DE CARRETS";"31220";"MONDAVEZAN";"Pylône autostable"; 46.0;"BOUYGUES"
520897;1.21944;43.42389;"01° 13' 10.00'' Est, 43° 25' 26.00'' Nord";"31299";"LINDETTES";"24 CHEM DE LARRIEU";"31600";"LHERM";"Château d'eau - réservoir"; 48.5;"Syndicat des eaux, Adduction"
522207;1.44306;43.63972;"01° 26' 35.00'' Est, 43° 38' 23.00'' Nord";"31555";;"19/20 PL DES FAONS";"31000";"TOULOUSE";"Immeuble"; 35.0;"Société HLM"
522221;1.32028;43.60250;"01° 19' 13.00'' Est, 43° 36' 09.00'' Nord";"31149";;"36 CHEM DES SÉVÈNES";"31770";"COLOMIERS";"Pylône tubulaire"; 25.7;"SFR"
522282;1.50694;43.86556;"01° 30' 25.00'' Est, 43° 51' 56.00'' Nord";"31584";;"RUE DU PECH ALLÉE DU CIMETIÈRE";"31340";"VILLEMUR-SUR-TARN";"Château d'eau - réservoir"; 40.0;"Commune, communauté de commune"
522907;1.49944;43.68972;"01° 29' 58.00'' Est, 43° 41' 23.00'' Nord";"31484";"QUAXOUS";"D.77 - RTE DE CASTELMAUROU";"31180";"SAINT-GENIES-BELLEVUE";"Pylône tubulaire"; 30.0;"ORANGE"
523566;1.35639;43.58833;"01° 21' 23.00'' Est, 43° 35' 18.00'' Nord";"31557";;"249 AV GASTON DOUMERGUE";"31170";"TOURNEFEUILLE";"Immeuble"; 15.7;"Particulier"
523869;0.59111;42.79111;"00° 35' 28.00'' Est, 42° 47' 28.00'' Nord";"31042";;"78, AV MARÉCHAL FOCH";"31110";"BAGNERES-DE-LUCHON";"Bâtiment"; 20.0;"Société Privée SA"
526047;1.43528;43.59861;"01° 26' 07.00'' Est, 43° 35' 55.00'' Nord";"31555";;"26, R RÉPUBLIQUE";"31300";"TOULOUSE";"Bâtiment"; 20.7;"Copropriété, Syndic, SCI"
526064;0.99028;43.18472;"00° 59' 25.00'' Est, 43° 11' 05.00'' Nord";"31324";;"77 AV DES PYRENEES USINE";"31220";"MARTRES-TOLOSANE";"Bâtiment"; 20.0;"Particulier"
526189;1.47639;43.60028;"01° 28' 35.00'' Est, 43° 36' 01.00'' Nord";"31555";;"21 R PLANTIER RÉS. LE BELVÉDÈRE";"31000";"TOULOUSE";"Immeuble"; 15.9;"Copropriété, Syndic, SCI"
526219;1.77333;43.46861;"01° 46' 24.00'' Est, 43° 28' 07.00'' Nord";"31055";"LA TOUR";"CHEMIN IC N°47";"31460";"BEAUVILLE";"Pylône autostable"; 19.0;"ORANGE Services Fixes"
526258;1.39389;43.57917;"01° 23' 38.00'' Est, 43° 34' 45.00'' Nord";"31555";;"216 RTE DE ST-SIMON IMM LE TERTIAL";"31000";"TOULOUSE";"Immeuble"; 28.0;"Copropriété, Syndic, SCI"
526349;1.74056;43.54194;"01° 44' 26.00'' Est, 43° 32' 31.00'' Nord";"31106";"LES OULIERS";"RTE DE VALLESVILLES DÉPARTEMENTALE N° 59";"31460";"CARAMAN";"Pylône autostable"; 33.0;"ORANGE Services Fixes"
526846;0.72639;43.10889;"00° 43' 35.00'' Est, 43° 06' 32.00'' Nord";"31483";;"R DE LA RÉPUBLIQUE PL DU MARÉCHAL JUIN";"31800";"SAINT-GAUDENS";"Immeuble"; 24.7;"Copropriété, Syndic, SCI"
529907;1.36361;43.37083;"01° 21' 49.00'' Est, 43° 22' 15.00'' Nord";"31052";"TAMARE";;"31870";"BEAUMONT-SUR-LEZE";"Château d'eau - réservoir"; 31.1;"Syndicat des eaux, Adduction"
530038;1.45917;43.63389;"01° 27' 33.00'' Est, 43° 38' 02.00'' Nord";"31555";;"8 R DE LA MAOURINE";"31000";"TOULOUSE";"Immeuble"; 18.1;"Société HLM"
531816;1.11472;43.67417;"01° 06' 53.00'' Est, 43° 40' 27.00'' Nord";"31061";"LE COUSTALA ET LAS SAOUBIANOS";;"31530";"BELLEGARDE-SAINTE-MARIE";"Bâtiment"; 7.0;"ORANGE Services Fixes"
533577;1.45806;43.62167;"01° 27' 29.00'' Est, 43° 37' 18.00'' Nord";"31555";;"141 R DU FAUBOURG BONNEFOY";"31000";"TOULOUSE";"Immeuble"; 30.4;"Particulier"
533592;1.43722;43.61083;"01° 26' 14.00'' Est, 43° 36' 39.00'' Nord";"31555";;"11 BD  LASCROSSES";"31000";"TOULOUSE";"Immeuble"; 39.0;"Particulier"
534003;1.45167;43.61194;"01° 27' 06.00'' Est, 43° 36' 43.00'' Nord";"31555";;"16 BD BONREPOS IMM SIS À L'ANGLE BD DE STRASBOURG";"31000";"TOULOUSE";"Immeuble"; 32.0;"Société Privée SA"
534041;1.35944;43.43611;"01° 21' 34.00'' Est, 43° 26' 10.00'' Nord";"31165";"LES CHAMPS DE BELAYRE";"CHEM DES BERTOULOTS";"31600";"EAUNES";"Pylône autostable"; 29.0;"FPS TOWERS"
535069;1.48556;43.58417;"01° 29' 08.00'' Est, 43° 35' 03.00'' Nord";"31555";;"19 IMP DE TRUTAT";"31000";"TOULOUSE";"Immeuble"; 30.0;"Société HLM"
536018;1.46361;43.35972;"01° 27' 49.00'' Est, 43° 21' 35.00'' Nord";"31033";"LE ROUAT";"ROUTE DE TOULOUSE";"31190";"AUTERIVE";"Château d'eau - réservoir"; 45.0;"Syndicat des eaux, Adduction"
536307;1.49389;43.60917;"01° 29' 38.00'' Est, 43° 36' 33.00'' Nord";"31044";;"33 R DES LILAS";"31130";"BALMA";"Bâtiment"; 13.0;"Particulier"
536363;1.17583;43.68194;"01° 10' 33.00'' Est, 43° 40' 55.00'' Nord";"31338";"CAILLAS II";"CHEM DE MONTLEZUN";"31530";"MENVILLE";"Pylône autostable"; 29.0;"FPS TOWERS"
539049;1.46083;43.56583;"01° 27' 39.00'' Est, 43° 33' 57.00'' Nord";"31555";;"3, CHEM DES MARAÎCHERS FACULTÉ DENTAIRE";"31000";"TOULOUSE";"Bâtiment"; 33.0;"Etat, Ministère"
540096;1.41444;43.60917;"01° 24' 52.00'' Est, 43° 36' 33.00'' Nord";"31555";;"115BIS R. DES AMIDONNIERS";"31000";"TOULOUSE";"Pylône autostable"; 25.0;"ORANGE"
540772;1.19861;43.51250;"01° 11' 55.00'' Est, 43° 30' 45.00'' Nord";"31499";"BOUTET";"D.12 ROUTE DE MURET ZAC DU BOUTET";"31470";"SAINT-LYS";"Pylône autostable"; 35.0;"ORANGE"
541339;1.30556;43.59917;"01° 18' 20.00'' Est, 43° 35' 57.00'' Nord";"31149";;"10 CHEM DE GARRABOT";"31770";"COLOMIERS";"Pylône tubulaire"; 24.0;"ORANGE"
541351;1.44500;43.61222;"01° 26' 42.00'' Est, 43° 36' 44.00'' Nord";"31555";;"31 R DE LA CONCORDE";"31000";"TOULOUSE";"Immeuble"; 24.2;"Copropriété, Syndic, SCI"
542232;1.20583;43.52944;"01° 12' 21.00'' Est, 43° 31' 46.00'' Nord";"31187";;"AVENUE LUCIE AUBRAC TERRAIN DE SPORT";"31470";"FONSORBES";"Pylône tubulaire"; 33.0;"ORANGE"
542243;1.41000;43.61250;"01° 24' 36.00'' Est, 43° 36' 45.00'' Nord";"31555";;"1 R AUGUSTE BARTHOLDI";"31000";"TOULOUSE";"Immeuble"; 18.7;"Copropriété, Syndic, SCI"
543921;1.28806;43.71528;"01° 17' 17.00'' Est, 43° 42' 55.00'' Nord";"31341";"LA PLAINE DU JUGE";"RTE DE DAUX CHATEAU D EAU";"31330";"MERVILLE";"Château d'eau - réservoir"; 30.0;"Syndicat des eaux, Adduction"
547867;1.26000;43.46333;"01° 15' 36.00'' Est, 43° 27' 48.00'' Nord";"31253";"LAS MARGALIDES";"CHEM DU BANQUÉ";"31600";"LABASTIDETTE";"Pylône autostable"; 28.0;"ORANGE"
549213;1.40194;43.68500;"01° 24' 07.00'' Est, 43° 41' 06.00'' Nord";"31182";;"R DES USINES";"31150";"FENOUILLET";"Pylône tubulaire"; 21.0;"ORANGE"
550975;0.76778;42.91056;"00° 46' 04.00'' Est, 42° 54' 38.00'' Nord";"31085";"LE MOURTIS";"STATION DE SKI LE MOURTIS";"31160";"BOUTX";"Pylône autostable"; 27.0;"FPS TOWERS"
551691;0.85722;43.10611;"00° 51' 26.00'' Est, 43° 06' 22.00'' Nord";"31246";"GABARRET";"22 CHEM DE MOLIN-ARRER D.88A";"31800";"LABARTHE-INARD";"Pylône autostable"; 23.0;"ORANGE"
555057;1.24139;43.54417;"01° 14' 29.00'' Est, 43° 32' 39.00'' Nord";"31187";;"CHEM DE MOUNDRAN";"31470";"FONSORBES";"Pylône tubulaire"; 26.0;"ORANGE"
556543;1.49806;43.54944;"01° 29' 53.00'' Est, 43° 32' 58.00'' Nord";"31446";"LABÈGE";"A61 PEAGE TOULOUSE SUD";"31520";"RAMONVILLE-SAINT-AGNE";"Pylône autostable"; 41.0;"Sociétés d'Autoroutes"
557058;1.45472;43.30806;"01° 27' 17.00'' Est, 43° 18' 29.00'' Nord";"31231";"BAGNOS";"ROUTE D'ESPERCE";"31990";"GRAZAC";"Bâtiment"; 5.0;"Particulier"
558073;1.43556;43.64778;"01° 26' 08.00'' Est, 43° 38' 52.00'' Nord";"31555";;"14 IMP BLANDINIERES";"31000";"TOULOUSE";"Pylône autostable"; 41.0;"SFR"
559905;0.73500;43.13861;"00° 44' 06.00'' Est, 43° 08' 19.00'' Nord";"31483";;"LA SERRE DE CAZAUX";"31800";"SAINT-GAUDENS";"Pylône autostable"; 52.0;"ORANGE Services Fixes"
560051;0.84056;43.37583;"00° 50' 26.00'' Est, 43° 22' 33.00'' Nord";"31239";"L'ALODEN";"D 52";"31230";"L'ISLE-EN-DODON";"Pylône autostable"; 36.0;"ORANGE Services Fixes"
560077;1.37167;43.57667;"01° 22' 18.00'' Est, 43° 34' 36.00'' Nord";"31555";;"42 AV GASPARD CORIOLIS";"31000";"TOULOUSE";"Pylône tubulaire"; 20.0;"SFR"
560598;1.39111;43.47778;"01° 23' 28.00'' Est, 43° 28' 40.00'' Nord";"31421";"LE PERIE";;"31860";"PINS-JUSTARET";"Pylône autostable"; 27.0;"SFR"
563335;1.12806;43.41722;"01° 07' 41.00'' Est, 43° 25' 02.00'' Nord";"31454";"LESCOUBOUE";"STATION D'ÉPURATION";"31370";"RIEUMES";"Pylône autostable"; 30.0;"SFR"
563449;1.51278;43.52111;"01° 30' 46.00'' Est, 43° 31' 16.00'' Nord";"31113";;"AV PIERRE MENDÈS FRANCE PYLÔNE RTE N°26";"31320";"CASTANET-TOLOSAN";"Pylône autostable"; 27.0;"RTE"
563545;1.37333;43.64417;"01° 22' 24.00'' Est, 43° 38' 39.00'' Nord";"31069";;"ALLEE EMILE ZOLA ZAC DU GRAND BOBLE CINEMA MEGA CGR";"31700";"BLAGNAC";"Bâtiment"; 13.0;"Société Privée SA"
564128;1.44972;43.60111;"01° 26' 59.00'' Est, 43° 36' 04.00'' Nord";"31555";;"7 R D'ASTORG/7 R MALARET RÉSIDENCE ASTORG";"31000";"TOULOUSE";"Immeuble"; 26.0;"Copropriété, Syndic, SCI"
565115;0.85778;42.94111;"00° 51' 28.00'' Est, 42° 56' 28.00'' Nord";"31431";"BOURDALLÉ";"CHEM RURAL DE COULÉDOUX";"31160";"PORTET-D'ASPET";"Pylône autostable"; 40.0;"SFR"
565879;0.60444;43.04639;"00° 36' 16.00'' Est, 43° 02' 47.00'' Nord";"31255";"CASTILLON";"PRÈS DU RÉSERVOIR";"31510";"LABROQUERE";"Pylône autostable"; 33.5;"SFR"
566705;1.48250;43.63639;"01° 28' 57.00'' Est, 43° 38' 11.00'' Nord";"31555";;"100 CHEM DE GABARDIE";"31000";"TOULOUSE";"Pylône tubulaire"; 43.0;"ORANGE"
567050;1.46500;43.60472;"01° 27' 54.00'' Est, 43° 36' 17.00'' Nord";"31555";;"35/37 R LABAT DE SAVIGNAC";"31000";"TOULOUSE";"Immeuble"; 20.0;"Particulier"
568154;1.48833;43.51917;"01° 29' 18.00'' Est, 43° 31' 09.00'' Nord";"31113";"LA PLAINE HAUTE";"CHEM DU CHÂTEAU D'EAU PYLÔNE RTE N°22";"31320";"CASTANET-TOLOSAN";"Pylône autostable"; 24.0;"RTE"
569010;1.26972;43.40417;"01° 16' 11.00'' Est, 43° 24' 15.00'' Nord";"31287";"PRAT DU CASSE";"CHEM DE PARCHEROT STATION D' ÉPURATION";"31410";"LAVERNOSE-LACASSE";"Pylône autostable"; 35.0;"SFR"
569271;1.22806;43.53306;"01° 13' 41.00'' Est, 43° 31' 59.00'' Nord";"31187";;"AV DU CHÂTEAU D'EAU CHÂTEAU D'EAU";"31470";"FONSORBES";"Château d'eau - réservoir"; 33.0;"Syndicat des eaux, Adduction"
569312;1.44056;43.60222;"01° 26' 26.00'' Est, 43° 36' 08.00'' Nord";"31555";;"8 R JEAN SUAU";"31000";"TOULOUSE";"Immeuble"; 20.0;"Copropriété, Syndic, SCI"
569334;1.45361;43.60861;"01° 27' 13.00'' Est, 43° 36' 31.00'' Nord";"31555";;"84 ALL JEAN JAURES HÔTEL SOFITEL";"31000";"TOULOUSE";"Bâtiment"; 57.0;"Société Privée SA"
571671;1.38333;43.64528;"01° 23' 00.00'' Est, 43° 38' 43.00'' Nord";"31069";;"R  DES FERRONIERS R DES TONNELIERS";"31700";"BLAGNAC";"Château d'eau - réservoir"; 49.0;"Commune, communauté de commune"
573167;1.77194;43.38833;"01° 46' 19.00'' Est, 43° 23' 18.00'' Nord";"31037";"GUILLEMJON";;"31290";"AVIGNONET-LAURAGAIS";"Pylône autostable"; 36.0;"SFR"
574213;1.18556;43.74333;"01° 11' 08.00'' Est, 43° 44' 36.00'' Nord";"31281";;"RTE DE LARRA STADE MUNICIPAL";"31330";"LAUNAC";"Pylône tubulaire"; 26.0;"ORANGE"
574869;1.65194;43.56583;"01° 39' 07.00'' Est, 43° 33' 57.00'' Nord";"31271";"BOIS DE ST VICTOR";"VC N°6";"31570";"LANTA";"Pylône autostable"; 40.0;"ORANGE"
575648;1.37861;43.73417;"01° 22' 43.00'' Est, 43° 44' 03.00'' Nord";"31490";;"CHEM DE CASSELÈVRES";"31790";"SAINT-JORY";"Pylône tubulaire"; 29.0;"FPS TOWERS"
576042;1.29000;43.76806;"01° 17' 24.00'' Est, 43° 46' 05.00'' Nord";"31232";"FORT ST BERNARD";;"31330";"GRENADE";"Château d'eau - réservoir"; 44.0;"Commune, communauté de commune"
576095;1.34528;43.60750;"01° 20' 43.00'' Est, 43° 36' 27.00'' Nord";"31149";;"5 ALLÉE DU VICDESSOS";"31770";"COLOMIERS";"Immeuble"; 31.0;"Société HLM"
576136;1.43500;43.70056;"01° 26' 06.00'' Est, 43° 42' 02.00'' Nord";"31116";;"R GUSTAVE EIFFEL";"31780";"CASTELGINEST";"Pylône autostable"; 21.0;"SFR"
578223;1.33278;43.45028;"01° 19' 58.00'' Est, 43° 27' 01.00'' Nord";"31395";"PETIT CASTERA";"9 CHEM DU CHATEAU D'EAU";"31600";"MURET";"Pylône autostable"; 45.0;"TDF"
579853;1.43528;43.57194;"01° 26' 07.00'' Est, 43° 34' 19.00'' Nord";"31555";;"CHEM DE LA LOGE";"31000";"TOULOUSE";"Bâtiment"; 3.0;"Particulier"
582533;1.34778;43.54000;"01° 20' 52.00'' Est, 43° 32' 24.00'' Nord";"31157";;"5 R DU STADE";"31270";"CUGNAUX";"Immeuble"; 18.0;"Copropriété, Syndic, SCI"
582614;1.40028;43.58917;"01° 24' 01.00'' Est, 43° 35' 21.00'' Nord";"31555";;"CHEM DE LA CEPIERE FR3";"31500";"TOULOUSE";"Pylône tubulaire"; 30.0;"TDF"
584594;1.51333;43.53639;"01° 30' 48.00'' Est, 43° 32' 11.00'' Nord";"31254";;"ALL DU LAC BAT A";"31670";"LABEGE";"Bâtiment"; 10.0;"Société Privée SA"
585571;1.32667;43.45861;"01° 19' 36.00'' Est, 43° 27' 31.00'' Nord";"31395";;"3 QUAI PIERRE CORNUS";"31600";"MURET";"Immeuble"; 16.5;"Copropriété, Syndic, SCI"
585625;1.41472;43.61583;"01° 24' 53.00'' Est, 43° 36' 57.00'' Nord";"31555";;"58 R DE TROËNES ANGLES R JEAN GAYRAL";"31000";"TOULOUSE";"Immeuble"; 18.3;"Société Privée SA"
585664;1.33917;43.56722;"01° 20' 21.00'' Est, 43° 34' 02.00'' Nord";"31557";;"60, AV DE MARQUISAT";"31170";"TOURNEFEUILLE";"Pylône autostable"; 25.0;"SFR"
585939;1.31222;43.44056;"01° 18' 44.00'' Est, 43° 26' 26.00'' Nord";"31395";;"220 AV DES PYRÉNÉES";"31600";"MURET";"Pylône tubulaire"; 32.0;"FPS TOWERS"
586288;1.45222;43.59083;"01° 27' 08.00'' Est, 43° 35' 27.00'' Nord";"31555";;"2-2 B  AV FRIZAC";"31000";"TOULOUSE";"Immeuble"; 23.8;"Copropriété, Syndic, SCI"
586303;0.71083;43.09472;"00° 42' 39.00'' Est, 43° 05' 41.00'' Nord";"31565";"LA JURASSO";"CHEM DÉPARTEMENTAL N° 33 DE FRONSAC À MANSIOUX STATION D' ÉPURATION ANGLE VOIE FERRÉE GARONNE";"31800";"VALENTINE";"Pylône autostable"; 23.0;"ORANGE"
586331;1.51806;43.62667;"01° 31' 05.00'' Est, 43° 37' 36.00'' Nord";"31044";;"47 ROUTE DE MONS";"31130";"BALMA";"Pylône tubulaire"; 26.0;"ORANGE"
586724;1.41250;43.72889;"01° 24' 45.00'' Est, 43° 43' 44.00'' Nord";"31091";"LE CLAUZET";"PARC XERACO/AV DE MONTAUBAN";"31150";"BRUGUIERES";"Pylône autostable"; 18.0;"BOUYGUES"
587324;1.17778;43.51444;"01° 10' 40.00'' Est, 43° 30' 52.00'' Nord";"31499";;"R DE L' ÉGLISE EGLISE PROCHE D632 FONSORBES SAMATAN";"31470";"SAINT-LYS";"Monument religieux"; 46.0;"Commune, communauté de commune"
588393;1.36889;43.49083;"01° 22' 08.00'' Est, 43° 29' 27.00'' Nord";"31460";"BORDE GROSSE";"R D'AQUITAINE";"31120";"ROQUETTES";"Pylône autostable"; 43.0;"SFR"
589046;1.61083;43.45500;"01° 36' 39.00'' Est, 43° 27' 18.00'' Nord";"31048";"LE CIMETIÈRE";"CHEM DES ROMAINS CENTRAL TÉLÉPHONIQUE";"31450";"BAZIEGE";"Pylône tubulaire"; 19.0;"ORANGE Services Fixes"
589061;1.62333;43.49806;"01° 37' 24.00'' Est, 43° 29' 53.00'' Nord";"31192";;"RTE DE REVEL CHÂTEAU D'EAU";"31450";"FOURQUEVAUX";"Pylône tubulaire"; 30.0;"ORANGE"
589063;1.53833;43.52722;"01° 32' 18.00'' Est, 43° 31' 38.00'' Nord";"31254";;"117, RTE DE BAZIEGE MAISON DE RETRAITE";"31670";"LABEGE";"Pylône tubulaire"; 20.0;"ORANGE"
589065;1.48472;43.53000;"01° 29' 05.00'' Est, 43° 31' 48.00'' Nord";"31035";"LE PRÉ ST-SÉVERIN";"ALLÉE DE LA GERBIÈRE";"31320";"AUZEVILLE-TOLOSANE";"Pylône tubulaire"; 24.0;"ORANGE"
589067;1.55889;43.51750;"01° 33' 32.00'' Est, 43° 31' 03.00'' Nord";"31169";;"R DE LA MAIRIE";"31750";"ESCALQUENS";"Pylône tubulaire"; 18.0;"ORANGE"
589071;1.55306;43.50889;"01° 33' 11.00'' Est, 43° 30' 32.00'' Nord";"31169";"LA GRAVE";;"31750";"ESCALQUENS";"Pylône autostable"; 24.0;"ORANGE"
589075;1.50278;43.55194;"01° 30' 10.00'' Est, 43° 33' 07.00'' Nord";"31254";"LA GRANDE BORDE";"R DES ARTS";"31670";"LABEGE";"Pylône tubulaire"; 21.0;"ORANGE"
589077;1.40361;43.50222;"01° 24' 13.00'' Est, 43° 30' 08.00'' Nord";"31259";;"CHEM DE LA BESTHOROLE STADE";"31120";"LACROIX-FALGARDE";"Pylône tubulaire"; 31.0;"ORANGE"
589079;1.51111;43.55222;"01° 30' 40.00'' Est, 43° 33' 08.00'' Nord";"31254";"POUCHALOU";"R MAX PLANK EN FACE DU 411";"31670";"LABEGE";"Pylône autostable"; 32.0;"RTE"
589081;1.48306;43.53500;"01° 28' 59.00'' Est, 43° 32' 06.00'' Nord";"31035";;"ALLÉE DES FONTAINES PYLONE EDF";"31320";"AUZEVILLE-TOLOSANE";"Pylône autostable"; 35.0;"RTE"
589083;1.51333;43.45972;"01° 30' 48.00'' Est, 43° 27' 35.00'' Nord";"31366";"BEL AIR";"D.24";"31450";"MONTBRUN-LAURAGAIS";"Château d'eau - réservoir"; 36.0;"Syndicat des eaux, Adduction"
589086;1.41333;43.50306;"01° 24' 48.00'' Est, 43° 30' 11.00'' Nord";"31259";"FALGARDE";;"31120";"LACROIX-FALGARDE";"Pylône autostable"; 31.6;"TDF"
589091;1.58889;43.43889;"01° 35' 20.00'' Est, 43° 26' 20.00'' Nord";"31004";"MONTALBIAU";;"31450";"AYGUESVIVES";"Pylône autostable"; 12.0;"SFR"
589093;1.61444;43.45056;"01° 36' 52.00'' Est, 43° 27' 02.00'' Nord";"31048";;"RTE DU STADE CROISEMENT DE L'AV DE LA PLAINE D'AMONT";"31450";"BAZIEGE";"Pylône autostable"; 25.0;"SFR"
589095;1.50722;43.51250;"01° 30' 26.00'' Est, 43° 30' 45.00'' Nord";"31113";;"28 AV BARTHÉLÉMY SALETTES RÉSIDENCE DE VIC";"31320";"CASTANET-TOLOSAN";"Bâtiment"; 18.4;"Copropriété, Syndic, SCI"
589801;1.43333;43.59389;"01° 26' 00.00'' Est, 43° 35' 38.00'' Nord";"31555";;"13,13 B  ALLÉES CHARLES DE FITTE";"31000";"TOULOUSE";"Immeuble"; 48.5;"Copropriété, Syndic, SCI"
591250;1.48750;43.56889;"01° 29' 15.00'' Est, 43° 34' 08.00'' Nord";"31555";;"9 R JEAN RODIER";"31000";"TOULOUSE";"Pylône autostable"; 30.0;"ORANGE"
593781;0.73500;43.11278;"00° 44' 06.00'' Est, 43° 06' 46.00'' Nord";"31483";;"R DES CAUSSADES CHÂTEAU D'EAU";"31800";"SAINT-GAUDENS";"Château d'eau - réservoir"; 37.0;"Syndicat des eaux, Adduction"
596205;1.40944;43.58000;"01° 24' 34.00'' Est, 43° 34' 48.00'' Nord";"31555";;"7, 8 PL DU MORVAN";"31000";"TOULOUSE";"Immeuble"; 61.0;"Société HLM"
597567;1.32111;43.51472;"01° 19' 16.00'' Est, 43° 30' 53.00'' Nord";"31203";;"AV DU CHÊNE VERT PL HOTEL DE VILLE";"31270";"FROUZINS";"Pylône autostable"; 24.0;"ORANGE"
598443;1.36417;43.59528;"01° 21' 51.00'' Est, 43° 35' 43.00'' Nord";"31149";;"CHEM DE TOURNEFEUILLE";"31770";"COLOMIERS";"Pylône autostable"; 33.0;"SFR"
599052;1.38778;43.57056;"01° 23' 16.00'' Est, 43° 34' 14.00'' Nord";"31555";;"12 R PAUL MESPLE";"31000";"TOULOUSE";"Immeuble"; 19.0;"Société HLM"
599927;1.52306;43.65417;"01° 31' 23.00'' Est, 43° 39' 15.00'' Nord";"31488";"LE CASSÉ";"PRÈS D.70";"31240";"SAINT-JEAN";"Pylône autostable"; 38.0;"SFR"
602192;1.19417;43.66639;"01° 11' 39.00'' Est, 43° 39' 59.00'' Nord";"31297";;"AV DE LA REPUBLIQUE HALLE DE LEVIGNAC";"31530";"LEVIGNAC";"Bâtiment"; 15.0;"Commune, communauté de commune"
605013;1.61694;43.38222;"01° 37' 01.00'' Est, 43° 22' 56.00'' Nord";"31396";"ABETSENC D'ENGASC";"D.11 - GARE DE PÉAGE DE NAILLOUX";"31560";"NAILLOUX";"Pylône tubulaire"; 25.0;"ORANGE"
607181;1.17944;43.50028;"01° 10' 46.00'' Est, 43° 30' 01.00'' Nord";"31499";"BORDENEUVE";"CHEM DES NOUZES";"31470";"SAINT-LYS";"Pylône autostable"; 22.0;"SFR"
607773;0.64917;43.28778;"00° 38' 57.00'' Est, 43° 17' 16.00'' Nord";"31080";"LES ORMEAUX";"AV DU COMMINGES";"31350";"BOULOGNE-SUR-GESSE";"Pylône autostable"; 25.0;"ORANGE Services Fixes"
612553;0.56889;43.09194;"00° 34' 08.00'' Est, 43° 05' 31.00'' Nord";"31390";;"RTE DU LAVET";"31210";"MONTREJEAU";"Pylône autostable"; 24.0;"ORANGE"
612761;1.51056;43.86167;"01° 30' 38.00'' Est, 43° 51' 42.00'' Nord";"31584";;"R DE LA CÔTE VC N°12";"31340";"VILLEMUR-SUR-TARN";"Pylône autostable"; 13.0;"ORANGE Services Fixes"
612806;0.64306;42.99694;"00° 38' 35.00'' Est, 42° 59' 49.00'' Nord";"31369";;"PIC DE MAGNOUET";"31510";"MONT-DE-GALIE";"Pylône autostable"; 30.0;"DDE"
614022;0.95722;43.09111;"00° 57' 26.00'' Est, 43° 05' 28.00'' Nord";"31315";"LES ESPIADES";"CHE DES ISLES";"31260";"MANE";"Pylône autostable"; 33.0;"ORANGE"
614071;1.48528;43.56333;"01° 29' 07.00'' Est, 43° 33' 48.00'' Nord";"31555";;"7, AV EDOUARD BELIN";"31000";"TOULOUSE";"Pylône tubulaire"; 25.5;"SFR"
614814;1.72472;43.40278;"01° 43' 29.00'' Est, 43° 24' 10.00'' Nord";"31582";"VENTE FARINE";"RELAIS HERTZIEN";"31290";"VILLEFRANCHE-DE-LAURAGAIS";"Pylône autostable"; 23.0;"ORANGE"
619923;1.63361;43.29361;"01° 38' 01.00'' Est, 43° 17' 37.00'' Nord";"31100";"MENJOUNE ET GALINAT";"D.43I - CHEM DE LASSÈRE";"31560";"CALMONT";"Pylône autostable"; 33.0;"ORANGE Services Fixes"
620251;1.58417;43.72556;"01° 35' 03.00'' Est, 43° 43' 32.00'' Nord";"31358";"CAMPAGNE";"RTE DE PAULHAC PRÈS CHATEAU D'EAU";"31380";"MONTASTRUC-LA-CONSEILLERE";"Pylône autostable"; 46.0;"BOUYGUES"
622504;1.08222;43.20583;"01° 04' 56.00'' Est, 43° 12' 21.00'' Nord";"31135";;"R JEANNE PENENT";"31220";"CAZERES";"Bâtiment"; 19.0;"ORANGE Services Fixes"
623046;1.40139;43.53250;"01° 24' 05.00'' Est, 43° 31' 57.00'' Nord";"31433";;"1 BD DE L'EUROPE CCIAL CARREFOUR";"31120";"PORTET-SUR-GARONNE";"Pylône autostable"; 32.0;"Société Privée SA"
623448;1.42667;43.60833;"01° 25' 36.00'' Est, 43° 36' 30.00'' Nord";"31555";;"80 ALLÉES DE BARCELONE";"31000";"TOULOUSE";"Immeuble"; 37.0;"Copropriété, Syndic, SCI"
625331;1.69556;43.66528;"01° 41' 44.00'' Est, 43° 39' 55.00'' Nord";"31573";"LES FENOUILLÉS";;"31590";"VERFEIL";"Pylône autostable"; 32.0;"ORANGE"
632898;1.04833;43.38222;"01° 02' 54.00'' Est, 43° 22' 56.00'' Nord";"31283";"LABATUT";"D83E";"31370";"LAUTIGNAC";"Pylône autostable"; 56.0;"TDF"
633035;1.44722;43.64528;"01° 26' 50.00'' Est, 43° 38' 43.00'' Nord";"31555";;"ALL PAUL HARRIS";"31200";"TOULOUSE";"Bâtiment"; 13.0;"Commune, communauté de commune"
633041;1.44389;43.60000;"01° 26' 38.00'' Est, 43° 36' 00.00'' Nord";"31555";;"1 PL ESQUIROL";"31000";"TOULOUSE";"Bâtiment"; 26.0;"Commune, communauté de commune"
636098;1.02139;43.20944;"01° 01' 17.00'' Est, 43° 12' 34.00'' Nord";"31324";;"RTE DE MONDAVEZAN";"31220";"MARTRES-TOLOSANE";"Pylône autostable"; 24.0;"ORANGE"
636117;1.40000;43.68861;"01° 23' 60.00'' Est, 43° 41' 19.00'' Nord";"31182";;"7 CHEM DES USINES";"31150";"FENOUILLET";"Pylône tubulaire"; 40.0;"BOUYGUES"
641279;1.52306;43.58861;"01° 31' 23.00'' Est, 43° 35' 19.00'' Nord";"31044";"RICHARD";"CHEM DE REBUDE";"31130";"BALMA";"Pylône autostable"; 15.0;"FPS TOWERS"
642939;1.64583;43.59056;"01° 38' 45.00'' Est, 43° 35' 26.00'' Nord";"31567";"LE VILLAGE";"D.59 - CHÂTEAU D'EAU DE VALLESVILLES";"31570";"VALLESVILLES";"Pylône autostable"; 30.0;"SFR"
651787;1.53139;43.80361;"01° 31' 53.00'' Est, 43° 48' 13.00'' Nord";"31311";;"CHEM DE LA BARTHE";"31340";"LA MAGDELAINE-SUR-TARN";"Pylône autostable"; 25.0;"SFR"
656751;0.87000;43.11944;"00° 52' 12.00'' Est, 43° 07' 10.00'' Nord";"31050";"OUARDERS";"RD 88A";"31360";"BEAUCHALOT";"Pylône autostable"; 56.0;"TDF"
659637;1.58139;43.35083;"01° 34' 53.00'' Est, 43° 21' 03.00'' Nord";"31002";"BOSC DES OULIEUX";"D.25";"31550";"AIGNES";"Pylône autostable"; 45.5;"TDF"
661161;1.51667;43.35778;"01° 30' 60.00'' Est, 43° 21' 28.00'' Nord";"31033";"SICARDOU";"CHEM DU CALMONTAIS A CÔTÉ DU RÉSERVOIR DE MAUVAISIN";"31190";"AUTERIVE";"Pylône autostable"; 33.0;"ORANGE"
662703;1.58417;43.72528;"01° 35' 03.00'' Est, 43° 43' 31.00'' Nord";"31358";"CAMPAGNE";"RTE DE PAULHAC";"31380";"MONTASTRUC-LA-CONSEILLERE";"Château d'eau - réservoir"; 46.0;"Syndicat des eaux, Adduction"
664914;1.48444;43.56361;"01° 29' 04.00'' Est, 43° 33' 49.00'' Nord";"31555";;"7 AV EDOUARD BELIN";"31000";"TOULOUSE";"Pylône tubulaire"; 25.0;"ORANGE"
665726;1.43806;43.31222;"01° 26' 17.00'' Est, 43° 18' 44.00'' Nord";"31330";"LE TARDA";"CHEM DE CARBONNEL";"31190";"MAURESSAC";"Pylône autostable"; 30.0;"SFR"
667154;1.49389;43.65194;"01° 29' 38.00'' Est, 43° 39' 07.00'' Nord";"31561";;"98 AV DE GAVARNIE";"31240";"L'UNION";"Pylône autostable"; 44.0;"Société Privée SA"
667510;1.42556;43.63917;"01° 25' 32.00'' Est, 43° 38' 21.00'' Nord";"31555";;"28 AVE DE FONDEYRE";"31000";"TOULOUSE";"Bâtiment"; 5.0;"Société Privée SA"
668060;1.32722;43.60639;"01° 19' 38.00'' Est, 43° 36' 23.00'' Nord";"31149";;"65 CHEM D'EN SIGAL CENTRAL TÉLÉPHONIQUE";"31770";"COLOMIERS";"Pylône autostable"; 38.0;"ORANGE Services Fixes"
668064;1.46139;43.61750;"01° 27' 41.00'' Est, 43° 37' 03.00'' Nord";"31555";;"108 CHEMIN DE PÉRIODE CPE JOLIMONT";"31000";"TOULOUSE";"Immeuble"; 30.0;"ORANGE Services Fixes"
668066;1.39694;43.60611;"01° 23' 49.00'' Est, 43° 36' 22.00'' Nord";"31555";;"20, IMP MAUBEC";"31000";"TOULOUSE";"Bâtiment"; 24.0;"ORANGE Services Fixes"
668068;1.37472;43.63528;"01° 22' 29.00'' Est, 43° 38' 07.00'' Nord";"31069";;"6 AV ALBERT DURAND";"31700";"BLAGNAC";"Immeuble"; 25.0;"ORANGE"
668074;1.42722;43.58139;"01° 25' 38.00'' Est, 43° 34' 53.00'' Nord";"31555";;"27, R DE LA DIGUE";"31000";"TOULOUSE";"Immeuble"; 44.0;"Copropriété, Syndic, SCI"
668076;1.43444;43.60583;"01° 26' 04.00'' Est, 43° 36' 21.00'' Nord";"31555";;"16 ALL DE BARCELONE CITE UNIVERSITAIRE";"31000";"TOULOUSE";"Immeuble"; 48.0;"Copropriété, Syndic, SCI"
668078;1.43361;43.62583;"01° 26' 01.00'' Est, 43° 37' 33.00'' Nord";"31555";;"CU - 165, AV DES MINIMES";"31000";"TOULOUSE";"Immeuble"; 40.0;"La Poste"
668080;1.31306;43.68944;"01° 18' 47.00'' Est, 43° 41' 22.00'' Nord";"31032";;"RTE DU CHÂTEAU D'EAU CHÂTEAU D'EAU";"31840";"AUSSONNE";"Château d'eau - réservoir"; 20.0;"Commune, communauté de commune"
668084;1.23556;43.61861;"01° 14' 08.00'' Est, 43° 37' 07.00'' Nord";"31088";;"AV. DU CHÂTEAU D'EAU CHÂTEAU D'EAU";"31490";"BRAX";"Château d'eau - réservoir"; 34.0;"Commune, communauté de commune"
668089;1.36278;43.59222;"01° 21' 46.00'' Est, 43° 35' 32.00'' Nord";"31555";;"48 CHEM DE TOURNEFEUILLE";"31000";"TOULOUSE";"Pylône tubulaire"; 19.0;"ORANGE"
668091;1.33889;43.59806;"01° 20' 20.00'' Est, 43° 35' 53.00'' Nord";"31149";;"10, CHEM DE COURNAUDIS CLINIQUE DES PYRÉNÉES";"31770";"COLOMIERS";"Immeuble"; 28.0;"Etablissement de soins"
668099;1.36000;43.61222;"01° 21' 36.00'' Est, 43° 36' 44.00'' Nord";"31555";;"316 RTE DE BAYONNE (N.124) ATELIERS AÉRONAUTIQUES AÉROSPATIALE BÂT. M.96";"31000";"TOULOUSE";"Immeuble"; 41.0;"Aviation Civile"
668114;1.42583;43.65528;"01° 25' 33.00'' Est, 43° 39' 19.00'' Nord";"31555";;"RUE DE LA CADENE";"31000";"TOULOUSE";"Pylône tubulaire"; 25.0;"ORANGE"
668116;1.40250;43.57639;"01° 24' 09.00'' Est, 43° 34' 35.00'' Nord";"31555";;"5 ALLÉE ANTONIO MACHADO UNIVERSITÉ DU MIRAIL";"31000";"TOULOUSE";"Immeuble"; 22.0;"Etat, Ministère"
668127;1.40833;43.60333;"01° 24' 30.00'' Est, 43° 36' 12.00'' Nord";"31555";;"256 AV. DE GRANDE BRETAGNE";"31000";"TOULOUSE";"Immeuble"; 19.0;"Copropriété, Syndic, SCI"
668130;1.43889;43.64639;"01° 26' 20.00'' Est, 43° 38' 47.00'' Nord";"31555";;"5, RENÉ NELLI";"31200";"TOULOUSE";"Bâtiment"; 28.0;"Société Privée SA"
668134;1.52111;43.56306;"01° 31' 16.00'' Est, 43° 33' 47.00'' Nord";"31506";;"1 AV DE LA MARQUEILLE";"31650";"SAINT-ORENS-DE-GAMEVILLE";"Pylône tubulaire"; 18.0;"ORANGE"
668136;1.43583;43.57056;"01° 26' 09.00'' Est, 43° 34' 14.00'' Nord";"31555";"PONTS D'EMPALOT";"CHEM DE LA LOGE - D.4D LA SNPE";"31000";"TOULOUSE";"Pylône autostable"; 25.0;"ORANGE"
668141;1.44583;43.60028;"01° 26' 45.00'' Est, 43° 36' 01.00'' Nord";"31555";;"30, R DE METZ";"31000";"TOULOUSE";"Immeuble"; 26.2;"Copropriété, Syndic, SCI"
668143;1.44861;43.59000;"01° 26' 55.00'' Est, 43° 35' 24.00'' Nord";"31555";;"60 R DES 36 PONTS";"31000";"TOULOUSE";"Immeuble"; 24.0;"Copropriété, Syndic, SCI"
668394;1.47750;43.59361;"01° 28' 39.00'' Est, 43° 35' 37.00'' Nord";"31555";;"44 CHEM DUROUX";"31000";"TOULOUSE";"Tour hertzienne"; 71.0;"ORANGE Services Fixes"
669169;1.18556;43.20500;"01° 11' 08.00'' Est, 43° 12' 18.00'' Nord";"31375";"LE GRAND BALÈS";"D.40";"31310";"MONTESQUIEU-VOLVESTRE";"Pylône autostable"; 36.0;"ORANGE"
669179;1.84333;43.52500;"01° 50' 36.00'' Est, 43° 31' 30.00'' Nord";"31026";"EN VIÉ";"CD 1 DE LECTOURE À SORÈZE";"31460";"AURIAC-SUR-VENDINELLE";"Pylône autostable"; 35.0;"SFR"
669750;1.38917;43.57028;"01° 23' 21.00'' Est, 43° 34' 13.00'' Nord";"31555";"BASSO CAMBO";"2 R CAMBOULIVES";"31000";"TOULOUSE";"Immeuble"; 23.0;"Société Privée SA"
669752;1.44500;43.67472;"01° 26' 42.00'' Est, 43° 40' 29.00'' Nord";"31282";;"10, IMP SAUDRUNE";"31140";"LAUNAGUET";"Mât"; 20.0;"ORANGE"
669758;1.45694;43.59722;"01° 27' 25.00'' Est, 43° 35' 50.00'' Nord";"31555";;"44 PORT ST SAUVEUR";"31000";"TOULOUSE";"Immeuble"; 28.0;"Société Privée SA"
669775;1.44583;43.60750;"01° 26' 45.00'' Est, 43° 36' 27.00'' Nord";"31555";;"54 B R ALSACE LORRAINE";"31000";"TOULOUSE";"Immeuble"; 28.0;"Copropriété, Syndic, SCI"
669779;1.42056;43.60167;"01° 25' 14.00'' Est, 43° 36' 06.00'' Nord";"31555";;"37, BD  JEAN BRUNHES";"31000";"TOULOUSE";"Immeuble"; 30.0;"Copropriété, Syndic, SCI"
669806;1.41722;43.58167;"01° 25' 02.00'' Est, 43° 34' 54.00'' Nord";"31555";;"75, R DE LA FAOURETTE";"31000";"TOULOUSE";"Immeuble"; 36.0;"Société HLM"
669811;1.44028;43.68639;"01° 26' 25.00'' Est, 43° 41' 11.00'' Nord";"31116";;"8 ALL DU TREZEGAT";"31780";"CASTELGINEST";"Immeuble"; 17.0;"Copropriété, Syndic, SCI"
669813;1.48389;43.57583;"01° 29' 02.00'' Est, 43° 34' 33.00'' Nord";"31555";;"1 IMP LAURENT GUERRERO";"31000";"TOULOUSE";"Immeuble"; 25.0;"Société HLM"
669820;1.33750;43.53694;"01° 20' 15.00'' Est, 43° 32' 13.00'' Nord";"31157";;"7 R DU VIVIER";"31270";"CUGNAUX";"Immeuble"; 28.0;"Copropriété, Syndic, SCI"
669822;1.44056;43.60167;"01° 26' 26.00'' Est, 43° 36' 06.00'' Nord";"31555";;"39, R PEYROLIÈRES";"31000";"TOULOUSE";"Immeuble"; 23.6;"Copropriété, Syndic, SCI"
669824;1.44222;43.60111;"01° 26' 32.00'' Est, 43° 36' 04.00'' Nord";"31555";;"19 PL DE LA BOURSE";"31000";"TOULOUSE";"Immeuble"; 24.0;"Particulier"
669828;1.47306;43.58500;"01° 28' 23.00'' Est, 43° 35' 06.00'' Nord";"31555";;"5, PL PERGOLA";"31000";"TOULOUSE";"Immeuble"; 17.0;"Société HLM"
669831;1.42278;43.55528;"01° 25' 22.00'' Est, 43° 33' 19.00'' Nord";"31555";;"267 RUE LEON JOULIN";"31000";"TOULOUSE";"Pylône autostable"; 25.0;"ORANGE"
669833;1.45167;43.59806;"01° 27' 06.00'' Est, 43° 35' 53.00'' Nord";"31555";;"2,R BIDA";"31000";"TOULOUSE";"Immeuble"; 28.0;"Copropriété, Syndic, SCI"
669849;1.41806;43.61667;"01° 25' 05.00'' Est, 43° 37' 00.00'' Nord";"31555";;"87, R JEAN GAYRAL EDF";"31000";"TOULOUSE";"Immeuble"; 39.0;"EDF GDF"
671894;1.23500;43.29389;"01° 14' 06.00'' Est, 43° 17' 38.00'' Nord";"31107";"MONTANE";;"31390";"CARBONNE";"Pylône autostable"; 17.0;"SFR"
672714;1.12500;43.28028;"01° 07' 30.00'' Est, 43° 16' 49.00'' Nord";"31476";"CD25";"CHÂTEAU D'EAU";"31430";"SAINT-ELIX-LE-CHATEAU";"Château d'eau - réservoir"; 52.0;"Syndicat des eaux, Adduction"
673231;1.26806;43.29417;"01° 16' 05.00'' Est, 43° 17' 39.00'' Nord";"31320";"FOND DE BRUGNAC";;"31390";"MARQUEFAVE";"Pylône autostable"; 42.0;"SFR"
673269;1.09000;43.21722;"01° 05' 24.00'' Est, 43° 13' 02.00'' Nord";"31135";"TUSSAU";;"31220";"CAZERES";"Château d'eau - réservoir"; 43.0;"Syndicat des eaux, Adduction"
673308;1.81056;43.35250;"01° 48' 38.00'' Est, 43° 21' 09.00'' Nord";"31037";;"A61 - AIRE DE SERVICE DE PORT LAURAGAIS";"31290";"AVIGNONET-LAURAGAIS";"Pylône autostable"; 40.0;"Sociétés d'Autoroutes"
673330;1.66806;43.29639;"01° 40' 05.00'' Est, 43° 17' 47.00'' Nord";"31220";"CABIROL";;"31560";"GIBEL";"Pylône autostable"; 42.6;"FPS TOWERS"
673336;1.06917;43.28472;"01° 04' 09.00'' Est, 43° 17' 05.00'' Nord";"31193";"L'AIRE";"CHEM DU CIMETIÈRE";"31430";"LE FOUSSERET";"Château d'eau - réservoir"; 53.0;"Syndicat des eaux, Adduction"
673431;0.89500;43.12500;"00° 53' 42.00'' Est, 43° 07' 30.00'' Nord";"31296";"BOUSQUET DE BARBE";;"31360";"LESTELLE-DE-SAINT-MARTORY";"Pylône autostable"; 30.0;"ORANGE"
673992;1.23528;43.21250;"01° 14' 07.00'' Est, 43° 12' 45.00'' Nord";"31375";;"D 40 PRES DU PYLONE TELECOMM";"31310";"MONTESQUIEU-VOLVESTRE";"Mât"; 10.0;"Commune, communauté de commune"
674067;1.47083;43.25833;"01° 28' 15.00'' Est, 43° 15' 30.00'' Nord";"31206";"CASTAGNOU";"CIMETIÈRE RTE DE CINTEGABELLE";"31550";"GAILLAC-TOULZA";"Pylône autostable"; 15.0;"SFR"
675441;1.39639;43.33056;"01° 23' 47.00'' Est, 43° 19' 50.00'' Nord";"31264";"LA TOULOUSIENNE";;"31190";"LAGRACE-DIEU";"Pylône autostable"; 25.0;"SFR"
675458;1.49194;43.57611;"01° 29' 31.00'' Est, 43° 34' 34.00'' Nord";"31555";;"2 IMP DE BITET BÂTIMENT B";"31000";"TOULOUSE";"Immeuble"; 17.6;"Société HLM"
677800;1.32944;43.57917;"01° 19' 46.00'' Est, 43° 34' 45.00'' Nord";"31557";;"83 - 85 ROUTE DE TARBES";"31170";"TOURNEFEUILLE";"Pylône tubulaire"; 14.0;"ORANGE"
679391;1.44444;43.56667;"01° 26' 40.00'' Est, 43° 34' 00.00'' Nord";"31555";;"CH DES COTEAUX DE PECH DAVID USINE EAU POTABLE";"31000";"TOULOUSE";"Pylône autostable"; 27.0;"EDF GDF"
679395;1.62972;43.34750;"01° 37' 47.00'' Est, 43° 20' 51.00'' Nord";"31396";"LABORIE";"D 19";"31560";"NAILLOUX";"Château d'eau - réservoir"; 36.0;"Syndicat des eaux, Adduction"
681468;1.23361;43.73917;"01° 14' 01.00'' Est, 43° 44' 21.00'' Nord";"31592";;"LE VILLAGE ÉGLISE";"31330";"LARRA";"Monument religieux"; 30.0;"Commune, communauté de commune"
681535;1.40667;43.57167;"01° 24' 24.00'' Est, 43° 34' 18.00'' Nord";"31555";;"10 CHEMEMENT ANDRÉ MESSAGER";"31000";"TOULOUSE";"Immeuble"; 48.0;"Société HLM"
681966;1.47167;43.64278;"01° 28' 18.00'' Est, 43° 38' 34.00'' Nord";"31555";"PONT DE L'HERS";;"31000";"TOULOUSE";"Pylône autostable"; 65.5;"Sociétés d'Autoroutes"
682062;1.60611;43.79667;"01° 36' 22.00'' Est, 43° 47' 48.00'' Nord";"31066";"LE CLOS";"245 R DE LA BERGÉRO";"31660";"BESSIERES";"Pylône autostable"; 21.5;"ORANGE Services Fixes"
685595;0.96139;43.16778;"00° 57' 41.00'' Est, 43° 10' 04.00'' Nord";"31084";"DANSONNET";"AVENUE DES PYRENÉES";"31360";"BOUSSENS";"Pylône tubulaire"; 12.7;"SFR"
686056;1.54028;43.74861;"01° 32' 25.00'' Est, 43° 44' 55.00'' Nord";"31407";"LACROUX";;"31380";"PAULHAC";"Pylône autostable"; 12.0;"SFR"
686167;1.43944;43.68306;"01° 26' 22.00'' Est, 43° 40' 59.00'' Nord";"31186";"LES QUATRES SAISONS";"GRAND FONBEAUZARD";"31140";"FONBEAUZARD";"Pylône autostable"; 42.0;"Commune, communauté de commune"
687280;1.53667;43.67667;"01° 32' 12.00'' Est, 43° 40' 36.00'' Nord";"31117";"PÉREILLE";"CHEM DU MOULIN BLANC";"31180";"CASTELMAUROU";"Château d'eau - réservoir"; 44.0;"Syndicat des eaux, Adduction"
688934;0.70722;43.13222;"00° 42' 26.00'' Est, 43° 07' 56.00'' Nord";"31483";"LA SERRE DE NÉROUS";;"31800";"SAINT-GAUDENS";"Pylône autostable"; 35.0;"Towercast"
690957;1.60667;43.80000;"01° 36' 24.00'' Est, 43° 47' 60.00'' Nord";"31066";;"29 PL DU SOUVENIR PL DE LA MAIRIE";"31660";"BESSIERES";"Bâtiment"; 8.0;"Commune, communauté de commune"
691525;1.55917;43.66583;"01° 33' 33.00'' Est, 43° 39' 57.00'' Nord";"31228";"CAMP DE LA REULLE";"CD 77";"31380";"GRAGNAGUE";"Pylône autostable"; 24.0;"ORANGE"
692665;1.55889;43.73139;"01° 33' 32.00'' Est, 43° 43' 53.00'' Nord";"31358";"EN FONTANEL";;"31380";"MONTASTRUC-LA-CONSEILLERE";"Pylône autostable"; 47.0;"EDF GDF"
694207;1.46306;43.61167;"01° 27' 47.00'' Est, 43° 36' 42.00'' Nord";"31555";;"AV CAMILLE FLAMMARION ANCIEN OBSERVATOIRE";"31500";"TOULOUSE";"Pylône haubané"; 18.0;"Commune, communauté de commune"
694360;1.54000;43.74861;"01° 32' 24.00'' Est, 43° 44' 55.00'' Nord";"31407";"LAPEYRE";"PRÉS D30";"31380";"PAULHAC";"Mât"; 15.0;"ORANGE"
703228;1.36639;43.63917;"01° 21' 59.00'' Est, 43° 38' 21.00'' Nord";"31069";;"AÉROPORT R DE BORDEBASSE";"31700";"BLAGNAC";"Pylône autostable"; 31.5;"BOUYGUES"
705419;1.40083;43.63917;"01° 24' 03.00'' Est, 43° 38' 21.00'' Nord";"31069";;"CHEM DES RAMIERS STADE DE BLAGNAC";"31700";"BLAGNAC";"Pylône tubulaire"; 25.0;"ORANGE"
706086;1.54750;43.48750;"01° 32' 51.00'' Est, 43° 29' 15.00'' Nord";"31161";"BARDOU";"AUTOROUTE A61  PYLÔNE ASF";"31450";"DEYME";"Pylône autostable"; 40.0;"Sociétés d'Autoroutes"
706291;1.47278;43.64056;"01° 28' 22.00'' Est, 43° 38' 26.00'' Nord";"31555";;"2, IMP BREMOND CIGT";"31000";"TOULOUSE";"Bâtiment"; 10.0;"DDE"
709925;1.38194;43.57389;"01° 22' 55.00'' Est, 43° 34' 26.00'' Nord";"31555";;"4 R CLAUDE MARIE PERROUD";"31000";"TOULOUSE";"Bâtiment"; 18.0;"EDF GDF"
710701;1.39750;43.69944;"01° 23' 51.00'' Est, 43° 41' 58.00'' Nord";"31182";;"25 R DES USINES";"31150";"FENOUILLET";"Bâtiment"; 10.0;"Société Privée SA"
711571;1.47444;43.58694;"01° 28' 28.00'' Est, 43° 35' 13.00'' Nord";"31555";;"213 AV JEAN RIEUX";"31400";"TOULOUSE";"Bâtiment"; 13.0;"Particulier"
711718;1.19806;43.26500;"01° 11' 53.00'' Est, 43° 15' 54.00'' Nord";"31455";"LE MARCHANDEAU";;"31310";"RIEUX";"Pylône autostable"; 34.0;"BOUYGUES"
711941;1.44139;43.67250;"01° 26' 29.00'' Est, 43° 40' 21.00'' Nord";"31282";"PIVOULET";"IMP. DU PIVOULET";"31140";"LAUNAGUET";"Pylône autostable"; 28.0;"TDF"
712386;1.74778;43.36833;"01° 44' 52.00'' Est, 43° 22' 06.00'' Nord";"31037";"CASSAN";"LES CRÊTES";"31290";"AVIGNONET-LAURAGAIS";"Pylône autostable"; 50.0;"Sociétés d'Autoroutes"
713207;1.32722;43.58944;"01° 19' 38.00'' Est, 43° 35' 22.00'' Nord";"31557";"BEAUFORT";"CHEM DE PANEGANS";"31170";"TOURNEFEUILLE";"Château d'eau - réservoir"; 37.0;"Syndicat des eaux, Adduction"
714106;1.46722;43.60583;"01° 28' 02.00'' Est, 43° 36' 21.00'' Nord";"31555";;"60 R D'ASSALIT";"31000";"TOULOUSE";"Pylône autostable"; 20.0;"Société Privée SA"
715431;1.48222;43.25194;"01° 28' 56.00'' Est, 43° 15' 07.00'' Nord";"31206";"BELESTA";;"31550";"GAILLAC-TOULZA";"Pylône autostable"; 20.0;"ORANGE"
717002;0.85056;43.37611;"00° 51' 02.00'' Est, 43° 22' 34.00'' Nord";"31239";"EN RATIO D'EN BAS";;"31230";"L'ISLE-EN-DODON";"Pylône autostable"; 30.0;"SFR"
717039;1.44722;43.61333;"01° 26' 50.00'' Est, 43° 36' 48.00'' Nord";"31555";;"21 R ST HENRI";"31000";"TOULOUSE";"Bâtiment"; 19.0;"Particulier"
717731;1.30528;43.61222;"01° 18' 19.00'' Est, 43° 36' 44.00'' Nord";"31149";;"8 AV AMPÈRE";"31770";"COLOMIERS";"Pylône tubulaire"; 24.0;"Sociétés d'Autoroutes"
717747;1.30278;43.63611;"01° 18' 10.00'' Est, 43° 38' 10.00'' Nord";"31150";"CALAOUÉ";"145 RTE DE PIBRAC";"31700";"CORNEBARRIEU";"Pylône autostable"; 25.0;"SFR"
719061;0.97028;43.09917;"00° 58' 13.00'' Est, 43° 05' 57.00'' Nord";"31523";"MOUNSET";;"31260";"SALIES-DU-SALAT";"Pylône autostable"; 31.0;"TDF"
719713;1.58556;43.68722;"01° 35' 08.00'' Est, 43° 41' 14.00'' Nord";"31228";"LA MENJOUNO";"AV DES PLATANES PYLÔNE RTE N°534";"31380";"GRAGNAGUE";"Pylône autostable"; 48.0;"RTE"
721354;1.57250;43.46861;"01° 34' 21.00'' Est, 43° 28' 07.00'' Nord";"31381";"AU PONT";"ROUTE DE MONTLAUR";"31450";"MONTGISCARD";"Pylône autostable"; 30.0;"ORANGE"
722758;1.42056;43.60111;"01° 25' 14.00'' Est, 43° 36' 04.00'' Nord";"31555";;"47 R JEAN BRUNHES RÉSIDENCE LE LOGIS DES FONTAINES";"31000";"TOULOUSE";"Immeuble"; 18.1;"Copropriété, Syndic, SCI"
722787;1.57083;43.40417;"01° 34' 15.00'' Est, 43° 24' 15.00'' Nord";"31495";"RIGAILLET";"AU PIED DU RÉSERVOIR";"31560";"SAINT-LEON";"Pylône autostable"; 26.5;"SFR"
725445;0.47667;42.78861;"00° 28' 36.00'' Est, 42° 47' 19.00'' Nord";"31221";"LES AGUDES VILLAGE";"IMM LE SARRAT";"31110";"GOUAUX-DE-LARBOUST";"Immeuble"; 35.0;"Copropriété, Syndic, SCI"
725488;1.62528;43.41333;"01° 37' 31.00'' Est, 43° 24' 48.00'' Nord";"31374";"LE MOULIN";"D.11";"31450";"MONTESQUIEU-LAURAGAIS";"Château d'eau - réservoir"; 22.0;"Commune, communauté de commune"
725921;0.89028;43.22333;"00° 53' 25.00'' Est, 43° 13' 24.00'' Nord";"31083";"LES EXPLÉCHAUX D'EN HAUT";"LE CAP D'ARMAS";"31420";"BOUSSAN";"Pylône autostable"; 17.0;"SFR"
727648;1.42889;43.60639;"01° 25' 44.00'' Est, 43° 36' 23.00'' Nord";"31555";;"39 ALLÉE DE BRIENNE";"31000";"TOULOUSE";"Immeuble"; 35.0;"Copropriété, Syndic, SCI"
729106;0.97639;43.19222;"00° 58' 35.00'' Est, 43° 11' 32.00'' Nord";"31324";"L'HOSPITAL-HAUT CAMPIGNAS";"V COM. N 5";"31220";"MARTRES-TOLOSANE";"Pylône autostable"; 38.3;"BOUYGUES"
729166;1.36972;43.64444;"01° 22' 11.00'' Est, 43° 38' 40.00'' Nord";"31069";;"2 ALLÉE EMILE ZOLA";"31700";"BLAGNAC";"Bâtiment"; 15.5;"Société Privée SA"
729783;1.19889;43.55917;"01° 11' 56.00'' Est, 43° 33' 33.00'' Nord";"31188";;"33 ROUTE DE SALVETAT";"31470";"FONTENILLES";"Pylône autostable"; 25.0;"ORANGE"
730204;1.47806;43.74028;"01° 28' 41.00'' Est, 43° 44' 25.00'' Nord";"31252";"LE NOT";;"31620";"LABASTIDE-SAINT-SERNIN";"Pylône autostable"; 31.0;"SFR"
730971;1.88361;43.44056;"01° 53' 01.00'' Est, 43° 26' 26.00'' Nord";"31478";"LES FOURCHES";;"31540";"SAINT-FELIX-LAURAGAIS";"Pylône autostable"; 26.1;"SFR"
731129;0.69889;42.90778;"00° 41' 56.00'' Est, 42° 54' 28.00'' Nord";"31298";"L'ARESSEC";"D 44 E";"31440";"LEZ";"Pylône haubané"; 20.0;"DDE"
731386;1.32639;43.42250;"01° 19' 35.00'' Est, 43° 25' 21.00'' Nord";"31395";"LA FERRANE";"CHEM DU JOULIOU RÉSERVOIR D'EAU";"31600";"MURET";"Château d'eau - réservoir"; 25.0;"Commune, communauté de commune"
731795;0.91917;43.00750;"00° 55' 09.00'' Est, 43° 00' 27.00'' Nord";"31191";"MONT ARAGNOUÉ";"STATION TDF";"31160";"FOUGARON";"Pylône autostable"; 33.0;"TDF"
733609;1.48722;43.65750;"01° 29' 14.00'' Est, 43° 39' 27.00'' Nord";"31561";;"9 AV DES PYRENEES";"31240";"L'UNION";"Pylône tubulaire"; 33.9;"BOUYGUES"
733623;1.11861;43.41306;"01° 07' 07.00'' Est, 43° 24' 47.00'' Nord";"31454";;"PL DE L'EGLISE";"31370";"RIEUMES";"Monument religieux"; 39.2;"Commune, communauté de commune"
734059;1.45972;43.64083;"01° 27' 35.00'' Est, 43° 38' 27.00'' Nord";"31555";;"28 R HENRI EBELOT";"31200";"TOULOUSE";"Immeuble"; 23.0;"Société HLM"
734676;0.60667;42.78417;"00° 36' 24.00'' Est, 42° 47' 03.00'' Nord";"31500";"LA HONT";;"31110";"SAINT-MAMET";"Château d'eau - réservoir"; 30.0;"Commune, communauté de commune"
735103;1.38333;43.72028;"01° 23' 00.00'' Est, 43° 43' 13.00'' Nord";"31293";;"15 RTE DE PARIS RN 20 LA PEYRAILLES";"31150";"LESPINASSE";"Bâtiment"; 6.0;"Particulier"
736869;1.70500;43.60194;"01° 42' 18.00'' Est, 43° 36' 07.00'' Nord";"31082";"EN TROUSEILLÉ";;"31570";"BOURG-SAINT-BERNARD";"Pylône autostable"; 12.0;"SFR"
737028;1.90333;43.49056;"01° 54' 12.00'' Est, 43° 29' 26.00'' Nord";"31491";;"POSTE DE ST JULIA";"31540";"SAINT-JULIA";"Bâtiment"; 3.0;"Syndicat des eaux, Adduction"
737032;1.88389;43.44028;"01° 53' 02.00'' Est, 43° 26' 25.00'' Nord";"31478";;"EN RIBES PROCHE RESERVOIR POSTE DES FOURCHES";"31540";"SAINT-FELIX-LAURAGAIS";"Bâtiment"; 7.0;"Syndicat des eaux, Adduction"
737034;1.89194;43.44972;"01° 53' 31.00'' Est, 43° 26' 59.00'' Nord";"31478";;"LES TROIS MOULINS D20/POSTE DE ST FELIX COTE";"31540";"SAINT-FELIX-LAURAGAIS";"Bâtiment"; 3.0;"Syndicat des eaux, Adduction"
737036;1.96417;43.42222;"01° 57' 51.00'' Est, 43° 25' 20.00'' Nord";"31569";;"POSTE DU MILIEU STATION DE RELEVAGE PRÈS D 126";"31250";"VAUDREUILLE";"Bâtiment"; 4.0;"Syndicat des eaux, Adduction"
737038;2.01639;43.43306;"02° 00' 59.00'' Est, 43° 25' 59.00'' Nord";"31569";"EN SALVAN";"POSTE DU CENTRE AÉRÉ";"31250";"VAUDREUILLE";"Bâtiment"; 4.0;"Syndicat des eaux, Adduction"
739173;1.83472;43.56472;"01° 50' 05.00'' Est, 43° 33' 53.00'' Nord";"31179";"EN CALVI";"LE FAGET";"31460";"LE FAGET";"Château d'eau - réservoir"; 25.0;"Syndicat des eaux, Adduction"
740553;1.88889;43.44611;"01° 53' 20.00'' Est, 43° 26' 46.00'' Nord";"31478";"LES MOLES";"D67";"31540";"SAINT-FELIX-LAURAGAIS";"Bâtiment"; 4.0;"Syndicat des eaux, Adduction"
741332;1.48194;43.59778;"01° 28' 55.00'' Est, 43° 35' 52.00'' Nord";"31555";;"173 - 175 AV DE CASTRES";"31000";"TOULOUSE";"Immeuble"; 14.3;"Copropriété, Syndic, SCI"
742937;1.51333;43.66889;"01° 30' 48.00'' Est, 43° 40' 08.00'' Nord";"31462";;"IMP DU CLOS DU LOUP";"31180";"ROUFFIAC-TOLOSAN";"Pylône tubulaire"; 24.0;"ORANGE"
743049;1.36833;43.21917;"01° 22' 06.00'' Est, 43° 13' 09.00'' Nord";"31326";"THOMASS";;"31310";"MASSABRAC";"Pylône autostable"; 24.0;"ORANGE"
744883;1.38278;43.62361;"01° 22' 58.00'' Est, 43° 37' 25.00'' Nord";"31069";;"AV GABRIEL CLERC BAT B29";"31700";"BLAGNAC";"Bâtiment"; 29.0;"Société Privée SA"
744981;1.38806;43.58972;"01° 23' 17.00'' Est, 43° 35' 23.00'' Nord";"31555";;"10 R JEAN D'ALEMBERT";"31000";"TOULOUSE";"Pylône autostable"; 12.0;"Société Privée SA"
745257;1.47306;43.61083;"01° 28' 23.00'' Est, 43° 36' 39.00'' Nord";"31555";;"45 R DE SOUPETARD";"31000";"TOULOUSE";"Immeuble"; 22.0;"ORANGE Services Fixes"
745269;1.39028;43.61056;"01° 23' 25.00'' Est, 43° 36' 38.00'' Nord";"31555";;"CHEM DE LA FLAMBÈRE";"31000";"TOULOUSE";"Pylône autostable"; 22.0;"SFR"
746161;0.72972;43.11639;"00° 43' 47.00'' Est, 43° 06' 59.00'' Nord";"31483";;"23 R OLIVIER DE SERRES RÉSIDENCE VAUBAN";"31800";"SAINT-GAUDENS";"Immeuble"; 19.0;"Copropriété, Syndic, SCI"
746822;0.81167;43.01139;"00° 48' 42.00'' Est, 43° 00' 41.00'' Nord";"31020";"PALE";"BELLEVUE";"31160";"ASPET";"Pylône autostable"; 20.0;"SFR"
746828;0.62583;43.28333;"00° 37' 33.00'' Est, 43° 16' 60.00'' Nord";"31080";"CASQUOILLET";;"31350";"BOULOGNE-SUR-GESSE";"Pylône autostable"; 39.0;"FPS TOWERS"
746885;0.56083;43.08417;"00° 33' 39.00'' Est, 43° 05' 03.00'' Nord";"31390";;"AV DE MAZERES STADE MUNICIPAL";"31210";"MONTREJEAU";"Pylône autostable"; 30.0;"SFR"
748935;1.40806;43.58250;"01° 24' 29.00'' Est, 43° 34' 57.00'' Nord";"31555";;"1 R DE LA MANCHE";"31000";"TOULOUSE";"Immeuble"; 77.0;"Société Privée SA"
749492;1.36778;43.66639;"01° 22' 04.00'' Est, 43° 39' 59.00'' Nord";"31056";;"219 R DE JUNCASSA";"31700";"BEAUZELLE";"Pylône autostable"; 34.0;"ORANGE"
752004;1.50694;43.66222;"01° 30' 25.00'' Est, 43° 39' 44.00'' Nord";"31488";;"CHEM DE BELBEZE COMPLEXE SPORTIF ALEX JANY";"31240";"SAINT-JEAN";"Pylône autostable"; 25.0;"Commune, communauté de commune"
752215;1.42583;43.83056;"01° 25' 33.00'' Est, 43° 49' 50.00'' Nord";"31581";"LA PLAINE";"RTE DE FRONTON - D.29";"31620";"VILLAUDRIC";"Château d'eau - réservoir"; 21.6;"Commune, communauté de commune"
754436;1.44611;43.60833;"01° 26' 46.00'' Est, 43° 36' 30.00'' Nord";"31555";;"40 BVD DE STRASBOURG";"31000";"TOULOUSE";"Immeuble"; 17.0;"Particulier"
759335;1.36111;43.55861;"01° 21' 40.00'' Est, 43° 33' 31.00'' Nord";"31157";;"293 CHEM DE TUCAUT  LOGIPÔLE - ZI DE LA GLACIÈRE";"31242";"CUGNAUX";"Bâtiment"; 17.0;"Société Privée SA"
759337;1.46222;43.56500;"01° 27' 44.00'' Est, 43° 33' 54.00'' Nord";"31555";;"3 CHEM DES MARAICHERS HÔPITAUX DE TOULOUSE ODONTOLOGIE -";"31400";"TOULOUSE";"Bâtiment"; 12.0;"Société Privée SA"
759339;1.39944;43.61611;"01° 23' 58.00'' Est, 43° 36' 58.00'' Nord";"31555";;"224 AV  DE CASSELARDIT";"31000";"TOULOUSE";"Bâtiment"; 15.0;"Société Privée SA"
760793;1.53278;43.77083;"01° 31' 58.00'' Est, 43° 46' 15.00'' Nord";"31383";"LE BARRI";"EGLISE";"31380";"MONTJOIRE";"Monument religieux"; 34.8;"Commune, communauté de commune"
762323;0.53250;43.09917;"00° 31' 57.00'' Est, 43° 05' 57.00'' Nord";"31158";"HOURG";"D.34D CHÂTEAU D'EAU";"31210";"CUGURON";"Château d'eau - réservoir"; 39.5;"Syndicat des eaux, Adduction"
764524;1.49500;43.54472;"01° 29' 42.00'' Est, 43° 32' 41.00'' Nord";"31446";;"FERME DE CINQUANTE";"31520";"RAMONVILLE-SAINT-AGNE";"Bâtiment"; 10.0;"Commune, communauté de commune"
764738;1.41611;43.62194;"01° 24' 58.00'' Est, 43° 37' 19.00'' Nord";"31555";;"114, R DES TROÈNES STADE DE RUGBY ERNEST WALLON";"31000";"TOULOUSE";"Bâtiment"; 17.0;"Association"
765080;1.45306;43.60750;"01° 27' 11.00'' Est, 43° 36' 27.00'' Nord";"31555";;"78 ALLÉES JEAN JAURES IMM AGF";"31000";"TOULOUSE";"Bâtiment"; 34.0;"Société Privée SA"
765786;1.43556;43.60944;"01° 26' 08.00'' Est, 43° 36' 34.00'' Nord";"31555";;"BD   ARMAND. DUPORTAL CITÉ ADMINISTRATIVE BAT. G";"31000";"TOULOUSE";"Bâtiment"; 52.0;"Société Privée SA"
767211;1.47972;43.55167;"01° 28' 47.00'' Est, 43° 33' 06.00'' Nord";"31446";;"20 R DES FRERES LUMIERES";"31520";"RAMONVILLE-SAINT-AGNE";"Bâtiment"; 15.0;"Commune, communauté de commune"
769162;1.27000;43.56222;"01° 16' 12.00'' Est, 43° 33' 44.00'' Nord";"31424";;"R DES LANDES PARC DE ROLLER";"31830";"PLAISANCE-DU-TOUCH";"Immeuble"; 5.0;"Commune, communauté de commune"
770774;1.36611;43.55972;"01° 21' 58.00'' Est, 43° 33' 35.00'' Nord";"31555";;"298 CHEM DE TUCAUT LES TENNIS DE DIANE";"31000";"TOULOUSE";"Pylône autostable"; 21.0;"SFR"
771587;1.35389;43.60556;"01° 21' 14.00'' Est, 43° 36' 20.00'' Nord";"31555";;"4 R CAULET";"31000";"TOULOUSE";"Pylône tubulaire"; 21.0;"ORANGE"
774130;0.59472;42.79556;"00° 35' 41.00'' Est, 42° 47' 44.00'' Nord";"31042";;"5 AV DU MARECHAL FOCH";"31110";"BAGNERES-DE-LUCHON";"Bâtiment"; 10.0;"Société Privée SA"
774387;1.44389;43.60056;"01° 26' 38.00'' Est, 43° 36' 02.00'' Nord";"31555";;"1 PL ESQUIROL";"31000";"TOULOUSE";"Immeuble"; 25.0;"Société Privée SA"
775084;0.60306;43.04417;"00° 36' 11.00'' Est, 43° 02' 39.00'' Nord";"31255";;"CAP DE LA COSTE";"31510";"LABROQUERE";"Pylône autostable"; 28.0;"TDF"
776340;1.40111;43.52611;"01° 24' 04.00'' Est, 43° 31' 34.00'' Nord";"31433";;"1 AV DE LA GARE";"31120";"PORTET-SUR-GARONNE";"Pylône autostable"; 25.0;"ORANGE"
776360;1.47806;43.58833;"01° 28' 41.00'' Est, 43° 35' 18.00'' Nord";"31555";;"66, R EDOUARD LARTET";"31000";"TOULOUSE";"Château d'eau - réservoir"; 32.0;"Syndicat des eaux, Adduction"
776362;1.44639;43.62167;"01° 26' 47.00'' Est, 43° 37' 18.00'' Nord";"31555";;"70 R PIERRE CAZENEUVE SNCF";"31000";"TOULOUSE";"Pylône autostable"; 25.0;"ORANGE"
776364;1.42944;43.61028;"01° 25' 46.00'' Est, 43° 36' 37.00'' Nord";"31555";;"16,R SEBASTOPOL";"31000";"TOULOUSE";"Immeuble"; 23.0;"EDF GDF"
776366;1.43806;43.61222;"01° 26' 17.00'' Est, 43° 36' 44.00'' Nord";"31555";;"17, AV HONORÉ DE SERRES";"31000";"TOULOUSE";"Immeuble"; 38.0;"Copropriété, Syndic, SCI"
776368;1.48722;43.62500;"01° 29' 14.00'' Est, 43° 37' 30.00'' Nord";"31044";;"12, R DES FRÉRES PEUGEOT";"31130";"BALMA";"Pylône tubulaire"; 20.0;"ORANGE"
776370;1.50361;43.56972;"01° 30' 13.00'' Est, 43° 34' 11.00'' Nord";"31555";"LE CHÊNE VERT";"203 RTE DE REVEL - D.2 PAXOTEL";"31000";"TOULOUSE";"Pylône tubulaire"; 16.0;"ORANGE"
776372;1.44556;43.58389;"01° 26' 44.00'' Est, 43° 35' 02.00'' Nord";"31555";;"50 BLD DES RECOLLETS";"31000";"TOULOUSE";"Immeuble"; 33.0;"Copropriété, Syndic, SCI"
776374;1.39972;43.53444;"01° 23' 59.00'' Est, 43° 32' 04.00'' Nord";"31433";;"BD DE L'EUROPE CARREFOUR";"31120";"PORTET-SUR-GARONNE";"Pylône autostable"; 30.0;"Société Privée SA"
776376;1.50639;43.59583;"01° 30' 23.00'' Est, 43° 35' 45.00'' Nord";"31044";;"1 ALLÉE PAUL GAUGUIN";"31130";"BALMA";"Immeuble"; 27.0;"Société HLM"
776378;1.42250;43.58944;"01° 25' 21.00'' Est, 43° 35' 22.00'' Nord";"31555";;"58 BD DÉODAT DE SÉVERAC";"31000";"TOULOUSE";"Immeuble"; 20.0;"Copropriété, Syndic, SCI"
776380;1.50694;43.61556;"01° 30' 25.00'' Est, 43° 36' 56.00'' Nord";"31044";;"30 CHEM DES PINS";"31130";"BALMA";"Pylône tubulaire"; 18.0;"ORANGE"
776382;1.43333;43.63500;"01° 26' 00.00'' Est, 43° 38' 06.00'' Nord";"31555";;"1-2 PL DES PAPYRUS CHEM DES CYTISES";"31000";"TOULOUSE";"Immeuble"; 20.0;"Société HLM"
776384;1.38306;43.59972;"01° 22' 59.00'' Est, 43° 35' 59.00'' Nord";"31555";;"23 CHEM DES CAPELLES ECOLE NATIONALE VÉTÉRINAIRE";"31000";"TOULOUSE";"Bâtiment"; 24.0;"Etat, Ministère"
776386;1.44444;43.61028;"01° 26' 40.00'' Est, 43° 36' 37.00'' Nord";"31555";;"3 R ROQUELAINE";"31000";"TOULOUSE";"Immeuble"; 25.0;"Etat, Ministère"
776388;1.45083;43.59472;"01° 27' 03.00'' Est, 43° 35' 41.00'' Nord";"31555";;"39 ALLÉES JULES GUESDES";"31000";"TOULOUSE";"Immeuble"; 18.0;"Commune, communauté de commune"
776390;1.46611;43.61361;"01° 27' 58.00'' Est, 43° 36' 49.00'' Nord";"31555";;"16, AV GUILLAUMET";"31000";"TOULOUSE";"Immeuble"; 18.0;"Société Privée SA"
776392;1.43472;43.59833;"01° 26' 05.00'' Est, 43° 35' 54.00'' Nord";"31555";;"11 PL OLIVIER";"31000";"TOULOUSE";"Immeuble"; 26.0;"Particulier"
776394;1.40639;43.59444;"01° 24' 23.00'' Est, 43° 35' 40.00'' Nord";"31555";;"119, IMP ROQUEMAUREL RES DE L'HIPPODROME";"31000";"TOULOUSE";"Immeuble"; 40.0;"Copropriété, Syndic, SCI"
776396;1.43306;43.61361;"01° 25' 59.00'' Est, 43° 36' 49.00'' Nord";"31555";;"22 BD DE LA MARQUETTE";"31000";"TOULOUSE";"Immeuble"; 41.0;"EDF GDF"
776398;1.45694;43.60611;"01° 27' 25.00'' Est, 43° 36' 22.00'' Nord";"31555";;"36, BD  DE LA GARE";"31000";"TOULOUSE";"Immeuble"; 37.0;"Société HLM"
776400;1.42778;43.61583;"01° 25' 40.00'' Est, 43° 36' 57.00'' Nord";"31555";;"57, CHEM DU SANG DE SERP BÂT E50";"31000";"TOULOUSE";"Bâtiment"; 21.0;"Société Privée SA"
776402;1.42167;43.57694;"01° 25' 18.00'' Est, 43° 34' 37.00'' Nord";"31555";"LA POINTE";"365 RTE DE SEYSSES";"31000";"TOULOUSE";"Immeuble"; 22.0;"Copropriété, Syndic, SCI"
776404;1.40194;43.54833;"01° 24' 07.00'' Est, 43° 32' 54.00'' Nord";"31555";;"5, R DOULADOURE";"31000";"TOULOUSE";"Pylône tubulaire"; 21.0;"ORANGE"
776414;1.38000;43.56111;"01° 22' 48.00'' Est, 43° 33' 40.00'' Nord";"31555";"STADE MARCEL SARCOS";"CHEM DE LIFFARD";"31000";"TOULOUSE";"Pylône tubulaire"; 19.0;"ORANGE"
776416;1.41972;43.59639;"01° 25' 11.00'' Est, 43° 35' 47.00'' Nord";"31555";;"58 BD  KOENINGS";"31000";"TOULOUSE";"Immeuble"; 37.0;"Copropriété, Syndic, SCI"
776451;1.45361;43.58500;"01° 27' 13.00'' Est, 43° 35' 06.00'' Nord";"31555";;"6, PL H.RUSSEL GROUPE AG2R";"31000";"TOULOUSE";"Immeuble"; 22.0;"Société Privée SA"
776453;1.63167;43.60472;"01° 37' 54.00'' Est, 43° 36' 17.00'' Nord";"31567";"EN FOURTOU";"CHEM DÉPARTEMENTAL D59";"31570";"VALLESVILLES";"Pylône autostable"; 30.0;"ORANGE"
776461;0.69667;43.34056;"00° 41' 48.00'' Est, 43° 20' 26.00'' Nord";"31307";"LES ARRIOUS";"CHEM DE L'ARNAYS";"31350";"LUNAX";"Pylône autostable"; 33.0;"ORANGE"
776463;1.39806;43.69722;"01° 23' 53.00'' Est, 43° 41' 50.00'' Nord";"31182";;"RUE DES USINES ZI DU TERROIR";"31150";"FENOUILLET";"Pylône autostable"; 31.0;"ORANGE"
776469;1.45694;43.59333;"01° 27' 25.00'' Est, 43° 35' 36.00'' Nord";"31555";;"13 BD  MONPLAISIR RÉSIDENCE MONPLAISIR";"31000";"TOULOUSE";"Bâtiment"; 39.0;"Copropriété, Syndic, SCI"
776471;1.49278;43.58528;"01° 29' 34.00'' Est, 43° 35' 07.00'' Nord";"31555";;"AV JEAN GONORD CITÉ DE L'ESPACE";"31000";"TOULOUSE";"Bâtiment"; 50.0;"Commune, communauté de commune"
776475;1.46111;43.59694;"01° 27' 40.00'' Est, 43° 35' 49.00'' Nord";"31555";;"39 AV JEAN RIEUX";"31000";"TOULOUSE";"Immeuble"; 23.0;"Société HLM"
777190;1.36639;43.55472;"01° 21' 59.00'' Est, 43° 33' 17.00'' Nord";"31157";;"10 R ARISTIDE BERGES";"31270";"CUGNAUX";"Pylône tubulaire"; 25.0;"ORANGE"
777716;1.44333;43.60167;"01° 26' 36.00'' Est, 43° 36' 06.00'' Nord";"31555";;"18, R TRIPIÈRE";"31000";"TOULOUSE";"Immeuble"; 19.0;"Particulier"
777723;1.45611;43.60278;"01° 27' 22.00'' Est, 43° 36' 10.00'' Nord";"31555";;"8 BD  DU PR ESCANDE R CAMICHEL";"31000";"TOULOUSE";"Immeuble"; 30.0;"ORANGE Services Fixes"
777734;1.44472;43.60500;"01° 26' 41.00'' Est, 43° 36' 18.00'' Nord";"31555";;"R LAFAYETTE ADM : 6 R KENNEDY HÔTEL DES POSTES";"31000";"TOULOUSE";"Bâtiment"; 30.0;"ORANGE Services Fixes"
777739;1.35111;43.55944;"01° 21' 04.00'' Est, 43° 33' 34.00'' Nord";"31557";;"CHEM DU CANAL ADM : 2, R DU MÉDOC";"31170";"TOURNEFEUILLE";"Pylône autostable"; 20.0;"ORANGE"
777741;1.46444;43.63194;"01° 27' 52.00'' Est, 43° 37' 55.00'' Nord";"31555";;"R D'AVRANCHES R MOTO-VIDAL STADE CAZAL LAPUJADE";"31000";"TOULOUSE";"Pylône tubulaire"; 25.0;"ORANGE"
777746;1.36778;43.51278;"01° 22' 04.00'' Est, 43° 30' 46.00'' Nord";"31458";;"ALLÉE DE FRAIXINET";"31120";"ROQUES";"Château d'eau - réservoir"; 40.0;"Syndicat des eaux, Adduction"
777748;1.45111;43.57722;"01° 27' 04.00'' Est, 43° 34' 38.00'' Nord";"31555";;"66 AV JULES JULIEN";"31000";"TOULOUSE";"Immeuble"; 31.0;"Copropriété, Syndic, SCI"
777754;1.44472;43.59778;"01° 26' 41.00'' Est, 43° 35' 52.00'' Nord";"31555";;"CU 1, PL DES CARMES";"31000";"TOULOUSE";"Bâtiment"; 36.0;"Commune, communauté de commune"
777756;1.31222;43.57194;"01° 18' 44.00'' Est, 43° 34' 19.00'' Nord";"31424";;"39, RTE DE TOULOUSE";"31830";"PLAISANCE-DU-TOUCH";"Pylône autostable"; 18.0;"ORANGE"
