Numéro du support;Longitude;Latitude;"Position";"Insee";"Lieu dit";"Adresse";"Code postal";"Commune";"Nature du support";Hauteur en m;"Propriétaire"
10905;4.24167;45.56028;"04° 14' 30.00'' Est, 45° 33' 37.00'' Nord";"42324";;"PEAGE A 72";"42340";"VEAUCHETTE";"Pylône autostable"; 40.0;"Sociétés d'Autoroutes"
10907;3.74833;45.84583;"03° 44' 54.00'' Est, 45° 50' 45.00'' Nord";"42159";"LA BRUYÈRE";"ACCÈS DE SERVICE A72";"42440";"NOIRETABLE";"Pylône autostable"; 20.0;"Sociétés d'Autoroutes"
10909;3.82667;45.86083;"03° 49' 36.00'' Est, 45° 51' 39.00'' Nord";"42047";"LA PLANCHE";"A 89 VC N°122";"42430";"CHAMPOLY";"Pylône autostable"; 40.0;"Sociétés d'Autoroutes"
10911;3.92444;45.87222;"03° 55' 28.00'' Est, 45° 52' 20.00'' Nord";"42116";"CROIX DU COQ";"ACCÈS DE SERVICE (RD 1) A 89";"42430";"JURE";"Pylône autostable"; 30.0;"Sociétés d'Autoroutes"
10917;4.09194;45.84111;"04° 05' 31.00'' Est, 45° 50' 28.00'' Nord";"42173";"BOIS DES ARDILLIERS";"AIRE DE REPOS DES ARDILLIERS A 89";"42260";"POMMIERS";"Pylône autostable"; 40.0;"Sociétés d'Autoroutes"
10937;4.61694;45.38722;"04° 37' 01.00'' Est, 45° 23' 14.00'' Nord";"42326";;"LES TROIS DENTS MONT PILAT CRET DE L'OEILLON";"42520";"VERANNE";"Bâtiment"; 17.0;"TDF"
10963;4.48500;45.54694;"04° 29' 06.00'' Est, 45° 32' 49.00'' Nord";"42208";"LA CHAPELLE";;"42320";"SAINT-CHRISTO-EN-JAREZ";"Pylône autostable"; 10.0;"ORANGE Services Fixes"
10969;4.20722;46.07000;"04° 12' 26.00'' Est, 46° 04' 12.00'' Nord";"42074";"LA TORADIERE";"CHEM DE MACHURON";"42460";"COUTOUVRE";"Pylône autostable"; 15.0;
10991;4.37611;46.20333;"04° 22' 34.00'' Est, 46° 12' 12.00'' Nord";"42229";;"D39";"42670";"SAINT-GERMAIN-LA-MONTAGNE";"Pylône autostable"; 15.0;"ORANGE Services Fixes"
10993;3.76167;45.95500;"03° 45' 42.00'' Est, 45° 57' 18.00'' Nord";"42276";"CITÉ TARDY";;"42830";"SAINT-PRIEST-LA-PRUGNE";"Pylône autostable"; 15.0;"ORANGE Services Fixes"
11001;4.04944;45.98667;"04° 02' 58.00'' Est, 45° 59' 12.00'' Nord";"42069";;"BARRAGE DE VILLEREST ROUTE DU BARRAGE";"42120";"COMMELLE-VERNAY";"Bâtiment"; 21.0;"EDF ou GDF"
11019;4.39556;45.41833;"04° 23' 44.00'' Est, 45° 25' 06.00'' Nord";"42218";;"13 R NICOLAS CHAIZE";"42000";"SAINT-ETIENNE";"Immeuble"; 17.0;"Titulaire programme Radio/TV"
31683;4.39278;45.44194;"04° 23' 34.00'' Est, 45° 26' 31.00'' Nord";"42218";;"13 R DU REPOS";"42000";"SAINT-ETIENNE";"Immeuble"; 22.0;"Copropriété, Syndic, SCI"
31733;4.58444;45.55917;"04° 35' 04.00'' Est, 45° 33' 33.00'' Nord";"42259";"LE CRÊT";"CHEMIN DE LA CHAMPAGNIÈRE LE CAILLOU BLANC";"42800";"SAINT-MARTIN-LA-PLAINE";"Pylône autostable"; 12.0;"HIVORY"
31817;4.38806;45.43583;"04° 23' 17.00'' Est, 45° 26' 09.00'' Nord";"42218";;"2 R GAMBETTA 26 PL DU PEUPLE";"42000";"SAINT-ETIENNE";"Immeuble"; 27.0;"Copropriété, Syndic, SCI"
31819;4.38889;45.43833;"04° 23' 20.00'' Est, 45° 26' 18.00'' Nord";"42218";;"7 PL DORIAN";"42000";"SAINT-ETIENNE";"Immeuble"; 23.0;"Copropriété, Syndic, SCI"
57729;4.07167;45.59361;"04° 04' 18.00'' Est, 45° 35' 37.00'' Nord";"42147";;"54 AV THERMALE";"42600";"MONTBRISON";"Immeuble"; 16.0;"Commune, communauté de commune"
65543;3.89806;46.03694;"03° 53' 53.00'' Est, 46° 02' 13.00'' Nord";"42182";"BOIS FAVERIN";;"42370";"RENAISON";"Pylône autostable"; 39.0;"ATC FRANCE"
96376;4.20306;45.87556;"04° 12' 11.00'' Est, 45° 52' 32.00'' Nord";"42254";"LE GRAND PARDON";;"42122";"SAINT-MARCEL-DE-FELINES";"Pylône tubulaire"; 32.0;"ORANGE Services Fixes"
96426;4.47361;45.34472;"04° 28' 25.00'' Est, 45° 20' 41.00'' Nord";"42224";"LA PAUZE";;"42660";"SAINT-GENEST-MALIFAUX";"Pylône autostable"; 18.0;"ORANGE"
96444;4.15028;46.04472;"04° 09' 01.00'' Est, 46° 02' 41.00'' Nord";"42170";"LA TREILLE";;"42120";"PERREUX";"Pylône autostable"; 25.0;"ORANGE"
96452;4.21806;45.68389;"04° 13' 05.00'' Est, 45° 41' 02.00'' Nord";"42251";"LA CROIX";;"42210";"SAINT-LAURENT-LA-CONCHE";"Pylône autostable"; 37.0;"ORANGE"
96458;4.27750;45.43833;"04° 16' 39.00'' Est, 45° 26' 18.00'' Nord";"42218";"LA CÔTE";"ST-VICTOR-SUR-LOIRE";"42000";"SAINT-ETIENNE";"Pylône autostable"; 15.0;"ORANGE Services Fixes"
96488;4.04250;45.42361;"04° 02' 33.00'' Est, 45° 25' 25.00'' Nord";"42091";"PICHILLON";;"42380";"ESTIVAREILLES";"Pylône autostable"; 25.0;"ORANGE"
96490;4.07750;45.46167;"04° 04' 39.00'' Est, 45° 27' 42.00'' Nord";"42126";"TRIOLS";;"42380";"LURIECQ";"Pylône autostable"; 12.0;"ORANGE"
96510;4.49056;45.31500;"04° 29' 26.00'' Est, 45° 18' 54.00'' Nord";"42329";"LA CARRIÈRE";"CD 22";"42220";"LA VERSANNE";"Pylône autostable"; 30.0;"ORANGE"
96532;4.31833;45.74750;"04° 19' 06.00'' Est, 45° 44' 51.00'' Nord";"42113";"LE FRENEY";;"42110";"JAS";"Pylône autostable"; 24.0;"ORANGE"
96550;3.86306;46.17472;"03° 51' 47.00'' Est, 46° 10' 29.00'' Nord";"42163";"CHEZ PIPE";;"42310";"LA PACAUDIERE";"Immeuble"; 18.0;"Société HLM"
96554;4.42278;45.40417;"04° 25' 22.00'' Est, 45° 24' 15.00'' Nord";"42172";"OLLAGNIÈRE";;"42660";"PLANFOY";"Bâtiment"; 6.0;"ORANGE"
96624;4.07611;45.84972;"04° 04' 34.00'' Est, 45° 50' 59.00'' Nord";"42173";"NOILLAT";;"42260";"POMMIERS";"Pylône autostable"; 25.0;"ORANGE"
116235;3.79417;46.20889;"03° 47' 39.00'' Est, 46° 12' 32.00'' Nord";"42257";"LA GATHELIÈRE";;"42620";"SAINT-MARTIN-D'ESTREAUX";"Pylône autostable"; 17.0;"ORANGE Services Fixes"
116246;4.01139;46.13639;"04° 00' 41.00'' Est, 46° 08' 11.00'' Nord";"42157";;"LE BOURG NORD";"42640";"NOAILLY";"Pylône autostable"; 12.0;"ORANGE Services Fixes"
116261;4.58389;45.43500;"04° 35' 02.00'' Est, 45° 26' 06.00'' Nord";"42085";"L'OLAGNIERE";;"42740";"DOIZIEUX";"Pylône tubulaire"; 12.0;"ORANGE Services Fixes"
166678;4.36333;45.40861;"04° 21' 48.00'' Est, 45° 24' 31.00'' Nord";"42183";;"LE MONTCEL R CHAPELON";"42150";"LA RICAMARIE";"Support non décrit"; 6.0;
170016;4.52083;45.46139;"04° 31' 15.00'' Est, 45° 27' 41.00'' Nord";"42207";;"PLACE DE LA LIBÉRATION EGLISE DE SAINT MARTIN EN COAILLEUX";"42400";"SAINT-CHAMOND";"Monument religieux"; 40.0;"Commune, communauté de commune"
173063;4.37333;45.44278;"04° 22' 24.00'' Est, 45° 26' 34.00'' Nord";"42218";;"R DE LA FONTAINE DU COIN";"42000";"SAINT-ETIENNE";"Support non décrit"; 8.0;
173071;4.41917;45.34194;"04° 25' 09.00'' Est, 45° 20' 31.00'' Nord";"42224";;"GIE";"42660";"SAINT-GENEST-MALIFAUX";"Support non décrit"; 19.0;
173073;4.25889;45.52389;"04° 15' 32.00'' Est, 45° 31' 26.00'' Nord";"42005";;"R DE LA FABRIQUE";"42160";"ANDREZIEUX-BOUTHEON";"Support non décrit"; 10.0;
173075;4.25083;45.53806;"04° 15' 03.00'' Est, 45° 32' 17.00'' Nord";"42005";;"PONT SUR LA LOIRE";"42160";"ANDREZIEUX-BOUTHEON";"Support non décrit"; 6.0;
173077;4.00333;45.74333;"04° 00' 12.00'' Est, 45° 44' 36.00'' Nord";"42019";;"PASSERELLE DU LIGNON";"42130";"BOEN";"Support non décrit"; 10.0;
173079;3.92694;45.70194;"03° 55' 37.00'' Est, 45° 42' 07.00'' Nord";"42227";;"CHEM DE L OLME";"42990";"SAINT-GEORGES-EN-COUZAN";"Support non décrit"; 10.0;
173081;4.22667;45.64361;"04° 13' 36.00'' Est, 45° 38' 37.00'' Nord";"42149";;"PONT RN496";"42210";"MONTROND-LES-BAINS";"Support non décrit"; 4.0;
173083;4.21056;45.74528;"04° 12' 38.00'' Est, 45° 44' 43.00'' Nord";"42094";;"LE RELAIS AVAL DU PONT";"42110";"FEURS";"Support non décrit"; 10.0;
173085;4.18444;45.81528;"04° 11' 04.00'' Est, 45° 48' 55.00'' Nord";"42011";;"PONT SUR LA LOIRE";"42510";"BALBIGNY";"Support non décrit"; 9.0;
173087;3.84333;45.90889;"03° 50' 36.00'' Est, 45° 54' 32.00'' Nord";"42248";;"SUBDIVISION EQUIPEMENT";"42430";"SAINT-JUST-EN-CHEVALET";"Support non décrit"; 35.0;
173089;4.12861;45.86028;"04° 07' 43.00'' Est, 45° 51' 37.00'' Nord";"42171";;"AMONT CD38";"42590";"PINAY";"Support non décrit"; 10.0;
173091;4.12139;45.86028;"04° 07' 17.00'' Est, 45° 51' 37.00'' Nord";"42171";;"AVAL NOUVEAU PONT";"42590";"PINAY";"Support non décrit"; 10.0;
173093;4.11778;45.88917;"04° 07' 04.00'' Est, 45° 53' 21.00'' Nord";"42241";;"LA ROCHE AMONT";"42590";"SAINT-JODARD";"Support non décrit"; 10.0;
173095;4.11500;45.89806;"04° 06' 54.00'' Est, 45° 53' 53.00'' Nord";"42268";;"PIERRE PLATE";"42590";"SAINT-PAUL-DE-VEZELIN";"Support non décrit"; 10.0;
173097;4.04833;45.98917;"04° 02' 54.00'' Est, 45° 59' 21.00'' Nord";"42332";;"BARRAGE N 1";"42300";"VILLEREST";"Support non décrit"; 14.0;
173099;4.04222;46.00083;"04° 02' 32.00'' Est, 46° 00' 03.00'' Nord";"42332";;"COFFOLET";"42300";"VILLEREST";"Support non décrit"; 10.0;
178528;4.68333;45.41806;"04° 41' 00.00'' Est, 45° 25' 05.00'' Nord";"42168";;"2 PL DE L HOTEL DE VILLE MAIRIE";"42410";"PELUSSIN";"Bâtiment"; 15.0;"Commune, communauté de commune"
192860;4.06639;45.37889;"04° 03' 59.00'' Est, 45° 22' 44.00'' Nord";"42235";;"LE CLOS";"42380";"SAINT-HILAIRE-CUSSON-LA-VALMITTE";"Support non décrit"; 20.0;
211020;3.84306;46.20139;"03° 50' 35.00'' Est, 46° 12' 05.00'' Nord";"42257";;"RST CHEZ MECHIN PN 179 PK 392.240";"42620";"SAINT-MARTIN-D'ESTREAUX";"Mât"; 10.0;"SNCF Réseau"
211032;4.00694;46.06917;"04° 00' 25.00'' Est, 46° 04' 09.00'' Nord";"42284";;"RST LA RAILLERE PN 193 PK 414.310";"42640";"SAINT-ROMAIN-LA-MOTTE";"Mât"; 10.0;"SNCF Réseau"
211080;4.27333;45.52083;"04° 16' 24.00'' Est, 45° 31' 15.00'' Nord";"42279";;"RST ANDREZIEU PN 288 PK 487.800";"42170";"SAINT-JUST-SAINT-RAMBERT";"Mât"; 15.0;"SNCF Réseau"
211100;4.42000;45.44361;"04° 25' 12.00'' Est, 45° 26' 37.00'' Nord";"42218";;"RST PONT DE L'ANE PK 503.780";"42000";"SAINT-ETIENNE";"Mât"; 10.0;"SNCF Réseau"
220418;4.73806;45.41194;"04° 44' 17.00'' Est, 45° 24' 43.00'' Nord";"42056";"LES PRAIRIES";"D7";"42410";"CHAVANAY";"Pylône tubulaire"; 20.0;"HIVORY"
251771;4.38472;45.50694;"04° 23' 05.00'' Est, 45° 30' 25.00'' Nord";"42092";"MONROND";"LES BROSSETTES";"42580";"L'ETRAT";"Pylône autostable"; 24.5;"BOUYGUES"
274092;4.08861;46.05944;"04° 05' 19.00'' Est, 46° 03' 34.00'' Nord";"42187";;"D482 / 1-3-5, R D'AIGUILLY";"42300";"ROANNE";"Immeuble"; 17.0;"Société HLM"
286990;4.03694;45.67972;"04° 02' 13.00'' Est, 45° 40' 47.00'' Nord";"42134";"LE REZINET";"RD N°8 PYLÔNE ORANGE";"42130";"MARCILLY-LE-CHATEL";"Pylône autostable"; 21.0;"ORANGE"
290496;4.25667;45.40028;"04° 15' 24.00'' Est, 45° 24' 01.00'' Nord";"42316";;"R DE L'INDUSTRIE STADE DE RUGBY LA PLAINE";"42240";"UNIEUX";"Pylône tubulaire"; 25.0;"HIVORY"
293383;4.39972;45.47389;"04° 23' 59.00'' Est, 45° 28' 26.00'' Nord";"42218";;"33 ALLÉE EDOUARD LALO";"42000";"SAINT-ETIENNE";"Immeuble"; 18.5;"Société HLM"
296143;3.89833;46.01417;"03° 53' 54.00'' Est, 46° 00' 51.00'' Nord";"42008";"LES SOUTIERES";;"42370";"ARCON";"Mât béton"; 12.0;"EDF ou GDF"
305959;4.53694;45.46750;"04° 32' 13.00'' Est, 45° 28' 03.00'' Nord";"42207";;"R CONSTITUANTE";"42400";"SAINT-CHAMOND";"Mât"; 5.0;
310602;4.26472;45.38528;"04° 15' 53.00'' Est, 45° 23' 07.00'' Nord";"42099";;"27 B R JULES FERRY";"42490";"FRAISSES";"Immeuble"; 17.4;"Société HLM"
316263;4.18639;45.73750;"04° 11' 11.00'' Est, 45° 44' 15.00'' Nord";"42066";;"LE MARAIS PEAGE FEURS CENTRE ENTRETIEN ASF";"42110";"CLEPPE";"Bâtiment"; 8.0;"Sociétés d'Autoroutes"
316267;4.24194;45.56000;"04° 14' 31.00'' Est, 45° 33' 36.00'' Nord";"42324";;"CHAZET GARE DE PEAGE VEAUCHETTE";"42340";"VEAUCHETTE";"Bâtiment"; 7.0;"Société Privée SA"
316522;3.79389;45.84889;"03° 47' 38.00'' Est, 45° 50' 56.00'' Nord";"42295";;"FAUCHEMAGNE CTRE ENTRETIEN ASF";"42440";"LES SALLES";"Pylône autostable"; 12.0;"Sociétés d'Autoroutes"
323579;4.29389;45.38472;"04° 17' 38.00'' Est, 45° 23' 05.00'' Nord";"42095";;"6 CHEM DES QUATRE VENTS";"42700";"FIRMINY";"Bâtiment"; 16.0;"Commune, communauté de commune"
330346;4.05667;46.05806;"04° 03' 24.00'' Est, 46° 03' 29.00'' Nord";"42184";;"405 R JEAN MOULIN";"42153";"RIORGES";"Mât"; 10.0;"EDF ou GDF"
334956;4.58556;45.49528;"04° 35' 08.00'' Est, 45° 29' 43.00'' Nord";"42093";"LE TRÈVE";"R DES SOURCES";"42320";"FARNAY";"Pylône autostable"; 30.0;"ORANGE"
350584;4.06028;46.06583;"04° 03' 37.00'' Est, 46° 03' 57.00'' Nord";"42127";;"R JEAN DE LA FONTAINE CCAL RÉGIONAL";"42300";"MABLY";"Intérieur galerie"; 15.0;"Société Privée SA"
350588;3.85056;46.09056;"03° 51' 02.00'' Est, 46° 05' 26.00'' Nord";"42003";"LA CROIX DU SUD";"RD 39";"42820";"AMBIERLE";"Pylône autostable"; 30.4;"SFR"
356545;3.83889;45.76806;"03° 50' 20.00'' Est, 45° 46' 05.00'' Nord";"42321";"CÔTE DE BOUNON SUD";;"42111";"LA VALLA-SUR-ROCHEFORT";"Pylône autostable"; 25.0;"Conseil Départemental"
368131;3.94833;45.65667;"03° 56' 54.00'' Est, 45° 39' 24.00'' Nord";"42205";"LE BIZET";"SAINT-BONNET-LE-COURREAU/LE BI";"42940";"SAINT-BONNET-LE-COURREAU";"Pylône autostable"; 12.0;"ORANGE Services Fixes"
389730;4.35028;45.48250;"04° 21' 01.00'' Est, 45° 28' 57.00'' Nord";"42092";"GRANGE NEUVE";"ZONE D'ACTIVIVITÉ DE RATARIEUX MAGASIN 4 MURS";"42580";"L'ETRAT";"Bâtiment"; 12.3;"SFR"
392732;4.08944;46.04917;"04° 05' 22.00'' Est, 46° 02' 57.00'' Nord";"42187";;"76 R DE MATEL";"42300";"ROANNE";"Immeuble"; 16.0;"Particulier"
403696;3.98278;45.58861;"03° 58' 58.00'' Est, 45° 35' 19.00'' Nord";"42012";"LE SAUZET";;"42600";"BARD";"Pylône autostable"; 26.0;"ORANGE Services Fixes"
407684;4.41306;45.45583;"04° 24' 47.00'' Est, 45° 27' 21.00'' Nord";"42218";;"53 R DE LA TALAUDIÈRE";"42100";"SAINT-ETIENNE";"Pylône autostable"; 23.0;"HIVORY"
411972;4.13694;45.97167;"04° 08' 13.00'' Est, 45° 58' 18.00'' Nord";"42153";"BOIS DES MORTS";"CHEM RURAL";"42470";"NEAUX";"Pylône autostable"; 16.0;"ORANGE"
419390;4.28361;46.14056;"04° 17' 01.00'' Est, 46° 08' 26.00'' Nord";"42007";"FONCAMTAL";"CHEM RURAL";"42460";"ARCINGES";"Pylône autostable"; 25.0;"ORANGE"
421186;4.65556;45.47806;"04° 39' 20.00'' Est, 45° 28' 41.00'' Nord";"42167";"BOIS DE LA CHALLE";;"42410";"PAVEZIN";"Pylône tubulaire"; 12.0;"ORANGE Services Fixes"
421190;4.50194;45.42500;"04° 30' 07.00'' Est, 45° 25' 30.00'' Nord";"42322";"LES IVERSINS";;"42131";"LA VALLA-EN-GIER";"Pylône autostable"; 12.0;"ORANGE Services Fixes"
435378;4.41194;45.41972;"04° 24' 43.00'' Est, 45° 25' 11.00'' Nord";"42218";;"1 BD DE FRAISSINETTE";"42000";"SAINT-ETIENNE";"Immeuble"; 35.0;"Copropriété, Syndic, SCI"
435649;4.38361;45.45389;"04° 23' 01.00'' Est, 45° 27' 14.00'' Nord";"42218";;"2 R BARROUIN 56 R BERGSON";"42000";"SAINT-ETIENNE";"Immeuble"; 33.0;"Société HLM"
436052;4.22611;45.74167;"04° 13' 34.00'' Est, 45° 44' 30.00'' Nord";"42094";;"22 R WALDECK ROUSSEAU";"42110";"FEURS";"Pylône autostable"; 25.0;"ORANGE Services Fixes"
437021;4.50389;45.52083;"04° 30' 14.00'' Est, 45° 31' 15.00'' Nord";"42032";"LES AYATS";"CROIX BLANCHE";"42320";"CELLIEU";"Pylône autostable"; 36.0;"TDF"
437472;4.34111;45.44222;"04° 20' 28.00'' Est, 45° 26' 32.00'' Nord";"42223";;"R DU MARÉCHAL DE LATTRE DE TASSIGNY LOT. LES NOISETIERS";"42530";"SAINT-GENEST-LERPT";"Château d'eau - réservoir"; 40.0;"Commune, communauté de commune"
437998;4.37000;45.41833;"04° 22' 12.00'' Est, 45° 25' 06.00'' Nord";"42183";"LA BÉRAUDIÈRE-NORD";;"42150";"LA RICAMARIE";"Pylône autostable"; 21.2;"ATC FRANCE"
438145;4.32333;45.42556;"04° 19' 24.00'' Est, 45° 25' 32.00'' Nord";"42189";"LA PIOTIÈRE";"RUE PAUL GAUGUIN";"42230";"ROCHE-LA-MOLIERE";"Pylône autostable"; 35.7;"TDF"
438280;4.39556;45.39694;"04° 23' 44.00'' Est, 45° 23' 49.00'' Nord";"42172";"LA CROIX DE GUIZAY";;"42660";"PLANFOY";"Pylône autostable"; 14.0;"TDF"
438426;4.31528;45.49556;"04° 18' 55.00'' Est, 45° 29' 44.00'' Nord";"42097";;"CHEM DE BLINBLIN RTE DE ST GENEST LERP";"42480";"LA FOUILLOUSE";"Pylône autostable"; 31.0;"BOUYGUES"
438451;4.50972;45.47722;"04° 30' 35.00'' Est, 45° 28' 38.00'' Nord";"42207";;"1-3 SQ JANON";"42400";"SAINT-CHAMOND";"Immeuble"; 46.0;"Société HLM"
438525;4.22778;45.54278;"04° 13' 40.00'' Est, 45° 32' 34.00'' Nord";"42211";"LES LANDES";;"42160";"SAINT-CYPRIEN";"Pylône autostable"; 27.5;"TDF"
439770;4.42722;45.42167;"04° 25' 38.00'' Est, 45° 25' 18.00'' Nord";"42218";;"23 BVD PAUL MICHELON";"42023";"SAINT-ETIENNE";"Bâtiment"; 18.0;"Particulier"
439772;4.38611;45.42194;"04° 23' 10.00'' Est, 45° 25' 19.00'' Nord";"42218";;"17 BVD RAOUL DUVAL";"42100";"SAINT-ETIENNE";"Bâtiment"; 27.0;"Particulier"
440850;4.50444;45.45861;"04° 30' 16.00'' Est, 45° 27' 31.00'' Nord";"42207";;"142 R PÉTIN GAUDET";"42400";"SAINT-CHAMOND";"Immeuble"; 32.0;"Société HLM"
442509;4.37833;45.40111;"04° 22' 42.00'' Est, 45° 24' 04.00'' Nord";"42183";"CHATEAU BRÛLÉ";"RTE DU GUIZAY";"42150";"LA RICAMARIE";"Pylône autostable"; 48.0;"RTE"
444292;4.38306;45.43694;"04° 22' 59.00'' Est, 45° 26' 13.00'' Nord";"42218";;"12 COURS PIERRE LUCIEN BUISSON";"42000";"SAINT-ETIENNE";"Immeuble"; 34.0;"Copropriété, Syndic, SCI"
444896;4.25806;45.41194;"04° 15' 29.00'' Est, 45° 24' 43.00'' Nord";"42316";"LE DORIER";;"42240";"UNIEUX";"Pylône autostable"; 34.0;"TDF"
444915;4.50139;45.48472;"04° 30' 05.00'' Est, 45° 29' 05.00'' Nord";"42207";;"RTE DE CHAVANNE PROCHE INTERSEC A 47 PK 27758 ET RD 2";"42400";"SAINT-CHAMOND";"Pylône autostable"; 15.0;"CELLNEX"
444977;4.59639;45.51889;"04° 35' 47.00'' Est, 45° 31' 08.00'' Nord";"42186";;"2A R DE NORMANDIE";"42800";"RIVE-DE-GIER";"Immeuble"; 48.0;"Société HLM"
446335;4.28750;45.39889;"04° 17' 15.00'' Est, 45° 23' 56.00'' Nord";"42095";"LE CRASSIER";"R BERTHELOT";"42700";"FIRMINY";"Pylône autostable"; 38.5;"TDF"
446744;4.41222;45.43472;"04° 24' 44.00'' Est, 45° 26' 05.00'' Nord";"42218";;"2 R DES VILLAS";"42000";"SAINT-ETIENNE";"Immeuble"; 19.0;"Société HLM"
450141;4.31667;45.59222;"04° 18' 60.00'' Est, 45° 35' 32.00'' Nord";"42222";;"47 R MAURICE ANDRÉE";"42330";"SAINT-GALMIER";"Immeuble"; 17.0;"La Poste"
450974;4.11944;46.02028;"04° 07' 10.00'' Est, 46° 01' 13.00'' Nord";"42170";"LES HAUTES VAVRES-LA CORTEZE";;"42120";"PERREUX";"Pylône autostable"; 46.0;"TDF"
451662;3.98306;45.91306;"03° 58' 59.00'' Est, 45° 54' 47.00'' Nord";"42274";"FOND VALLÉE";"D 8 PYLÔNE FRANCE TÉLÉCOM";"42260";"SAINT-POLGUES";"Pylône autostable"; 36.0;"ORANGE Services Fixes"
451713;3.86778;45.85361;"03° 52' 04.00'' Est, 45° 51' 13.00'' Nord";"42260";;"ROCHEFORT";"42260";"SAINT-MARTIN-LA-SAUVETE";"Pylône autostable"; 40.0;"ORANGE Services Fixes"
453402;4.22528;45.72472;"04° 13' 31.00'' Est, 45° 43' 29.00'' Nord";"42094";;"ROUTE DE ST ETIENNE  ZI DU FORUM CENTR' AUTO-PLAINE";"42110";"FEURS";"Pylône tubulaire"; 19.0;"ORANGE"
453866;4.33222;45.40167;"04° 19' 56.00'' Est, 45° 24' 06.00'' Nord";"42044";"ANGELIN";;"42500";"LE CHAMBON-FEUGEROLLES";"Pylône autostable"; 27.0;"TDF"
454034;4.39639;45.39667;"04° 23' 47.00'' Est, 45° 23' 48.00'' Nord";"42172";"LA CROIX DE GUIZAY";;"42660";"PLANFOY";"Pylône autostable"; 113.0;"TDF"
454431;4.49750;45.46833;"04° 29' 51.00'' Est, 45° 28' 06.00'' Nord";"42207";"LES PORTES";"N88";"42400";"SAINT-CHAMOND";"Pylône autostable"; 29.0;"RTE"
457434;4.36639;45.40639;"04° 21' 59.00'' Est, 45° 24' 23.00'' Nord";"42183";;"7A R PASTEUR";"42150";"LA RICAMARIE";"Immeuble"; 20.0;"Société HLM"
457649;4.43583;45.47806;"04° 26' 09.00'' Est, 45° 28' 41.00'' Nord";"42305";;"R M.EVRARD IMM TOUT ELECTRIQUE";"42350";"LA TALAUDIERE";"Immeuble"; 24.0;"Société HLM"
459387;4.59056;45.48528;"04° 35' 26.00'' Est, 45° 29' 07.00'' Nord";"42093";"LA CONDAMINE";"R DE LA CONDAMINE";"42320";"FARNAY";"Pylône autostable"; 26.0;"ATC FRANCE"
459589;4.52333;45.46750;"04° 31' 24.00'' Est, 45° 28' 03.00'' Nord";"42207";;"48 R GÉNÉRAL DE GAULLE SOCIÉTÉ VEDRINE";"42400";"SAINT-CHAMOND";"Bâtiment"; 20.0;"ORANGE"
459800;4.41000;45.42667;"04° 24' 36.00'' Est, 45° 25' 36.00'' Nord";"42218";;"33 R LE CORBUSIER";"42000";"SAINT-ETIENNE";"Immeuble"; 77.0;"Société HLM"
459804;4.40194;45.42333;"04° 24' 07.00'' Est, 45° 25' 24.00'' Nord";"42218";;"11-13 PASSAGE PRÈS DES SOEURS";"42000";"SAINT-ETIENNE";"Immeuble"; 40.0;"Société HLM"
460234;4.40167;45.42889;"04° 24' 06.00'' Est, 45° 25' 44.00'' Nord";"42218";"VILLEBOEUF";"12 R LIOGIER";"42000";"SAINT-ETIENNE";"Immeuble"; 27.0;"Société HLM"
464670;4.34833;45.39333;"04° 20' 54.00'' Est, 45° 23' 36.00'' Nord";"42044";;"26 R DES EAUX VIVES";"42500";"LE CHAMBON-FEUGEROLLES";"Immeuble"; 20.0;"Société HLM"
466081;4.32944;45.39556;"04° 19' 46.00'' Est, 45° 23' 44.00'' Nord";"42044";;"29 R JEAN-JACQUES ROUSSEAU";"42500";"LE CHAMBON-FEUGEROLLES";"Immeuble"; 32.0;"Société HLM"
468529;3.85694;45.86306;"03° 51' 25.00'' Est, 45° 51' 47.00'' Nord";"42047";"BOIS D'URFÉ";"LES CORNES D'URFE";"42430";"CHAMPOLY";"Pylône autostable"; 45.0;"TDF"
470408;4.17194;45.87111;"04° 10' 19.00'' Est, 45° 52' 16.00'' Nord";"42156";"LA PLAINE";;"42590";"NEULISE";"Pylône autostable"; 28.0;"HIVORY"
471364;4.31417;45.65056;"04° 18' 51.00'' Est, 45° 39' 02.00'' Nord";"42013";;"993 RTE DE LYON POSTE DE COMMANDE";"42210";"BELLEGARDE-EN-FOREZ";"Bâtiment"; 10.0;"Particulier"
471366;4.31667;45.65278;"04° 18' 60.00'' Est, 45° 39' 10.00'' Nord";"42013";;"993 RTE DE LYON BASCULE";"42210";"BELLEGARDE-EN-FOREZ";"Bâtiment"; 6.0;"Particulier"
471643;4.24000;45.49389;"04° 14' 24.00'' Est, 45° 29' 38.00'' Nord";"42279";;"ALLÉE DIANE DE POITIERS STATION DE POMPAGE";"42170";"SAINT-JUST-SAINT-RAMBERT";"Pylône autostable"; 27.3;"ORANGE"
472203;4.04361;45.97806;"04° 02' 37.00'' Est, 45° 58' 41.00'' Nord";"42069";"LES PAPILLLONS";;"42120";"COMMELLE-VERNAY";"Pylône autostable"; 32.0;"ATC FRANCE"
472919;4.40333;45.45056;"04° 24' 12.00'' Est, 45° 27' 02.00'' Nord";"42218";;"PL GARIBALDI EGLISE";"42000";"SAINT-ETIENNE";"Monument religieux"; 53.0;"Commune, communauté de commune"
472923;4.41694;45.44306;"04° 25' 01.00'' Est, 45° 26' 35.00'' Nord";"42218";;"140 A R DE LA MONTAT";"42000";"SAINT-ETIENNE";"Immeuble"; 54.0;"Société HLM"
472946;4.36111;45.85639;"04° 21' 40.00'' Est, 45° 51' 23.00'' Nord";"42334";;"LES FAYOLLES";"42780";"VIOLAY";"Pylône autostable"; 30.0;"TDF"
472957;4.37611;45.47833;"04° 22' 34.00'' Est, 45° 28' 42.00'' Nord";"42275";"LE CRÊT";;"42270";"SAINT-PRIEST-EN-JAREZ";"Pylône autostable"; 16.0;"SFR"
473818;4.38139;45.85056;"04° 22' 53.00'' Est, 45° 51' 02.00'' Nord";"42334";"TOUR MATAGRIN";"TOUR DVRN";"42780";"VIOLAY";"Tour hertzienne"; 49.0;"TDF"
475498;4.12361;45.85361;"04° 07' 25.00'' Est, 45° 51' 13.00'' Nord";"42226";"LE CHÂTEAU";"LE CHATEAU RD 38";"42510";"SAINT-GEORGES-DE-BAROILLE";"Pylône autostable"; 12.0;"SFR"
476345;4.62139;45.53139;"04° 37' 17.00'' Est, 45° 31' 53.00'' Nord";"42186";;"9B  R DE PLAISANCE";"42800";"RIVE-DE-GIER";"Immeuble"; 38.0;"Société HLM"
477021;4.07889;46.04278;"04° 04' 44.00'' Est, 46° 02' 34.00'' Nord";"42187";;"28 R DE CHARLIEU HOP";"42300";"ROANNE";"Bâtiment"; 30.0;"Etablissement de soins"
478372;4.27833;45.52944;"04° 16' 42.00'' Est, 45° 31' 46.00'' Nord";"42005";;"2/3 B  R JOSEPH CUGNOT";"42160";"ANDREZIEUX-BOUTHEON";"Bâtiment"; 10.0;"Société Privée SA"
478404;4.30333;45.47694;"04° 18' 12.00'' Est, 45° 28' 37.00'' Nord";"42279";"LES MURES";;"42170";"SAINT-JUST-SAINT-RAMBERT";"Pylône autostable"; 12.0;"Société Privée SA"
478430;4.42278;45.46944;"04° 25' 22.00'' Est, 45° 28' 10.00'' Nord";"42305";;"320 R JEAN PERRIN ZONE DE MOLINA LA CHAZOTTE";"42350";"LA TALAUDIERE";"Pylône tubulaire"; 48.0;"HIVORY"
479787;4.39333;45.42333;"04° 23' 36.00'' Est, 45° 25' 24.00'' Nord";"42218";;"1 R DES DRS CHARCOTS CCAL DEUX";"42000";"SAINT-ETIENNE";"Bâtiment"; 22.0;"Copropriété, Syndic, SCI"
480751;4.18750;45.49444;"04° 11' 15.00'' Est, 45° 29' 40.00'' Nord";"42256";"BATAILLOUX";;"42680";"SAINT-MARCELLIN-EN-FOREZ";"Pylône autostable"; 30.0;"TDF"
480800;4.27250;45.36972;"04° 16' 21.00'' Est, 45° 22' 11.00'' Nord";"42095";"PLAT DU PINAY";;"42700";"FIRMINY";"Pylône autostable"; 23.0;"RTE"
481942;4.44806;45.50083;"04° 26' 53.00'' Est, 45° 30' 03.00'' Nord";"42302";"CHANA-NORD";"PRÈS RÉSERVOIR";"42290";"SORBIERS";"Pylône autostable"; 20.0;"HIVORY"
485431;4.05611;46.04417;"04° 03' 22.00'' Est, 46° 02' 39.00'' Nord";"42187";;"24 AV DU GRAND MARAIS LES ELOPÉES";"42300";"ROANNE";"Immeuble"; 36.0;"Société HLM"
490078;4.38889;45.45750;"04° 23' 20.00'' Est, 45° 27' 27.00'' Nord";"42218";;"R JEAN SNELLA BÂTIMENT FRANCE TELECOM";"42000";"SAINT-ETIENNE";"Immeuble"; 18.0;"ORANGE Services Fixes"
491953;4.41917;45.45139;"04° 25' 09.00'' Est, 45° 27' 05.00'' Nord";"42218";;"12-13 R. GRANGENEUVE";"42000";"SAINT-ETIENNE";"Pylône tubulaire"; 13.0;"ORANGE"
493367;4.51139;45.37306;"04° 30' 41.00'' Est, 45° 22' 23.00'' Nord";"42017";"BOIS DE TOILE";;"42660";"LE BESSAT";"Pylône autostable"; 31.0;"ORANGE Services Fixes"
493540;4.51472;45.47472;"04° 30' 53.00'' Est, 45° 28' 29.00'' Nord";"42207";;"15/17 R VICTOR HUGO";"42400";"SAINT-CHAMOND";"Pylône autostable"; 32.0;"ORANGE Services Fixes"
497267;4.44250;45.44972;"04° 26' 33.00'' Est, 45° 26' 59.00'' Nord";"42237";;"7 ALL DES CEVENNES";"42650";"SAINT-JEAN-BONNEFONDS";"Immeuble"; 16.0;"Société HLM"
499928;4.19444;45.53583;"04° 11' 40.00'' Est, 45° 32' 09.00'' Nord";"42304";"LA MADONE";"CHEMIN DE LA FÊTE DIEU";"42450";"SURY-LE-COMTAL";"Château d'eau - réservoir"; 35.0;"Syndicat des eaux, Adduction"
506151;4.30306;45.36778;"04° 18' 11.00'' Est, 45° 22' 04.00'' Nord";"42095";"LA COMBERIE";"BOIS D'ÉTAT";"42700";"FIRMINY";"Pylône autostable"; 24.0;"ORANGE"
507281;4.28000;45.55222;"04° 16' 48.00'' Est, 45° 33' 08.00'' Nord";"42323";"LES QUATRE ROUTES";"R B. VILLEMAGNE PROCHE ROND-POINT N.82/D.12";"42340";"VEAUCHE";"Château d'eau - réservoir"; 34.0;"Commune, communauté de commune"
509100;4.38750;45.40056;"04° 23' 15.00'' Est, 45° 24' 02.00'' Nord";"42183";"FOND DE L'ECUELLE";;"42150";"LA RICAMARIE";"Pylône haubané"; 67.0;"Towercast"
511592;4.16639;45.93972;"04° 09' 59.00'' Est, 45° 56' 23.00'' Nord";"42156";"ENVE";;"42590";"NEULISE";"Pylône autostable"; 35.0;"HIVORY"
512306;4.63861;45.45111;"04° 38' 19.00'' Est, 45° 27' 04.00'' Nord";"42210";"CRÊT DE MONTIVERT";"PROCHE BOIS DE LA GRAND COMBE";"42800";"SAINTE-CROIX-EN-JAREZ";"Pylône autostable"; 32.0;"ATC FRANCE"
512350;4.05806;46.02556;"04° 03' 29.00'' Est, 46° 01' 32.00'' Nord";"42187";;"30 R DE VILLEMONTAIS ENTRÉE 14";"42300";"ROANNE";"Immeuble"; 29.8;"Société HLM"
515620;4.35500;46.17056;"04° 21' 18.00'' Est, 46° 10' 14.00'' Nord";"42015";"MONTAIGU";"STATUE STATION TDF";"42670";"BELMONT-DE-LA-LOIRE";"Pylône autostable"; 33.0;"TDF"
515993;4.53528;45.47278;"04° 32' 07.00'' Est, 45° 28' 22.00'' Nord";"42207";"LE COIN NORD";"PRÈS BD DES ECHARNEAUX";"42400";"SAINT-CHAMOND";"Pylône autostable"; 20.0;"ORANGE"
517030;3.96333;46.09944;"03° 57' 48.00'' Est, 46° 05' 58.00'' Nord";"42231";"BLANCHARDON";"VICINAL ORDINAIRE N°7";"42640";"SAINT-GERMAIN-LESPINASSE";"Château d'eau - réservoir"; 42.0;"Syndicat des eaux, Adduction"
518714;4.43389;45.44944;"04° 26' 02.00'' Est, 45° 26' 58.00'' Nord";"42237";"LE CRÊT FOND PERDU";"LE PARADIS";"42650";"SAINT-JEAN-BONNEFONDS";"Pylône autostable"; 21.0;"TDF"
519967;4.12611;45.55750;"04° 07' 34.00'' Est, 45° 33' 27.00'' Nord";"42285";"LE PIC";"LE PRIEURÉ";"42610";"SAINT-ROMAIN-LE-PUY";"Monument religieux"; 19.0;"Commune, communauté de commune"
520458;4.17889;45.63056;"04° 10' 44.00'' Est, 45° 37' 50.00'' Nord";"42038";"FONTANNES";"D496";"42600";"CHALAIN-LE-COMTAL";"Pylône autostable"; 50.0;"ORANGE Services Fixes"
520949;4.23139;45.64444;"04° 13' 53.00'' Est, 45° 38' 40.00'' Nord";"42149";"LE LOUVOIS";"1 R DE ROANNE";"42210";"MONTROND-LES-BAINS";"Immeuble"; 19.0;"Copropriété, Syndic, SCI"
520985;3.85944;46.12556;"03° 51' 34.00'' Est, 46° 07' 32.00'' Nord";"42203";"BICHARMONT";;"42310";"SAINT-BONNET-DES-QUARTS";"Pylône autostable"; 25.3;"TDF"
522357;4.26806;45.52694;"04° 16' 05.00'' Est, 45° 31' 37.00'' Nord";"42005";"LA CHAPELLE";"22 R LAMARTINE";"42160";"ANDREZIEUX-BOUTHEON";"Immeuble"; 61.0;"Copropriété, Syndic, SCI"
523018;4.39333;45.43667;"04° 23' 36.00'' Est, 45° 26' 12.00'' Nord";"42218";;"12 R DU LTN MORIN AUTOCOM FOURIER";"42000";"SAINT-ETIENNE";"Bâtiment"; 46.0;"ORANGE Services Fixes"
525524;3.91972;46.00972;"03° 55' 11.00'' Est, 46° 00' 35.00'' Nord";"42198";"PRÉFOL";"STATION TDF";"42370";"SAINT-ALBAN-LES-EAUX";"Pylône autostable"; 25.0;"TDF"
527617;3.84750;45.91722;"03° 50' 51.00'' Est, 45° 55' 02.00'' Nord";"42248";"LE CHAMP DE FOIRE";"SAINT JUST EN CHEVALET - TOUR";"42430";"SAINT-JUST-EN-CHEVALET";"Pylône autostable"; 27.0;"ORANGE Services Fixes"
531196;3.85694;45.87667;"03° 51' 25.00'' Est, 45° 52' 36.00'' Nord";"42255";"LA CROIX PEUFRÊTE";;"42430";"SAINT-MARCEL-D'URFE";"Pylône autostable"; 45.3;"Sociétés d'Autoroutes"
534620;4.57472;45.28806;"04° 34' 29.00'' Est, 45° 17' 17.00'' Nord";"42028";"CEYLIONNAS";"CHE DE TÊTE NOIRE";"42220";"BURDIGNES";"Pylône autostable"; 33.8;"TDF"
534635;4.29889;46.09222;"04° 17' 56.00'' Est, 46° 05' 32.00'' Nord";"42300";"LAMURE";;"42460";"SEVELINGES";"Pylône autostable"; 37.0;"TDF"
535415;4.17889;46.16889;"04° 10' 44.00'' Est, 46° 10' 08.00'' Nord";"42052";;"PL MONTROCHER-PARK";"42190";"CHARLIEU";"Pylône autostable"; 39.0;"TDF"
536442;4.03361;46.03944;"04° 02' 01.00'' Est, 46° 02' 22.00'' Nord";"42184";;"1451 R MARECHAL FOCH";"42153";"RIORGES";"Immeuble"; 22.0;"Copropriété, Syndic, SCI"
537940;4.22389;45.73833;"04° 13' 26.00'' Est, 45° 44' 18.00'' Nord";"42094";;"BD DU SOLEILLANT-PROCHE DU PARC";"42110";"FEURS";"Château d'eau - réservoir"; 43.0;"Commune, communauté de commune"
544530;4.07194;46.00194;"04° 04' 19.00'' Est, 46° 00' 07.00'' Nord";"42069";"LES BRUYÈRES";;"42120";"COMMELLE-VERNAY";"Pylône autostable"; 40.0;"HIVORY"
545523;4.29194;45.49500;"04° 17' 31.00'' Est, 45° 29' 42.00'' Nord";"42279";"CRÊT DE LA TOUCHE";"CHEM LES HAUTS D' AVERNAY AVERNAY SUD";"42170";"SAINT-JUST-SAINT-RAMBERT";"Pylône autostable"; 15.0;"ORANGE"
545963;4.40528;45.39306;"04° 24' 19.00'' Est, 45° 23' 35.00'' Nord";"42172";;"LE GUIZAY LES GRANDES TERRES";"42660";"PLANFOY";"Pylône haubané"; 44.0;"Particulier"
546367;4.45667;45.46056;"04° 27' 24.00'' Est, 45° 27' 38.00'' Nord";"42237";"DOMAINE DU COLOMBIER";;"42650";"SAINT-JEAN-BONNEFONDS";"Pylône tubulaire"; 18.0;"ORANGE"
546911;4.07972;46.04500;"04° 04' 47.00'' Est, 46° 02' 42.00'' Nord";"42187";;"2, BD  DE BELGIQUE";"42300";"ROANNE";"Bâtiment"; 26.0;"Copropriété, Syndic, SCI"
547251;4.44194;45.37667;"04° 26' 31.00'' Est, 45° 22' 36.00'' Nord";"42172";"BICÊTRE";"AUTOCOM";"42660";"PLANFOY";"Pylône tubulaire"; 9.0;"ORANGE Services Fixes"
547417;4.30250;45.39167;"04° 18' 09.00'' Est, 45° 23' 30.00'' Nord";"42044";"MALVAL";;"42500";"LE CHAMBON-FEUGEROLLES";"Bâtiment"; 21.0;"ORANGE Services Fixes"
547543;4.43333;45.38472;"04° 26' 00.00'' Est, 45° 23' 05.00'' Nord";"42172";"NEYRANCHE";"STATION TDF OUEST DE PLANFOY";"42660";"PLANFOY";"Pylône autostable"; 28.0;"TDF"
547808;4.52583;45.31722;"04° 31' 33.00'' Est, 45° 19' 02.00'' Nord";"42329";"LE BOURG";;"42220";"LA VERSANNE";"Bâtiment"; 5.0;"Particulier"
547875;4.56167;45.27944;"04° 33' 42.00'' Est, 45° 16' 46.00'' Nord";"42028";"LES LOUAVES";;"42220";"BURDIGNES";"Pylône autostable"; 32.0;"DDE"
547885;4.66889;45.55889;"04° 40' 08.00'' Est, 45° 33' 32.00'' Nord";"42307";"DARGOIRE - LE CRY";;"42800";"TARTARAS";"Pylône autostable"; 34.0;"TDF"
548699;4.48194;45.44667;"04° 28' 55.00'' Est, 45° 26' 48.00'' Nord";"42207";"LA PEROLIERE";"C.R N°27";"42400";"SAINT-CHAMOND";"Pylône autostable"; 24.0;"ORANGE"
550629;4.68278;45.41806;"04° 40' 58.00'' Est, 45° 25' 05.00'' Nord";"42168";;"PL NOTRE DAME EGLISE";"42410";"PELUSSIN";"Monument religieux"; 31.0;"Commune, communauté de commune"
552450;4.67194;45.35639;"04° 40' 19.00'' Est, 45° 21' 23.00'' Nord";"42129";"LES JACQUARDS";"USINE JUSTIN BRIDOU";"42520";"MACLAS";"Bâtiment"; 32.0;"Société Privée SA"
556715;4.39556;45.42722;"04° 23' 44.00'' Est, 45° 25' 38.00'' Nord";"42218";;"39 BD VALBENOITE";"42000";"SAINT-ETIENNE";"Immeuble"; 23.0;"Copropriété, Syndic, SCI"
558042;4.38361;45.45889;"04° 23' 01.00'' Est, 45° 27' 32.00'' Nord";"42218";;"38 R POYLO";"42000";"SAINT-ETIENNE";"Immeuble"; 42.0;"Société HLM"
558131;4.27472;45.52611;"04° 16' 29.00'' Est, 45° 31' 34.00'' Nord";"42005";"VORZELIÈRE SUD";"R AMPÈRE RÉSERVOIR D'EAU";"42160";"ANDREZIEUX-BOUTHEON";"Château d'eau - réservoir"; 45.8;"Syndicat des eaux, Adduction"
559355;4.48806;45.31861;"04° 29' 17.00'' Est, 45° 19' 07.00'' Nord";"42329";"LES BLACHES";;"42220";"LA VERSANNE";"Pylône autostable"; 32.3;"TDF"
559395;4.15417;45.68306;"04° 09' 15.00'' Est, 45° 40' 59.00'' Nord";"42041";;"AIRE DE REPOS DE LA PLAINE DU FOREZ OUEST A 72";"42110";"CHAMBEON";"Pylône autostable"; 40.0;"Sociétés d'Autoroutes"
565950;4.00278;45.75083;"04° 00' 10.00'' Est, 45° 45' 03.00'' Nord";"42019";"LES BOULARDES";;"42130";"BOEN";"Pylône autostable"; 20.0;"HIVORY"
566640;4.46500;45.47111;"04° 27' 54.00'' Est, 45° 28' 16.00'' Nord";"42237";"RÉSERVOIR DE MONTAUD VC 137";;"42650";"SAINT-JEAN-BONNEFONDS";"Pylône autostable"; 25.0;"ORANGE"
571067;4.61139;45.52556;"04° 36' 41.00'' Est, 45° 31' 32.00'' Nord";"42186";;"65D ET 65E R PÉTRUS RICHARME";"42800";"RIVE-DE-GIER";"Immeuble"; 19.0;"Société HLM"
572007;4.61139;45.39250;"04° 36' 41.00'' Est, 45° 23' 33.00'' Nord";"42085";"CRET DE L'OEILLON";"MONT PILAT";"42740";"DOIZIEUX";"Bâtiment"; 22.0;"TDF"
574272;4.07194;46.04028;"04° 04' 19.00'' Est, 46° 02' 25.00'' Nord";"42187";;"8 PL DE LATTRE DE TASSIGNY R D'HARCOURT LE CHATEAU DE ROANNE";"42300";"ROANNE";"Bâtiment"; 26.0;"Commune, communauté de commune"
574910;4.40667;45.43806;"04° 24' 24.00'' Est, 45° 26' 17.00'' Nord";"42218";;"16 R DE L' ISÉRABLE";"42000";"SAINT-ETIENNE";"Immeuble"; 29.5;"Copropriété, Syndic, SCI"
574919;4.43417;45.43333;"04° 26' 03.00'' Est, 45° 25' 60.00'' Nord";"42218";;"7, ALLÉE MATHIEU MURGUE ENTREPRISE BERNARD BONNEFOND";"42000";"SAINT-ETIENNE";"Bâtiment"; 19.0;"Particulier"
574964;4.35250;45.46333;"04° 21' 09.00'' Est, 45° 27' 48.00'' Nord";"42330";"ROCHEFOY";"TERRAIN COMMUNAL - STADE DE VILLARS";"42390";"VILLARS";"Pylône tubulaire"; 23.0;"HIVORY"
576536;4.35556;45.43056;"04° 21' 20.00'' Est, 45° 25' 50.00'' Nord";"42223";"MONTSALSON";"LES CHAMPONNIÈRES";"42530";"SAINT-GENEST-LERPT";"Pylône autostable"; 20.3;"HIVORY"
577332;4.38750;45.46278;"04° 23' 15.00'' Est, 45° 27' 46.00'' Nord";"42218";;"7 BD DES FRERES GAUTHIER TRIBUNE STADE HENRI LUX";"42000";"SAINT-ETIENNE";"Bâtiment"; 35.0;"Commune, communauté de commune"
577647;4.38944;45.43972;"04° 23' 22.00'' Est, 45° 26' 23.00'' Nord";"42218";;"12 R BLANQUI HOTEL TENOR";"42000";"SAINT-ETIENNE";"Immeuble"; 34.0;"Copropriété, Syndic, SCI"
579279;4.38556;45.44500;"04° 23' 08.00'' Est, 45° 26' 42.00'' Nord";"42218";;"34 R CHARLES DE GAULLE";"42000";"SAINT-ETIENNE";"Immeuble"; 25.0;"Copropriété, Syndic, SCI"
583104;4.39250;45.43472;"04° 23' 33.00'' Est, 45° 26' 05.00'' Nord";"42218";;"PL CHAVANELLE PARKING CHAVANELLE";"42000";"SAINT-ETIENNE";"Mât"; 2.0;"Particulier"
583106;4.38750;45.43889;"04° 23' 15.00'' Est, 45° 26' 20.00'' Nord";"42218";;"PL DE L'HOTEL DE VILLE PARKING HOTEL DE VILLE";"42000";"SAINT-ETIENNE";"Mât"; 2.0;"Particulier"
590070;4.47278;45.42333;"04° 28' 22.00'' Est, 45° 25' 24.00'' Nord";"42218";;"SALVARIS LES CRETS ROCHETAILLEE";"42000";"SAINT-ETIENNE";"Pylône autostable"; 40.0;"Société Privée SA"
591292;4.13111;45.40722;"04° 07' 52.00'' Est, 45° 24' 26.00'' Nord";"42001";"PASCAL";"RTE DÉPARTEMENTALE 3";"42380";"ABOEN";"Pylône autostable"; 31.0;"ORANGE"
597196;4.39556;45.45333;"04° 23' 44.00'' Est, 45° 27' 12.00'' Nord";"42218";;"12 R JEAN SERVANTON";"42000";"SAINT-ETIENNE";"Pylône tubulaire"; 20.0;"HIVORY"
599088;4.41083;45.41750;"04° 24' 39.00'' Est, 45° 25' 03.00'' Nord";"42218";;"12 BD ALEXANDRE DE FRAISSINETTE";"42000";"SAINT-ETIENNE";"Immeuble"; 37.0;"Société HLM"
603797;3.78306;45.79278;"03° 46' 59.00'' Est, 45° 47' 34.00'' Nord";"42238";"LE PUY DE ROT";;"42440";"SAINT-JEAN-LA-VETRE";"Pylône autostable"; 25.0;"TDF"
607701;4.38750;45.43861;"04° 23' 15.00'' Est, 45° 26' 19.00'' Nord";"42218";;"PL DE L HOTEL DE VILLE PARKING DE L HOTEL DE VILL";"42000";"SAINT-ETIENNE";"Bâtiment"; 1.0;"Particulier"
607889;4.44528;45.30556;"04° 26' 43.00'' Est, 45° 18' 20.00'' Nord";"42280";"MONT CHAUSSITRE";;"42660";"SAINT-REGIS-DU-COIN";"Pylône autostable"; 45.0;"TDF"
608911;4.39250;45.43417;"04° 23' 33.00'' Est, 45° 26' 03.00'' Nord";"42218";;"PL CHAVANELLE PARKING CHAVANELLE";"42000";"SAINT-ETIENNE";"Bâtiment"; 1.0;"Particulier"
608921;4.18472;45.73833;"04° 11' 05.00'' Est, 45° 44' 18.00'' Nord";"42066";"LES MARAIS";"PÉAGE - SORTIE N°6 - A72";"42110";"CLEPPE";"Pylône autostable"; 40.0;"Sociétés d'Autoroutes"
608940;4.22806;45.97139;"04° 13' 41.00'' Est, 45° 58' 17.00'' Nord";"42118";"LE BRET";;"42470";"LAY";"Pylône autostable"; 20.0;"ORANGE"
609108;4.44861;45.32528;"04° 26' 55.00'' Est, 45° 19' 31.00'' Nord";"42224";"LES CHOMEYS";"RÉSERVOIR";"42660";"SAINT-GENEST-MALIFAUX";"Pylône autostable"; 18.0;"ORANGE"
611241;4.06639;46.06639;"04° 03' 59.00'' Est, 46° 03' 59.00'' Nord";"42127";;"62, R DE LA FONTAINE CITÉ MABLY";"42300";"MABLY";"Pylône autostable"; 42.0;"ORANGE Services Fixes"
612683;4.36028;45.41889;"04° 21' 37.00'' Est, 45° 25' 08.00'' Nord";"42183";"CHAUCOMBET";;"42150";"LA RICAMARIE";"Pylône haubané"; 20.0;"Particulier"
614480;4.05194;46.14611;"04° 03' 07.00'' Est, 46° 08' 46.00'' Nord";"42016";"LE BOIS CULÉ";;"42720";"LA BENISSON-DIEU";"Pylône autostable"; 43.0;"Conseil Départemental"
619940;4.36472;45.53667;"04° 21' 53.00'' Est, 45° 32' 12.00'' Nord";"42234";"SALETTE";;"42570";"SAINT-HEAND";"Pylône autostable"; 20.0;"ORANGE Services Fixes"
621883;4.39667;45.64250;"04° 23' 48.00'' Est, 45° 38' 33.00'' Nord";"42059";;"R DE LYON CHÂTEAU D'EAU";"42140";"CHAZELLES-SUR-LYON";"Château d'eau - réservoir"; 26.2;"Syndicat des eaux, Adduction"
629151;3.83667;46.04167;"03° 50' 12.00'' Est, 46° 02' 30.00'' Nord";"42158";"LA BÉRICHE EST";"CHEM DE CAMPAGNE";"42370";"LES NOES";"Pylône autostable"; 30.4;"HIVORY"
632888;4.29722;45.47083;"04° 17' 50.00'' Est, 45° 28' 15.00'' Nord";"42279";"MEZIEUX";;"42170";"SAINT-JUST-SAINT-RAMBERT";"Pylône autostable"; 18.0;"HIVORY"
634380;4.38417;45.42667;"04° 23' 03.00'' Est, 45° 25' 36.00'' Nord";"42218";;"18 R MONTFERRÉ";"42000";"SAINT-ETIENNE";"Immeuble"; 14.9;"Copropriété, Syndic, SCI"
636043;3.94556;45.98194;"03° 56' 44.00'' Est, 45° 58' 55.00'' Nord";"42331";"VIGNES VAQUES";;"42155";"VILLEMONTAIS";"Pylône autostable"; 24.0;"ORANGE"
642181;4.61250;45.52556;"04° 36' 45.00'' Est, 45° 31' 32.00'' Nord";"42186";;"65 D R PÉTRUS RICHARME";"42800";"RIVE-DE-GIER";"Immeuble"; 50.1;"Société HLM"
644164;4.11472;45.57306;"04° 06' 53.00'' Est, 45° 34' 23.00'' Nord";"42285";"LES TOURETTES HAUTES";;"42610";"SAINT-ROMAIN-LE-PUY";"Pylône autostable"; 15.0;"ORANGE"
645498;4.18861;45.81778;"04° 11' 19.00'' Est, 45° 49' 04.00'' Nord";"42011";"LA TUILERIE";"BD DE LA TUILERIE CSE DES POMPIERS";"42510";"BALBIGNY";"Bâtiment"; 36.0;"Commune, communauté de commune"
647321;4.23611;45.89417;"04° 14' 10.00'' Est, 45° 53' 39.00'' Nord";"42249";"CHEZ MARCELIN";"STADE - CTRE SOCIAL";"42540";"SAINT-JUST-LA-PENDUE";"Pylône autostable"; 32.0;"HIVORY"
649026;4.42194;45.39833;"04° 25' 19.00'' Est, 45° 23' 54.00'' Nord";"42172";"FISSEMAGNE";"CHEM RURAL";"42660";"PLANFOY";"Pylône autostable"; 20.0;"ORANGE"
649914;4.34333;45.47389;"04° 20' 36.00'' Est, 45° 28' 26.00'' Nord";"42330";;"CHEM DE MONTRAVEL";"42390";"VILLARS";"Bâtiment"; 10.0;"Particulier"
651326;4.62083;45.53333;"04° 37' 15.00'' Est, 45° 31' 60.00'' Nord";"42186";"MONTJOINT - PLAISANCE";"CH DE COMBELIBERT";"42800";"RIVE-DE-GIER";"Pylône autostable"; 30.0;"TDF"
651359;4.37167;45.43750;"04° 22' 18.00'' Est, 45° 26' 15.00'' Nord";"42218";;"R EMILE DESCHANEL";"42000";"SAINT-ETIENNE";"Pylône autostable"; 24.0;"TDF"
651374;4.26472;45.45333;"04° 15' 53.00'' Est, 45° 27' 12.00'' Nord";"42218";"CONDAMINE-CLINIC ST-VICT";;"42000";"SAINT-ETIENNE";"Bâtiment"; 16.0;"TDF"
651414;4.59806;45.53694;"04° 35' 53.00'' Est, 45° 32' 13.00'' Nord";"42259";"LE MUNAT";"RTE DU MUNAT";"42800";"SAINT-MARTIN-LA-PLAINE";"Pylône autostable"; 17.5;"TDF"
653832;3.97889;45.93556;"03° 58' 44.00'' Est, 45° 56' 08.00'' Nord";"42027";"LES CARRIÈRES";"LAMURE";"42260";"BULLY";"Pylône autostable"; 24.0;"ORANGE"
655517;4.35917;45.44778;"04° 21' 33.00'' Est, 45° 26' 52.00'' Nord";"42218";;"22 R CHARLES LONGUET MARBRERIE PUDELKO";"42000";"SAINT-ETIENNE";"Pylône tubulaire"; 15.0;"HIVORY"
660858;4.62139;45.31639;"04° 37' 17.00'' Est, 45° 18' 59.00'' Nord";"42246";"LES MANISSOLS";;"42220";"SAINT-JULIEN-MOLIN-MOLETTE";"Pylône autostable"; 15.2;"ORANGE"
661190;3.91944;45.98444;"03° 55' 10.00'' Est, 45° 59' 04.00'' Nord";"42061";"STE AGATHE";;"42430";"CHERIER";"Pylône autostable"; 37.0;"Towercast"
661194;4.28778;45.39083;"04° 17' 16.00'' Est, 45° 23' 27.00'' Nord";"42095";;"6 PL DU CTRE";"42700";"FIRMINY";"Immeuble"; 34.0;"Société HLM"
664397;4.58444;45.43167;"04° 35' 04.00'' Est, 45° 25' 54.00'' Nord";"42085";"MAUCHAMP";;"42740";"DOIZIEUX";"Pylône autostable"; 25.0;"TDF"
664981;4.37750;45.45556;"04° 22' 39.00'' Est, 45° 27' 20.00'' Nord";"42218";;"2 R DE MONTAIGNE TOUR DE BEL AIR";"42000";"SAINT-ETIENNE";"Immeuble"; 56.0;"Société HLM"
667577;3.74472;45.84278;"03° 44' 41.00'' Est, 45° 50' 34.00'' Nord";"42159";"LA DUROLLE";"CHEM DE L' AIRE";"42440";"NOIRETABLE";"Pylône autostable"; 20.0;"Particulier"
668492;4.18361;45.40278;"04° 11' 01.00'' Est, 45° 24' 10.00'' Nord";"42262";;"RUE DES HOSPICES BOURG";"42240";"SAINT-MAURICE-EN-GOURGOIS";"Pylône autostable"; 18.0;"ORANGE Services Fixes"
671955;4.38111;45.45083;"04° 22' 52.00'' Est, 45° 27' 03.00'' Nord";"42218";;"3 BD LOUIS LUMIÈRE CITÉ NOUVELLE";"42000";"SAINT-ETIENNE";"Immeuble"; 50.5;"Société HLM"
679423;4.38583;45.43056;"04° 23' 09.00'' Est, 45° 25' 50.00'' Nord";"42218";"BEAUBRUN";"20 R FRANKLIN RES RPA - BEL HORIZON";"42000";"SAINT-ETIENNE";"Immeuble"; 21.0;"Société HLM"
684339;4.16278;45.91389;"04° 09' 46.00'' Est, 45° 54' 50.00'' Nord";"42156";"VILLECHAISE";;"42590";"NEULISE";"Pylône autostable"; 21.0;"ORANGE"
686920;4.41833;45.35111;"04° 25' 06.00'' Est, 45° 21' 04.00'' Nord";"42224";"MAGNOLOUX";;"42660";"SAINT-GENEST-MALIFAUX";"Pylône tubulaire"; 27.0;"TDF"
687302;4.23639;46.03389;"04° 14' 11.00'' Est, 46° 02' 02.00'' Nord";"42145";"LE BOURG";"R DE LAGRESLE";"42840";"MONTAGNY";"Pylône autostable"; 37.0;"ORANGE Services Fixes"
688293;4.14278;45.78333;"04° 08' 34.00'' Est, 45° 46' 60.00'' Nord";"42143";"CHEZ DUMAS";"PROCHE MENUISERIE ACCÈS DE SERVICE (RD 5)";"42110";"MIZERIEUX";"Pylône autostable"; 44.0;"Sociétés d'Autoroutes"
693470;4.37722;45.41611;"04° 22' 38.00'' Est, 45° 24' 58.00'' Nord";"42218";;"91 R FLORENT EVRARD - SCR";"42000";"SAINT-ETIENNE";"Pylône autostable"; 15.0;"ORANGE"
695305;4.38194;45.44222;"04° 22' 55.00'' Est, 45° 26' 32.00'' Nord";"42218";"JACQUART";"18-20 PL JACQUARD";"42000";"SAINT-ETIENNE";"Immeuble"; 24.1;"Copropriété, Syndic, SCI"
697815;4.42194;45.42750;"04° 25' 19.00'' Est, 45° 25' 39.00'' Nord";"42218";;"69 R JEAN PAROT RÉSIDENCE LES LAURIERS";"42000";"SAINT-ETIENNE";"Immeuble"; 30.0;"Société HLM"
697822;4.40500;45.42750;"04° 24' 18.00'' Est, 45° 25' 39.00'' Nord";"42218";;"ALLÉE DES CYCLES 35 R PONTCHARDIER";"42000";"SAINT-ETIENNE";"Immeuble"; 36.0;"Copropriété, Syndic, SCI"
697843;4.41500;45.43667;"04° 24' 54.00'' Est, 45° 26' 12.00'' Nord";"42218";"MONTHIEU";"1C R NARVICK LES CITÉS JARDINS";"42000";"SAINT-ETIENNE";"Immeuble"; 43.0;"Société HLM"
697858;4.41389;45.45917;"04° 24' 50.00'' Est, 45° 27' 33.00'' Nord";"42218";;"ALLÉE ROGER JACQUEMOT PARC DES SPORTS DE MÉONS";"42000";"SAINT-ETIENNE";"Pylône autostable"; 13.0;"ORANGE"
697868;4.36583;45.43000;"04° 21' 57.00'' Est, 45° 25' 48.00'' Nord";"42218";"LE PETIT BOURBON";"R EMILE DESCHANEL PYLÔNE RADIO ESPÉRANCE";"42000";"SAINT-ETIENNE";"Pylône autostable"; 27.0;"Titulaire programme Radio/TV"
697871;4.39528;45.43944;"04° 23' 43.00'' Est, 45° 26' 22.00'' Nord";"42218";;"63 R DE LA RÉPUBLIQUE";"42000";"SAINT-ETIENNE";"Immeuble"; 32.0;"Société HLM"
697912;4.38222;45.44250;"04° 22' 56.00'' Est, 45° 26' 33.00'' Nord";"42218";"JACQUART";"R PIERRE BARALLON 2 R BENOÎT MALON";"42000";"SAINT-ETIENNE";"Immeuble"; 26.0;"Copropriété, Syndic, SCI"
697918;4.40083;45.41722;"04° 24' 03.00'' Est, 45° 25' 02.00'' Nord";"42218";"LE REZ";"51 AV. DE ROCHETAILLÉE R PIERRE COPEL";"42000";"SAINT-ETIENNE";"Immeuble"; 22.0;"Copropriété, Syndic, SCI"
697926;4.41000;45.42306;"04° 24' 36.00'' Est, 45° 25' 23.00'' Nord";"42218";;"101 COURS FAURIEL POLYCLINIQUE DE BEAULIEU";"42000";"SAINT-ETIENNE";"Bâtiment"; 23.0;"Copropriété, Syndic, SCI"
697930;4.42278;45.44444;"04° 25' 22.00'' Est, 45° 26' 40.00'' Nord";"42218";;"29 R EMILE ZOLA";"42000";"SAINT-ETIENNE";"Bâtiment"; 9.0;"Copropriété, Syndic, SCI"
698444;4.38667;45.41000;"04° 23' 12.00'' Est, 45° 24' 36.00'' Nord";"42218";;"12 R BOSSUET";"42000";"SAINT-ETIENNE";"Immeuble"; 18.0;"Copropriété, Syndic, SCI"
698448;4.40000;45.41278;"04° 24' 00.00'' Est, 45° 24' 46.00'' Nord";"42218";;"14 R BONNASSIEUX";"42000";"SAINT-ETIENNE";"Immeuble"; 29.0;"Société HLM"
698463;4.39444;45.41889;"04° 23' 40.00'' Est, 45° 25' 08.00'' Nord";"42218";"BELLEVUE";"14 R BERAUD";"42000";"SAINT-ETIENNE";"Immeuble"; 30.0;"Société HLM"
701667;4.38528;45.44694;"04° 23' 07.00'' Est, 45° 26' 49.00'' Nord";"42218";;"GARE SNCF DE ST ETIENNE CARNOT";"42000";"SAINT-ETIENNE";"Bâtiment"; 23.0;"SNCF Réseau"
701708;4.39750;45.45667;"04° 23' 51.00'' Est, 45° 27' 24.00'' Nord";"42218";;"24 R DE LA ROBOTIQUE";"42000";"SAINT-ETIENNE";"Bâtiment"; 25.0;"Société Privée SA"
701719;4.39278;45.43167;"04° 23' 34.00'' Est, 45° 25' 54.00'' Nord";"42218";;"12 R. ANTOINE DURAFOUR";"42000";"SAINT-ETIENNE";"Immeuble"; 21.0;"Copropriété, Syndic, SCI"
701727;4.38722;45.40889;"04° 23' 14.00'' Est, 45° 24' 32.00'' Nord";"42218";;"7 R BOSSUET";"42000";"SAINT-ETIENNE";"Bâtiment"; 50.0;"Société HLM"
701733;4.38972;45.43528;"04° 23' 23.00'' Est, 45° 26' 07.00'' Nord";"42218";;"30 R JOSÉ FRAPPA";"42000";"SAINT-ETIENNE";"Immeuble"; 31.0;"Copropriété, Syndic, SCI"
701745;4.39167;45.46167;"04° 23' 30.00'' Est, 45° 27' 42.00'' Nord";"42218";;"105 R DE L'INNOVATION CHEMÉE SCI DU MARAIS ALLÉE DU PÈRE CHOSSONNERIE";"42000";"SAINT-ETIENNE";"Pylône tubulaire"; 40.0;"Société Privée SA"
701752;4.41972;45.43361;"04° 25' 11.00'' Est, 45° 26' 01.00'' Nord";"42218";;"56 R BAUDIN FOYER AGFA";"42000";"SAINT-ETIENNE";"Immeuble"; 21.6;"Société HLM"
701756;4.36861;45.43722;"04° 22' 07.00'' Est, 45° 26' 14.00'' Nord";"42218";;"12 R EMILE DESCHANEL";"42000";"SAINT-ETIENNE";"Pylône autostable"; 17.8;"HIVORY"
701771;4.44139;45.42972;"04° 26' 29.00'' Est, 45° 25' 47.00'' Nord";"42218";"LA PERROTIÈRE - TERRENOIRE";"22 R DES ANCIENS COMBATTANTS D'ALGÉRIE";"42000";"SAINT-ETIENNE";"Immeuble"; 27.0;"Société HLM"
701778;4.39444;45.43333;"04° 23' 40.00'' Est, 45° 25' 60.00'' Nord";"42218";;"18 R DE L'EPREUVE";"42000";"SAINT-ETIENNE";"Immeuble"; 25.0;"Société HLM"
704000;4.38806;45.43861;"04° 23' 17.00'' Est, 45° 26' 19.00'' Nord";"42218";;"13 PL DE L'HOTEL DE VILLE";"42000";"SAINT-ETIENNE";"Immeuble"; 26.4;"Copropriété, Syndic, SCI"
704009;4.44222;45.43778;"04° 26' 32.00'' Est, 45° 26' 16.00'' Nord";"42218";;"54 R DES HAUTS DE TERRENOIRE";"42000";"SAINT-ETIENNE";"Immeuble"; 21.0;"Société HLM"
704032;4.40306;45.43833;"04° 24' 11.00'' Est, 45° 26' 18.00'' Nord";"42218";;"34 R DE LA RICHELANDIÈRE";"42000";"SAINT-ETIENNE";"Immeuble"; 21.0;"Société HLM"
704035;4.38222;45.44500;"04° 22' 56.00'' Est, 45° 26' 42.00'' Nord";"42218";;"36 R JULES LEDIN";"42000";"SAINT-ETIENNE";"Immeuble"; 26.0;"Copropriété, Syndic, SCI"
704043;4.36611;45.43472;"04° 21' 58.00'' Est, 45° 26' 05.00'' Nord";"42218";;"R CLAUDIUS RACODON DÉCHETTERIE";"42000";"SAINT-ETIENNE";"Mât béton"; 12.0;"ATC FRANCE"
704045;4.37889;45.42778;"04° 22' 44.00'' Est, 45° 25' 40.00'' Nord";"42218";;"23 R ALFRED COLOMBET";"42000";"SAINT-ETIENNE";"Immeuble"; 10.0;"Copropriété, Syndic, SCI"
704047;4.36583;45.42611;"04° 21' 57.00'' Est, 45° 25' 34.00'' Nord";"42218";"LE DEVEY NORD";;"42000";"SAINT-ETIENNE";"Pylône autostable"; 41.0;"EDF ou GDF"
706698;4.10972;46.14444;"04° 06' 35.00'' Est, 46° 08' 40.00'' Nord";"42177";;"R ALBERT GAGNOL";"42720";"POUILLY-SOUS-CHARLIEU";"Immeuble"; 21.0;"Société HLM"
706768;4.02139;46.04500;"04° 01' 17.00'' Est, 46° 02' 42.00'' Nord";"42184";"LES BÉLUZES";"IMP DES RIVIÈRES";"42153";"RIORGES";"Pylône autostable"; 18.0;"ORANGE"
713066;4.07500;45.69583;"04° 04' 30.00'' Est, 45° 41' 45.00'' Nord";"42150";;"MONT D UZORE";"42130";"MONTVERDUN";"Pylône tubulaire"; 15.0;"Particulier"
714088;4.29806;46.00333;"04° 17' 53.00'' Est, 46° 00' 12.00'' Nord";"42293";"PÉRICARD";"CHEM RURAL EMPIERRÉ DU PÉRICARD";"42630";"SAINT-VICTOR-SUR-RHINS";"Pylône autostable"; 35.0;"Conseil Départemental"
715416;3.98889;45.85972;"03° 59' 20.00'' Est, 45° 51' 35.00'' Nord";"42243";"LA GOUTTE-NORD";"A 89 - PK 73 SENS LYON-PARIS";"42260";"SAINT-JULIEN-D'ODDES";"Pylône autostable"; 55.0;"Sociétés d'Autoroutes"
716909;4.11472;46.10361;"04° 06' 53.00'' Est, 46° 06' 13.00'' Nord";"42338";;"R DE CHARLIEU STATION D'ÉPURATION";"42720";"VOUGY";"Pylône autostable"; 21.0;"ORANGE"
718854;4.22806;45.72167;"04° 13' 41.00'' Est, 45° 43' 18.00'' Nord";"42094";;"RTE DE ST ETIENNE-CCAL CARREFOUR";"42110";"FEURS";"Bâtiment"; 10.0;"Copropriété, Syndic, SCI"
719236;3.82556;46.20583;"03° 49' 32.00'' Est, 46° 12' 21.00'' Nord";"42257";"VERS LES COMBES";"7 V COMMUNALE";"42620";"SAINT-MARTIN-D'ESTREAUX";"Pylône autostable"; 13.6;"TDF"
719259;3.78833;46.21972;"03° 47' 18.00'' Est, 46° 13' 11.00'' Nord";"42257";"VILLARD";;"42620";"SAINT-MARTIN-D'ESTREAUX";"Pylône autostable"; 22.1;"TDF"
719742;4.58056;45.51722;"04° 34' 50.00'' Est, 45° 31' 02.00'' Nord";"42123";"LE CHATELARD";;"42420";"LORETTE";"Pylône autostable"; 12.0;"SFR"
724519;4.33361;45.40222;"04° 20' 01.00'' Est, 45° 24' 08.00'' Nord";"42044";"ANGELIN";"SITE ITAS TIM";"42500";"LE CHAMBON-FEUGEROLLES";"Pylône autostable"; 24.0;"TDF"
725950;4.32583;45.45639;"04° 19' 33.00'' Est, 45° 27' 23.00'' Nord";"42223";"RIVOIRE";"ALLÉE DES BOIS RTE DU PIALON";"42530";"SAINT-GENEST-LERPT";"Pylône autostable"; 27.0;"ORANGE"
726017;4.14056;45.93306;"04° 08' 26.00'' Est, 45° 55' 59.00'' Nord";"42325";"LES CERISES";;"42590";"VENDRANGES";"Pylône autostable"; 32.0;"TDF"
726257;4.17917;46.16944;"04° 10' 45.00'' Est, 46° 10' 10.00'' Nord";"42052";"MONTROCHET";"SITE ITAS TIM";"42190";"CHARLIEU";"Pylône autostable"; 42.0;"TDF"
726358;4.06750;45.42361;"04° 04' 03.00'' Est, 45° 25' 25.00'' Nord";"42204";"LA COLLÉGIALE";"R DU GÉNACLE";"42380";"SAINT-BONNET-LE-CHATEAU";"Monument religieux"; 31.4;"Commune, communauté de commune"
729562;4.04722;46.06167;"04° 02' 50.00'' Est, 46° 03' 42.00'' Nord";"42184";;"R EDOUARD BRANLY ZI DE BEAUCEUIL";"42153";"RIORGES";"Pylône haubané"; 20.0;"DDE"
729674;4.40806;45.53139;"04° 24' 29.00'' Est, 45° 31' 53.00'' Nord";"42234";"PIERRE DE LA BAUCHE";;"42570";"SAINT-HEAND";"Pylône autostable"; 17.0;"ORANGE Services Fixes"
731015;4.44167;45.55167;"04° 26' 30.00'' Est, 45° 33' 06.00'' Nord";"42096";"AUX SEPT PINS";"CHÂTEAU D'EAU";"42140";"FONTANES";"Château d'eau - réservoir"; 22.0;"Syndicat des eaux, Adduction"
732459;4.40778;45.53139;"04° 24' 28.00'' Est, 45° 31' 53.00'' Nord";"42234";"LA PIERRE DE LA BAUCHE";"LA PIERRE BAUCHE";"42570";"SAINT-HEAND";"Pylône autostable"; 36.0;"EDF ou GDF"
737736;4.00361;45.74611;"04° 00' 13.00'' Est, 45° 44' 46.00'' Nord";"42019";;"74 R DE CLERMONT";"42130";"BOEN";"Bâtiment"; 10.0;"Particulier"
739689;4.00972;45.83361;"04° 00' 35.00'' Est, 45° 50' 01.00'' Nord";"42230";"LES RAMEAUX";"PL DU POINT DU JOUR";"42260";"SAINT-GERMAIN-LAVAL";"Pylône autostable"; 30.0;"ORANGE Services Fixes"
739719;4.06778;46.03167;"04° 04' 04.00'' Est, 46° 01' 54.00'' Nord";"42187";;"R BRISON EGLISE ST LOUIS";"42300";"ROANNE";"Monument religieux"; 27.0;"Commune, communauté de commune"
740807;3.94667;45.41167;"03° 56' 48.00'' Est, 45° 24' 42.00'' Nord";"42318";"LE TRÉMOLET OUEST";;"42550";"USSON-EN-FOREZ";"Pylône autostable"; 36.2;"ORANGE"
740836;4.35389;45.72111;"04° 21' 14.00'' Est, 45° 43' 16.00'' Nord";"42261";;"LE BOURG EGLISE";"42110";"SAINT-MARTIN-LESTRA";"Monument religieux"; 43.0;"Commune, communauté de commune"
741557;4.08750;46.03361;"04° 05' 15.00'' Est, 46° 02' 01.00'' Nord";"42071";"PINCOURT";"24 QUAI DU GÉNÉRAL LECLERC";"42120";"LE COTEAU";"Pylône autostable"; 45.0;"RTE"
768442;4.36917;45.56694;"04° 22' 09.00'' Est, 45° 34' 01.00'' Nord";"42010";"LA CREUSE";"STADE COMMUNAL";"42330";"AVEIZIEUX";"Pylône tubulaire"; 25.0;"ORANGE"
770820;4.07000;46.02694;"04° 04' 12.00'' Est, 46° 01' 37.00'' Nord";"42187";;"26 R ANTOINE CHAPERON";"42300";"ROANNE";"Bâtiment"; 45.0;"Société Privée SA"
778397;4.51333;45.40639;"04° 30' 48.00'' Est, 45° 24' 23.00'' Nord";"42322";"LA SURCHETTE";;"42131";"LA VALLA-EN-GIER";"Pylône autostable"; 28.0;"ATC FRANCE"
785150;4.54889;45.51750;"04° 32' 56.00'' Est, 45° 31' 03.00'' Nord";"42032";"LE CRÊT DE CHARME";;"42320";"CELLIEU";"Pylône autostable"; 23.0;"ORANGE"
786251;4.07333;45.60694;"04° 04' 24.00'' Est, 45° 36' 25.00'' Nord";"42147";;"43, R REPUBLIQUE";"42600";"MONTBRISON";"Bâtiment"; 34.0;"ORANGE Services Fixes"
786259;4.30556;45.49444;"04° 18' 20.00'' Est, 45° 29' 40.00'' Nord";"42097";"LA BIELLE";;"42480";"LA FOUILLOUSE";"Pylône autostable"; 10.0;"Etat, Ministère"
786268;4.56167;45.50556;"04° 33' 42.00'' Est, 45° 30' 20.00'' Nord";"42103";"LE CHÊNE COMBÉRIGOL";"PUITS PINET";"42320";"LA GRAND-CROIX";"Pylône autostable"; 24.0;"ORANGE Services Fixes"
786287;3.97694;46.03000;"03° 58' 37.00'' Est, 46° 01' 48.00'' Nord";"42176";"LE PRECHARD";"CHEM DE LA BIGOTIÈRE D18";"42155";"POUILLY-LES-NONAINS";"Pylône autostable"; 30.0;"ORANGE"
786289;4.52472;45.49111;"04° 31' 29.00'' Est, 45° 29' 28.00'' Nord";"42207";;"RTE DU CRÊT D'OEILLET Z.I. STELYTEC";"42400";"SAINT-CHAMOND";"Pylône autostable"; 26.0;"ORANGE"
786293;3.81639;46.20250;"03° 48' 59.00'' Est, 46° 12' 09.00'' Nord";"42257";"LES JUSTICES";"AUX JUSTICES";"42620";"SAINT-MARTIN-D'ESTREAUX";"Pylône autostable"; 40.0;"HIVORY"
786303;4.25583;45.61694;"04° 15' 21.00'' Est, 45° 37' 01.00'' Nord";"42081";"LE MOULIN";"MINOTERIE MODERNE S.A.";"42330";"CUZIEU";"Pylône autostable"; 24.0;"ORANGE"
786309;4.06472;45.43111;"04° 03' 53.00'' Est, 45° 25' 52.00'' Nord";"42204";"LE GRAVOUX";"CHEM DES PÉPINIÈRES";"42380";"SAINT-BONNET-LE-CHATEAU";"Pylône autostable"; 26.0;"ORANGE Services Fixes"
786812;4.33333;45.64000;"04° 19' 60.00'' Est, 45° 38' 24.00'' Nord";"42013";"LE BÉRON";;"42210";"BELLEGARDE-EN-FOREZ";"Pylône autostable"; 25.0;"ORANGE"
786857;4.05278;45.61194;"04° 03' 10.00'' Est, 45° 36' 43.00'' Nord";"42147";;"11 R FERNAND LÉGER";"42600";"MONTBRISON";"Immeuble"; 40.0;"Société HLM"
786863;4.44278;45.44861;"04° 26' 34.00'' Est, 45° 26' 55.00'' Nord";"42237";;"16 R J.F. REVOLLIER";"42650";"SAINT-JEAN-BONNEFONDS";"Immeuble"; 21.0;"Société HLM"
786865;4.03778;45.50556;"04° 02' 16.00'' Est, 45° 30' 20.00'' Nord";"42240";"LE BÉALET";"PYLÔNE FT";"42560";"SAINT-JEAN-SOLEYMIEUX";"Pylône autostable"; 30.0;"ORANGE Services Fixes"
786867;4.05806;46.03944;"04° 03' 29.00'' Est, 46° 02' 22.00'' Nord";"42187";;"14-24 R EMILE ZOLA";"42300";"ROANNE";"Immeuble"; 23.0;"Copropriété, Syndic, SCI"
786898;4.37917;45.40583;"04° 22' 45.00'' Est, 45° 24' 21.00'' Nord";"42183";"LA VIONNE";"64-66 R GAMBETTA";"42150";"LA RICAMARIE";"Immeuble"; 17.0;"Société HLM"
786900;4.07556;46.06417;"04° 04' 32.00'' Est, 46° 03' 51.00'' Nord";"42187";;"BD  D'ARRAS PETIT BOIS DU COLOMBIER";"42300";"ROANNE";"Château d'eau - réservoir"; 37.0;"Syndicat des eaux, Adduction"
786902;4.07250;46.03417;"04° 04' 21.00'' Est, 46° 02' 03.00'' Nord";"42187";;"PL DE L' HOTEL DE VILLE CTRE ADMINISTRATIF - MAIRIE";"42300";"ROANNE";"Bâtiment"; 26.0;"Commune, communauté de commune"
786904;4.05833;46.04667;"04° 03' 30.00'' Est, 46° 02' 48.00'' Nord";"42184";;"52 IMP CHARRONDIÈRE";"42153";"RIORGES";"Pylône autostable"; 19.5;"ORANGE"
786906;4.07472;46.03722;"04° 04' 29.00'' Est, 46° 02' 14.00'' Nord";"42187";;"1, R DE SULLY RÉSIDENCE LE GRAND SULLY";"42300";"ROANNE";"Immeuble"; 21.0;"Copropriété, Syndic, SCI"
786908;4.31111;45.91500;"04° 18' 40.00'' Est, 45° 54' 54.00'' Nord";"42128";"JEAN CLAIR";"CHEM RURAL PYLÔNE SFR";"42114";"MACHEZAL";"Pylône autostable"; 30.0;"HIVORY"
786910;4.07333;46.05194;"04° 04' 24.00'' Est, 46° 03' 07.00'' Nord";"42187";;"1 - 9 R ST CLAUDE RÉSIDENCE ALBERT THOMAS";"42300";"ROANNE";"Immeuble"; 18.0;"Société HLM"
786912;4.37972;45.46583;"04° 22' 47.00'' Est, 45° 27' 57.00'' Nord";"42275";;"6 PL MASSENET IMM GILLIER";"42270";"SAINT-PRIEST-EN-JAREZ";"Immeuble"; 34.0;"Copropriété, Syndic, SCI"
786916;4.59972;45.55611;"04° 35' 59.00'' Est, 45° 33' 22.00'' Nord";"42259";;"CHEM DE LA COMBE";"42800";"SAINT-MARTIN-LA-PLAINE";"Pylône autostable"; 12.0;"ORANGE"
786918;4.29222;45.63861;"04° 17' 32.00'' Est, 45° 38' 19.00'' Nord";"42013";"LA BASSE VANGE";"PRÉS D10";"42210";"BELLEGARDE-EN-FOREZ";"Pylône autostable"; 24.0;"HIVORY"
786920;4.42972;45.48083;"04° 25' 47.00'' Est, 45° 28' 51.00'' Nord";"42305";;"7 R MICHELET COPRO LES COLOMBIÈRES";"42350";"LA TALAUDIERE";"Immeuble"; 22.0;"Copropriété, Syndic, SCI"
786926;4.27056;45.93139;"04° 16' 14.00'' Est, 45° 55' 53.00'' Nord";"42098";"LE PLAT COUPY";"RTE DU COUPY";"42470";"FOURNEAUX";"Pylône autostable"; 14.0;"TDF"
786932;4.58250;45.54306;"04° 34' 57.00'' Est, 45° 32' 35.00'' Nord";"42259";"BEAULIEU";"CHEM RURAL";"42800";"SAINT-MARTIN-LA-PLAINE";"Pylône autostable"; 13.0;"ORANGE"
786934;4.03250;46.03194;"04° 01' 57.00'' Est, 46° 01' 55.00'' Nord";"42184";"CARON";"ROUTE DÉPARTEMENTALE 31";"42153";"RIORGES";"Pylône tubulaire"; 30.0;"ORANGE"
786936;4.36472;45.40528;"04° 21' 53.00'' Est, 45° 24' 19.00'' Nord";"42183";;"6 AV MAURICE THOREZ";"42150";"LA RICAMARIE";"Immeuble"; 20.0;"ORANGE"
786938;4.22917;46.10444;"04° 13' 45.00'' Est, 46° 06' 16.00'' Nord";"42112";"GATY SOUS LES PINS";"107 CHE DU RELAIS PYLONE TDF";"42460";"JARNOSSE";"Pylône autostable"; 25.0;"TDF"
786940;4.34833;45.48306;"04° 20' 54.00'' Est, 45° 28' 59.00'' Nord";"42092";"GRANGENEUVE";"RN 82";"42580";"L'ETRAT";"Pylône tubulaire"; 21.0;"ORANGE"
786952;4.28583;45.56278;"04° 17' 09.00'' Est, 45° 33' 46.00'' Nord";"42323";"LA CROIX RAPEAU";"R DU 19 MARS 1962 RÉSIDENCE PACCARD BÂTIMENT N°3";"42340";"VEAUCHE";"Immeuble"; 16.0;"Société HLM"
786957;4.06472;46.05667;"04° 03' 53.00'' Est, 46° 03' 24.00'' Nord";"42184";;"578 AV DU GÉNÉRAL DE GAULLE SCI POUDE";"42153";"RIORGES";"Pylône haubané"; 20.0;"Société Privée SA"
786967;4.09194;46.05528;"04° 05' 31.00'' Est, 46° 03' 19.00'' Nord";"42187";;"R DU PRÉSIDENT WILSON PARC DES SPORTS";"42300";"ROANNE";"Pylône autostable"; 25.0;"Commune, communauté de commune"
787015;4.04694;46.06111;"04° 02' 49.00'' Est, 46° 03' 40.00'' Nord";"42184";;"402 R CLÉMENT ADER CENTRAL FT";"42153";"RIORGES";"Immeuble"; 15.0;"ORANGE Services Fixes"
787019;4.31583;45.50000;"04° 18' 57.00'' Est, 45° 30' 00.00'' Nord";"42097";;"9 PL JOVIN BOUCHARD MAISON DE RETRAITE P. MEUNIER";"42480";"LA FOUILLOUSE";"Immeuble"; 21.6;"Etablissement de soins"
787021;4.52500;45.47694;"04° 31' 30.00'' Est, 45° 28' 37.00'' Nord";"42207";;"6 R JULES VERNE";"42400";"SAINT-CHAMOND";"Immeuble"; 18.0;"Copropriété, Syndic, SCI"
787023;4.29028;45.38417;"04° 17' 25.00'' Est, 45° 23' 03.00'' Nord";"42095";;"5 CHEM DE LA PATE";"42700";"FIRMINY";"Immeuble"; 19.0;"Société HLM"
787025;4.28278;45.39000;"04° 16' 58.00'' Est, 45° 23' 24.00'' Nord";"42095";;"9 PL CHARLES DE GAULLE";"42700";"FIRMINY";"Immeuble"; 26.0;"Société HLM"
793973;4.73361;45.41250;"04° 44' 01.00'' Est, 45° 24' 45.00'' Nord";"42056";;"R CHIRAT-IMM LA CHIORERIE";"42410";"CHAVANAY";"Immeuble"; 21.0;"Société HLM"
797837;4.04000;45.58889;"04° 02' 24.00'' Est, 45° 35' 20.00'' Nord";"42087";;"EGLISE D'ECOTAY";"42600";"ECOTAY-L'OLME";"Monument religieux"; 21.0;"Commune, communauté de commune"
807745;4.75556;45.38917;"04° 45' 20.00'' Est, 45° 23' 21.00'' Nord";"42272";"LES GRAVIERS";"AV DU RHONE CABINE PK50 CNR";"42520";"SAINT-PIERRE-DE-BOEUF";"Bâtiment"; 15.0;"Particulier"
812183;4.25972;45.44611;"04° 15' 35.00'' Est, 45° 26' 46.00'' Nord";"42218";;"CHAPELLE ST VICTOR SUR LOIRE";"42000";"SAINT-ETIENNE";"Bâtiment"; 6.0;"Commune, communauté de commune"
812795;4.40528;45.43222;"04° 24' 19.00'' Est, 45° 25' 56.00'' Nord";"42218";;"R PAILLARD RESERVOIR";"42000";"SAINT-ETIENNE";"Château d'eau - réservoir"; 24.0;"Commune, communauté de commune"
812840;4.38278;45.43556;"04° 22' 58.00'' Est, 45° 26' 08.00'' Nord";"42218";;"PL ROANNELLE";"42000";"SAINT-ETIENNE";"Immeuble"; 33.0;"Commune, communauté de commune"
812872;4.38333;45.46528;"04° 23' 00.00'' Est, 45° 27' 55.00'' Nord";"42218";;"6 R DU CHANOINE PLOTON";"42000";"SAINT-ETIENNE";"Immeuble"; 6.0;"Commune, communauté de commune"
816208;4.08500;46.07000;"04° 05' 06.00'' Est, 46° 04' 12.00'' Nord";"42127";;"34 BD DE VALMY PC SECURITE";"42300";"MABLY";"Bâtiment"; 18.0;"Société Privée SA"
816926;3.93806;45.70472;"03° 56' 17.00'' Est, 45° 42' 17.00'' Nord";"42227";"SURDIAUT";;"42990";"SAINT-GEORGES-EN-COUZAN";"Pylône autostable"; 15.0;"Conseil Départemental"
817976;4.38583;45.48361;"04° 23' 09.00'' Est, 45° 29' 01.00'' Nord";"42092";;"30 R DU 8 MAI";"42580";"L'ETRAT";"Pylône tubulaire"; 25.0;"HIVORY"
836163;4.24194;45.48167;"04° 14' 31.00'' Est, 45° 28' 54.00'' Nord";"42042";"AUX BRUYAS";"LE BRUYAT";"42170";"CHAMBLES";"Pylône autostable"; 19.5;"TDF"
839091;4.61167;45.39222;"04° 36' 42.00'' Est, 45° 23' 32.00'' Nord";"42326";"MONT PILAT";"CHEM DE L'OEILLON";"42520";"VERANNE";"Pylône autostable"; 12.0;"ORANGE Services Fixes"
849705;3.85750;45.86306;"03° 51' 27.00'' Est, 45° 51' 47.00'' Nord";"42047";"BOIS D'URFÉ";"LES CORNES D'URFÉ SITE ITAS TIM";"42430";"CHAMPOLY";"Pylône autostable"; 48.0;"TDF"
851955;4.06611;45.60944;"04° 03' 58.00'' Est, 45° 36' 34.00'' Nord";"42147";"LE CALVAIRE";;"42600";"MONTBRISON";"Bâtiment"; 10.0;"Commune, communauté de commune"
856165;4.50444;45.46583;"04° 30' 16.00'' Est, 45° 27' 57.00'' Nord";"42207";;"1 R DE LA FONTE BÉNITE";"42400";"SAINT-CHAMOND";"Immeuble"; 29.0;"Société HLM"
856287;3.95694;45.76861;"03° 57' 25.00'' Est, 45° 46' 07.00'' Nord";"42288";"CIERGUES";;"42130";"SAINT-SIXTE";"Pylône autostable"; 44.0;"TDF"
856297;4.45500;45.47722;"04° 27' 18.00'' Est, 45° 28' 38.00'' Nord";"42302";"LA PACAUTIÈRE";;"42290";"SORBIERS";"Pylône autostable"; 26.0;"HIVORY"
856305;4.36861;45.40694;"04° 22' 07.00'' Est, 45° 24' 25.00'' Nord";"42183";;"5 R DANIEL CASANOVA";"42150";"LA RICAMARIE";"Immeuble"; 22.0;"Société HLM"
856307;4.52972;45.47556;"04° 31' 47.00'' Est, 45° 28' 32.00'' Nord";"42207";;"22 BD DE FONSALA";"42400";"SAINT-CHAMOND";"Immeuble"; 41.0;"Société HLM"
857502;4.19417;45.81639;"04° 11' 39.00'' Est, 45° 48' 59.00'' Nord";"42011";;"R CLAUDIUS ROCHE COLLÈGE MICHEL DE MONTAIGNE";"42510";"BALBIGNY";"Bâtiment"; 15.0;"Etat, Ministère"
862383;4.06667;45.57222;"04° 03' 60.00'' Est, 45° 34' 20.00'' Nord";"42122";"LES LUCHÈRES";;"42600";"LEZIGNEUX";"Pylône autostable"; 33.0;"TDF"
865342;4.35611;45.49222;"04° 21' 22.00'' Est, 45° 29' 32.00'' Nord";"42092";;"MONT-VENTOZ";"42580";"L'ETRAT";"Pylône autostable"; 17.4;"TDF"
865417;4.21000;45.99639;"04° 12' 36.00'' Est, 45° 59' 47.00'' Nord";"42181";;"LE VIGNOBLE NORD";"42630";"REGNY";"Pylône autostable"; 20.0;"TDF"
865487;4.31250;45.49528;"04° 18' 45.00'' Est, 45° 29' 43.00'' Nord";"42097";;"LA BERTHONNIÈRE";"42480";"LA FOUILLOUSE";"Pylône autostable"; 21.0;"TDF"
866133;3.99861;45.74417;"03° 59' 55.00'' Est, 45° 44' 39.00'' Nord";"42019";"LE MAS";"ROTAGNON";"42130";"BOEN";"Pylône autostable"; 23.5;"TDF"
877264;3.93000;45.82972;"03° 55' 48.00'' Est, 45° 49' 47.00'' Nord";"42260";"LES RAPEAUX";;"42260";"SAINT-MARTIN-LA-SAUVETE";"Château d'eau - réservoir"; 30.0;"Syndicat des eaux, Adduction"
877878;4.07250;46.05306;"04° 04' 21.00'' Est, 46° 03' 11.00'' Nord";"42187";;"13 BD DU CIMETIERE IMM. LOXEL (ADOMA)";"42300";"ROANNE";"Immeuble"; 19.2;"Société HLM"
878569;4.61111;45.39250;"04° 36' 40.00'' Est, 45° 23' 33.00'' Nord";"42085";"CRET DE L'OEILLON";"MONT PILAT";"42740";"DOIZIEUX";"Tour hertzienne"; 80.0;"TDF"
879478;4.60389;45.38917;"04° 36' 14.00'' Est, 45° 23' 21.00'' Nord";"42326";"CRETE BOTTE";"VERANNE/MONT PILAT - CRET DE B";"42520";"VERANNE";"Tour de contrôle"; 40.0;"Autres"
883292;4.40806;45.53139;"04° 24' 29.00'' Est, 45° 31' 53.00'' Nord";"42234";"PIERRE DE LA BAUCHE";;"42570";"SAINT-HEAND";"Pylône autostable"; 36.0;"EDF ou GDF"
883303;3.98722;45.71139;"03° 59' 14.00'' Est, 45° 42' 41.00'' Nord";"42313";"LES GRANDES TERRES";;"42130";"TRELINS";"Pylône autostable"; 20.0;"EDF ou GDF"
884572;4.30333;45.47694;"04° 18' 12.00'' Est, 45° 28' 37.00'' Nord";"42279";"LES MURES";;"42170";"SAINT-JUST-SAINT-RAMBERT";"Pylône autostable"; 8.0;"EDF ou GDF"
886816;4.24750;45.49056;"04° 14' 51.00'' Est, 45° 29' 26.00'' Nord";"42279";;"49 CHEM DE LA CÔTE";"42170";"SAINT-JUST-SAINT-RAMBERT";"Pylône haubané"; 20.0;"Titulaire programme Radio/TV"
888319;4.06472;46.05667;"04° 03' 53.00'' Est, 46° 03' 24.00'' Nord";"42184";;"578 AV CHARLES DE GAULLE";"42153";"RIORGES";"Pylône tubulaire"; 20.0;"Particulier"
888848;4.05861;45.97750;"04° 03' 31.00'' Est, 45° 58' 39.00'' Nord";"42069";;"R CHASSIGNOL";"42120";"COMMELLE-VERNAY";"Pylône autostable"; 29.0;"Towercast"
889131;4.03667;46.01472;"04° 02' 12.00'' Est, 46° 00' 53.00'' Nord";"42332";"LA TUILERIE";;"42300";"VILLEREST";"Pylône tubulaire"; 15.0;"Titulaire programme Radio/TV"
889469;4.29667;45.39417;"04° 17' 48.00'' Est, 45° 23' 39.00'' Nord";"42095";;"ROUTE DES TROIS PONTS AGENCE D'EXPLOITATION DE L'ONDAINE";"42700";"FIRMINY";"Bâtiment"; 15.0;"EDF ou GDF"
895745;4.28111;45.37750;"04° 16' 52.00'' Est, 45° 22' 39.00'' Nord";"42095";;"IMM LE CORBUSIER";"42700";"FIRMINY";"Immeuble"; 70.0;"Société Privée SA"
897687;4.15361;45.94722;"04° 09' 13.00'' Est, 45° 56' 50.00'' Nord";"42153";"DARMEZIN";"FRAGNY FRAGNY";"42470";"NEAUX";"Pylône autostable"; 29.0;"Titulaire programme Radio/TV"
901286;3.78000;45.74361;"03° 46' 48.00'' Est, 45° 44' 37.00'' Nord";"42040";;"COL DE LA LOGE";"42440";"LA CHAMBA";"Pylône autostable"; 9.0;"Commune, communauté de commune"
902544;4.48056;45.47417;"04° 28' 50.00'' Est, 45° 28' 27.00'' Nord";"42207";"LES GRANDES BRUYÈRES";"ROUTE DE LANGONAND R.D 1498";"42400";"SAINT-CHAMOND";"Pylône autostable"; 25.0;"HIVORY"
915414;4.65111;45.53944;"04° 39' 04.00'' Est, 45° 32' 22.00'' Nord";"42053";"CENNA";"ROUTE FRANÇOIS MOUTON";"42800";"CHATEAUNEUF";"Pylône autostable"; 14.0;"RTE"
923011;4.41750;45.42861;"04° 25' 03.00'' Est, 45° 25' 43.00'' Nord";"42218";;"39 BD DE LA PALLE PARKING CHPL";"42000";"SAINT-ETIENNE";"Bâtiment"; 10.0;"Société Privée SA"
938985;4.25861;45.41250;"04° 15' 31.00'' Est, 45° 24' 45.00'' Nord";"42316";"LE DORIER";"CHEM COMMUNAL";"42240";"UNIEUX";"Pylône autostable"; 10.0;"Commune, communauté de commune"
954429;4.40806;45.53139;"04° 24' 29.00'' Est, 45° 31' 53.00'' Nord";"42234";"LA PIERRE DE LA BAUCHE";;"42570";"SAINT-HEAND";"Pylône autostable"; 20.0;"Société Privée SA"
955873;4.39583;45.39694;"04° 23' 45.00'' Est, 45° 23' 49.00'' Nord";"42172";"LA CROIX DE GUIZAY";;"42660";"PLANFOY";"Pylône autostable"; 42.0;"ORANGE Services Fixes"
972225;4.59028;45.51972;"04° 35' 25.00'' Est, 45° 31' 11.00'' Nord";"42225";"LE SARDON";"RUE NOTRE DAME POSTE HTB/HTA SARDON";"42800";"GENILAC";"Bâtiment"; 6.0;"EDF ou GDF"
977954;4.28389;45.38028;"04° 17' 02.00'' Est, 45° 22' 49.00'' Nord";"42095";;"1 PLACE DE LA CORNICHE";"42700";"FIRMINY";"Immeuble"; 24.1;"Société HLM"
992929;4.38333;45.43306;"04° 23' 00.00'' Est, 45° 25' 59.00'' Nord";"42218";;"28 R SABLIERE";"42000";"SAINT-ETIENNE";"Immeuble"; 15.9;"Copropriété, Syndic, SCI"
996814;4.07611;45.69611;"04° 04' 34.00'' Est, 45° 41' 46.00'' Nord";"42150";;"MONT D UZORE ZER FEURS";"42130";"MONTVERDUN";"Pylône autostable"; 44.0;"Sociétés d'Autoroutes"
1005237;4.39111;45.46278;"04° 23' 28.00'' Est, 45° 27' 46.00'' Nord";"42218";;"42 RUE DE LA TOUR";"42000";"SAINT-ETIENNE";"Bâtiment"; 12.0;"EDF ou GDF"
1026386;4.09361;46.05528;"04° 05' 37.00'' Est, 46° 03' 19.00'' Nord";"42187";;"21 RUE DU PRESIDENT WILSON";"42300";"ROANNE";"Pylône tubulaire"; 25.0;"Commune, communauté de commune"
1026755;4.38806;45.44472;"04° 23' 17.00'' Est, 45° 26' 41.00'' Nord";"42218";;"91 R ROYET";"42000";"SAINT-ETIENNE";"Immeuble"; 14.3;"Copropriété, Syndic, SCI"
1028880;4.37417;45.44556;"04° 22' 27.00'' Est, 45° 26' 44.00'' Nord";"42218";;"8 R BENOIT FRACHON";"42000";"SAINT-ETIENNE";"Immeuble"; 25.4;"Copropriété, Syndic, SCI"
1037189;4.70278;45.38361;"04° 42' 10.00'' Est, 45° 23' 01.00'' Nord";"42018";"LA PIERRE QUI TOURNE";"BORDERONNE";"42520";"BESSEY";"Bâtiment"; 6.0;"EDF ou GDF"
1048352;3.81111;45.65833;"03° 48' 40.00'' Est, 45° 39' 30.00'' Nord";"42039";"PIERRE SUR HAUTE";"GARE D'ARRIVÉE TÉLÉCABINE LES GRANGES";"42920";"CHALMAZEL";"Pylône autostable"; 9.0;"SDIS, secours, incendie"
1049582;4.40361;45.46139;"04° 24' 13.00'' Est, 45° 27' 41.00'' Nord";"42218";;"27, RUE G.DELORY";"42000";"SAINT-ETIENNE";"Mât métallique"; 11.0;"Société Privée SA"
1050590;4.26917;45.86889;"04° 16' 09.00'' Est, 45° 52' 08.00'' Nord";"42209";"LA FOREST";"LA TRANSEUROPEENNE A89 PR 499,2 S2";"42540";"SAINTE-COLOMBE-SUR-GAND";"Pylône autostable"; 30.0;"Sociétés d'Autoroutes"
1050592;4.32778;45.85889;"04° 19' 40.00'' Est, 45° 51' 32.00'' Nord";"42334";"BOIS CORCY";"LA TRANSEUROPÉENNE   A89 PR 504,18  TUNNEL DE VIOLAY TETE OUEST";"42780";"VIOLAY";"Pylône autostable"; 20.0;"Sociétés d'Autoroutes"
1055479;4.36917;45.42083;"04° 22' 09.00'' Est, 45° 25' 15.00'' Nord";"42218";;"30 R AGRICOL PERDIGUIER";"42000";"SAINT-ETIENNE";"Pylône tubulaire"; 12.0;"SFR"
1057997;4.22000;45.84861;"04° 13' 12.00'' Est, 45° 50' 55.00'' Nord";"42154";;"LA TRANSEUROPEENNE A89 PR 494,4 S1 AIRE DE SERVICE DE LA LOIRE";"42510";"NERONDE";"Pylône autostable"; 25.0;"Sociétés d'Autoroutes"
1061585;4.43833;46.16806;"04° 26' 18.00'' Est, 46° 10' 05.00'' Nord";"42014";"LES ECHARMEAUX";;"42670";"BELLEROCHE";"Pylône autostable"; 23.0;"ORANGE Services Fixes"
1063174;4.29944;45.86917;"04° 17' 58.00'' Est, 45° 52' 09.00'' Nord";"42209";"LECHAUD";"A89 SENS 2 PR 11.95 PYLONE ASF";"42540";"SAINTE-COLOMBE-SUR-GAND";"Pylône autostable"; 30.0;"Sociétés d'Autoroutes"
1088777;4.23750;45.86417;"04° 14' 15.00'' Est, 45° 51' 51.00'' Nord";"42249";;"LA BUISSONNIÈRE";"42540";"SAINT-JUST-LA-PENDUE";"Pylône autostable"; 20.0;"Sociétés d'Autoroutes"
1090584;4.26889;45.86861;"04° 16' 08.00'' Est, 45° 52' 07.00'' Nord";"42209";;"BOIS DE LA DAME";"42540";"SAINTE-COLOMBE-SUR-GAND";"Pylône autostable"; 20.0;"Sociétés d'Autoroutes"
1107771;4.35639;45.86250;"04° 21' 23.00'' Est, 45° 51' 45.00'' Nord";"42334";"CHEZ MICHAUD";"TUNNEL DE VIOLAY";"42780";"VIOLAY";"Tunnel"; 5.0;"Sociétés d'Autoroutes"
1119277;4.31861;45.86944;"04° 19' 07.00'' Est, 45° 52' 10.00'' Nord";"42334";"CRÊT GUILLAUME";"VOIE COMMUNALE N°7";"42780";"VIOLAY";"Pylône autostable"; 33.0;"ORANGE"
1186497;4.33667;45.44139;"04° 20' 12.00'' Est, 45° 26' 29.00'' Nord";"42223";;"IMPASSE DU PUITS DU CRÊT";"42530";"SAINT-GENEST-LERPT";"Pylône tubulaire"; 20.1;"HIVORY"
1206659;4.37722;45.41722;"04° 22' 38.00'' Est, 45° 25' 02.00'' Nord";"42218";;"19 RUE MARTIN LUTHER KING";"42000";"SAINT-ETIENNE";"Pylône autostable"; 30.0;"IFW-FREE"
1207544;4.38778;45.43944;"04° 23' 16.00'' Est, 45° 26' 22.00'' Nord";"42218";;"3 PLACE DE L'HÔTEL DE VILLE";"42000";"SAINT-ETIENNE";"Immeuble"; 22.7;"Copropriété, Syndic, SCI"
1207604;4.09444;46.06333;"04° 05' 40.00'' Est, 46° 03' 48.00'' Nord";"42187";"JARDINS DE COCAGNE";"CHEM DE LA GASSE POULOT";"42300";"ROANNE";"Pylône tubulaire"; 32.0;"CELLNEX"
1214527;4.23750;45.56222;"04° 14' 15.00'' Est, 45° 33' 44.00'' Nord";"42324";;"AUTOROUTE A72 PK117.1 PLMV VEAUCHETTE";"42340";"VEAUCHETTE";"Ouvrage de signalisation (portique routier, panneau routier, panneau publicitaire)"; 3.0;"Sociétés d'Autoroutes"
1237586;4.38389;45.40917;"04° 23' 02.00'' Est, 45° 24' 33.00'' Nord";"42218";;"9 RUE AUGUSTE KEUFER";"42000";"SAINT-ETIENNE";"Immeuble"; 36.3;"Copropriété, Syndic, SCI"
1273114;4.40139;45.44083;"04° 24' 05.00'' Est, 45° 26' 27.00'' Nord";"42218";"LE PORT SEC";"45 RUE DE LA MONTAT";"42000";"SAINT-ETIENNE";"Immeuble"; 43.0;"Copropriété, Syndic, SCI"
1285965;4.06417;46.03889;"04° 03' 51.00'' Est, 46° 02' 20.00'' Nord";"42187";;"50, COUR DE LA RÉPUBLIQUE";"42300";"ROANNE";"Immeuble"; 29.0;"Particulier"
1288235;4.12389;45.94889;"04° 07' 26.00'' Est, 45° 56' 56.00'' Nord";"42212";"MALVAL";"RELAIS PN208 PK 433.900";"42123";"SAINT-CYR-DE-FAVIERES";"Mât métallique"; 15.0;"SNCF Réseau"
1288239;4.10278;45.97083;"04° 06' 10.00'' Est, 45° 58' 15.00'' Nord";"42212";;"LE BOURG PK 430.560";"42123";"SAINT-CYR-DE-FAVIERES";"Mât métallique"; 23.0;"SNCF Réseau"
1312749;4.41083;45.44611;"04° 24' 39.00'' Est, 45° 26' 46.00'' Nord";"42218";;"17 RUE BURDEAU";"42000";"SAINT-ETIENNE";"Bâtiment"; 22.0;"Société HLM"
1316665;4.21667;45.52194;"04° 13' 00.00'' Est, 45° 31' 19.00'' Nord";"42022";;"14 AVENUE DE SAINT RAMBERT";"42160";"BONSON";"Immeuble"; 12.0;"Particulier"
1323886;4.57500;45.51222;"04° 34' 30.00'' Est, 45° 30' 44.00'' Nord";"42123";;"LA GARE";"42420";"LORETTE";"Pylône autostable"; 20.0;"SNCF Réseau"
1327341;4.39000;45.44139;"04° 23' 24.00'' Est, 45° 26' 29.00'' Nord";"42218";;"17 RUE RAISIN R DE L'ATTACHE AUX BOEUFS";"42000";"SAINT-ETIENNE";"Immeuble"; 30.3;"Copropriété, Syndic, SCI"
1331635;4.52028;45.47444;"04° 31' 13.00'' Est, 45° 28' 28.00'' Nord";"42207";;"4B, RUE DE LA BROSSE";"42400";"SAINT-CHAMOND";"Pylône tubulaire"; 20.0;"SNCF Réseau"
1331637;4.41472;45.44500;"04° 24' 53.00'' Est, 45° 26' 42.00'' Nord";"42218";;"54 RUE JEAN HUSS";"42000";"SAINT-ETIENNE";"Pylône tubulaire"; 20.0;"SNCF Réseau"
1331639;4.26028;45.39528;"04° 15' 37.00'' Est, 45° 23' 43.00'' Nord";"42099";;"RUE DE LA GARE";"42490";"FRAISSES";"Pylône tubulaire"; 10.0;"SNCF Réseau"
1335980;4.18778;45.89028;"04° 11' 16.00'' Est, 45° 53' 25.00'' Nord";"42156";"LA CROIX DU FRENE";"GRAND ESSART";"42590";"NEULISE";"Pylône autostable"; 28.0;"TDF"
1336561;4.37889;45.46528;"04° 22' 44.00'' Est, 45° 27' 55.00'' Nord";"42218";;"1 RUE MAITRE SIMONE LEVAILLANT";"42000";"SAINT-ETIENNE";"Mât métallique"; 20.0;"SNCF Réseau"
1348380;4.62667;45.52944;"04° 37' 36.00'' Est, 45° 31' 46.00'' Nord";"42186";;"1, RUE VALLÉE DE COUZON";"42800";"RIVE-DE-GIER";"Mât métallique"; 20.0;"SNCF Réseau"
1355961;4.03917;46.00056;"04° 02' 21.00'' Est, 46° 00' 02.00'' Nord";"42332";"COFFOLET";"STADE MUNICIPAL CR N° 11";"42300";"VILLEREST";"Pylône autostable"; 27.0;"ORANGE"
1371331;4.09917;46.01278;"04° 05' 57.00'' Est, 46° 00' 46.00'' Nord";"42071";;"16 RUE DES GUÉRINS";"42120";"LE COTEAU";"Pylône autostable"; 36.0;"CELLNEX"
1371880;4.31667;45.49806;"04° 18' 60.00'' Est, 45° 29' 53.00'' Nord";"42097";"LA GARE";"RD 1082";"42480";"LA FOUILLOUSE";"Pylône autostable"; 25.0;"SNCF Réseau"
1375043;4.39556;45.45333;"04° 23' 44.00'' Est, 45° 27' 12.00'' Nord";"42218";;"12 R JEAN SERVANTON";"42000";"SAINT-ETIENNE";"Pylône tubulaire"; 21.1;"BOUYGUES"
1377712;4.39250;45.41722;"04° 23' 33.00'' Est, 45° 25' 02.00'' Nord";"42218";"BELLEVUE";"GARE";"42000";"SAINT-ETIENNE";"Mât métallique"; 16.0;"SNCF Réseau"
1378047;4.74917;45.37778;"04° 44' 57.00'' Est, 45° 22' 40.00'' Nord";"42272";;"LE LIONNARD";"42520";"SAINT-PIERRE-DE-BOEUF";"Pylône autostable"; 20.0;"SNCF Réseau"
1382133;4.27833;45.53556;"04° 16' 42.00'' Est, 45° 32' 08.00'' Nord";"42005";;"4 BOULEVARD PIERRE DESGRANGES";"42160";"ANDREZIEUX-BOUTHEON";"Bâtiment"; 3.0;"Société Privée SA"
1382214;4.42778;45.44194;"04° 25' 40.00'' Est, 45° 26' 31.00'' Nord";"42218";;"4 R ROCHETTES TERRENOIRE";"42100";"SAINT-ETIENNE";"Pylône autostable"; 20.4;"BOUYGUES"
1382595;4.61278;45.52528;"04° 36' 46.00'' Est, 45° 31' 31.00'' Nord";"42186";"EGARANDE";"TUNNEL DE COUZON";"42800";"RIVE-DE-GIER";"Ouvrage d'art (pont, viaduc)"; 18.3;"SNCF Réseau"
1382597;4.61889;45.52778;"04° 37' 08.00'' Est, 45° 31' 40.00'' Nord";"42186";"CLOS DUROZEIL";"TUNNEL DE COUZON";"42800";"RIVE-DE-GIER";"Ouvrage d'art (pont, viaduc)"; 12.3;"SNCF Réseau"
1391963;4.42417;45.44194;"04° 25' 27.00'' Est, 45° 26' 31.00'' Nord";"42218";"SOUTERRAIN DE TERRENOIRE";"PONT DE L'ANE - RUE LARC CHARRAS";"42000";"SAINT-ETIENNE";"Ouvrage d'art (pont, viaduc)"; 12.0;"SNCF Réseau"
1391965;4.42694;45.44056;"04° 25' 37.00'' Est, 45° 26' 26.00'' Nord";"42218";"SOUTERRAIN DE TERRENOIRE";"EN EMPRISES FERROVOAIRES";"42000";"SAINT-ETIENNE";"Tunnel"; 6.1;"SNCF Réseau"
1391967;4.43278;45.43778;"04° 25' 58.00'' Est, 45° 26' 16.00'' Nord";"42218";"SOUTERRAIN DE TERRENOIRE";"RUE JEAN MOULIN";"42000";"SAINT-ETIENNE";"Tunnel"; 6.3;"SNCF Réseau"
1391969;4.43778;45.43556;"04° 26' 16.00'' Est, 45° 26' 08.00'' Nord";"42218";"SOUTERRAIN DE TERRENOIRE";"PLACE JEAN ET HIPOLLYTE VIAL";"42000";"SAINT-ETIENNE";"Ouvrage d'art (pont, viaduc)"; 12.0;"SNCF Réseau"
1392118;3.89861;46.01417;"03° 53' 55.00'' Est, 46° 00' 51.00'' Nord";"42008";"LES SOUTIERES";"CHEM DU CHATEAU D'EAU";"42370";"ARCON";"Pylône tubulaire"; 32.0;"DDE"
1394362;4.50944;45.46500;"04° 30' 34.00'' Est, 45° 27' 54.00'' Nord";"42207";;"BD GEORGES CLEMENCEAU";"42400";"SAINT-CHAMOND";"Mât métallique"; 12.0;"SNCF Réseau"
1395027;4.00889;45.74417;"04° 00' 32.00'' Est, 45° 44' 39.00'' Nord";"42019";;"R D'ALSACE LORRAINE";"42130";"BOEN";"Pylône autostable"; 25.0;"ORANGE"
1396430;4.51306;45.47083;"04° 30' 47.00'' Est, 45° 28' 15.00'' Nord";"42207";;"RUE DE LA PLAISANCE";"42400";"SAINT-CHAMOND";"Tunnel"; 7.5;"SNCF Réseau"
1397306;4.23694;45.52250;"04° 14' 13.00'' Est, 45° 31' 21.00'' Nord";"42022";"LES PLACIÈRES";"0";"42160";"BONSON";"Pylône autostable"; 25.0;"SNCF Réseau"
1397308;4.27583;45.61167;"04° 16' 33.00'' Est, 45° 36' 42.00'' Nord";"42081";"LES GUICHARDS";"0";"42330";"CUZIEU";"Pylône autostable"; 20.0;"SNCF Réseau"
1398011;4.08722;46.02139;"04° 05' 14.00'' Est, 46° 01' 17.00'' Nord";"42071";"QUAI PIERRE SEMARD";"CHEMIN DES PLAINES";"42120";"LE COTEAU";"Pylône autostable"; 25.0;"SNCF Réseau"
1398013;4.12444;45.97639;"04° 07' 28.00'' Est, 45° 58' 35.00'' Nord";"42212";"CHAVALON";;"42123";"SAINT-CYR-DE-FAVIERES";"Pylône autostable"; 20.0;"SNCF Réseau"
1398507;3.92972;46.09889;"03° 55' 47.00'' Est, 46° 05' 56.00'' Nord";"42003";"LA MURETTE";"0";"42820";"AMBIERLE";"Pylône autostable"; 20.0;"SNCF Réseau"
1398509;4.23528;45.69944;"04° 14' 07.00'' Est, 45° 41' 58.00'' Nord";"42251";"LES MAZOYERS";"0";"42210";"SAINT-LAURENT-LA-CONCHE";"Pylône autostable"; 20.0;"SNCF Réseau"
1398511;4.16833;45.83083;"04° 10' 06.00'' Est, 45° 49' 51.00'' Nord";"42011";"PRALERY";"LA GARELLE SUD";"42510";"BALBIGNY";"Pylône autostable"; 20.0;"SNCF Réseau"
1398887;4.23083;45.76972;"04° 13' 51.00'' Est, 45° 46' 11.00'' Nord";"42065";"LA CÔTE";;"42110";"CIVENS";"Pylône autostable"; 25.0;"SNCF Réseau"
1398889;3.88306;46.14639;"03° 52' 59.00'' Est, 46° 08' 47.00'' Nord";"42049";"LA TANNERIE";"0";"42310";"CHANGY";"Pylône autostable"; 20.0;"SNCF Réseau"
1402036;4.47278;45.44667;"04° 28' 22.00'' Est, 45° 26' 48.00'' Nord";"42207";;"LES SAGNES";"42400";"SAINT-CHAMOND";"Pylône autostable"; 25.4;"SNCF Réseau"
1404065;4.73750;45.41444;"04° 44' 15.00'' Est, 45° 24' 52.00'' Nord";"42056";;"CHEMIN DU BOUCHET";"42410";"CHAVANAY";"Pylône tubulaire"; 25.0;"SNCF Réseau"
1404089;4.03694;46.06639;"04° 02' 13.00'' Est, 46° 03' 59.00'' Nord";"42127";"DOMAINE DU CHALUMET";"CHEMIN DU CHALUMET";"42300";"MABLY";"Pylône autostable"; 25.0;"SNCF Réseau"
1404460;4.28722;45.39222;"04° 17' 14.00'' Est, 45° 23' 32.00'' Nord";"42095";;"RUE DE LA TOUR DE VARAN";"42700";"FIRMINY";"Pylône autostable"; 25.0;"SNCF Réseau"
1404482;4.75306;45.45111;"04° 45' 11.00'' Est, 45° 27' 04.00'' Nord";"42327";"PONTCIN";"RUE DE LA VOIE ROMAINE";"42410";"VERIN";"Mât métallique"; 12.0;"SNCF Réseau"
1404520;3.83250;46.21083;"03° 49' 57.00'' Est, 46° 12' 39.00'' Nord";"42257";"GARDIN";;"42620";"SAINT-MARTIN-D'ESTREAUX";"Pylône autostable"; 25.0;"SNCF Réseau"
1404655;4.39194;45.41806;"04° 23' 31.00'' Est, 45° 25' 05.00'' Nord";"42218";;"8 RUE DU MONT";"42000";"SAINT-ETIENNE";"Pylône tubulaire"; 20.0;"SNCF Réseau"
1404695;4.36472;45.40444;"04° 21' 53.00'' Est, 45° 24' 16.00'' Nord";"42183";;"RUE JULES FERRY";"42150";"LA RICAMARIE";"Tunnel"; 9.5;"SNCF Réseau"
1404699;4.37194;45.40417;"04° 22' 19.00'' Est, 45° 24' 15.00'' Nord";"42183";;"RUE DE L'ETERNITÉ";"42150";"LA RICAMARIE";"Tunnel"; 5.8;"SNCF Réseau"
1404703;4.37778;45.40556;"04° 22' 40.00'' Est, 45° 24' 20.00'' Nord";"42183";;"RUE GAMBETTA - RD88";"42150";"LA RICAMARIE";"Tunnel"; 5.5;"SNCF Réseau"
1404705;4.38389;45.40889;"04° 23' 02.00'' Est, 45° 24' 32.00'' Nord";"42218";;"TUNNEL DE LA CROIX DE L'ORME RUE AMBROISE PARE";"42000";"SAINT-ETIENNE";"Tunnel"; 6.0;"SNCF Réseau"
1405446;4.14639;45.85750;"04° 08' 47.00'' Est, 45° 51' 27.00'' Nord";"42254";"LE CHATELARD";"0";"42122";"SAINT-MARCEL-DE-FELINES";"Pylône autostable"; 20.0;"SNCF Réseau"
1405926;4.10250;45.97056;"04° 06' 09.00'' Est, 45° 58' 14.00'' Nord";"42212";"LA MIRAUDE";"0";"42123";"SAINT-CYR-DE-FAVIERES";"Pylône autostable"; 30.0;"SNCF Réseau"
1405930;4.27528;45.51139;"04° 16' 31.00'' Est, 45° 30' 41.00'' Nord";"42279";"LA GARE";"CHEMIN DU BAS ROLLET";"42170";"SAINT-JUST-SAINT-RAMBERT";"Pylône autostable"; 25.0;"SNCF Réseau"
1406361;3.85111;46.17500;"03° 51' 04.00'' Est, 46° 10' 30.00'' Nord";"42078";"CHEZ BÉRARD";"0";"42310";"LE CROZET";"Pylône autostable"; 30.0;"SNCF Réseau"
1406981;4.11444;45.92694;"04° 06' 52.00'' Est, 45° 55' 37.00'' Nord";"42277";"A LA GARE";;"42590";"SAINT-PRIEST-LA-ROCHE";"Pylône autostable"; 20.0;"SNCF Réseau"
1407503;4.28889;45.58472;"04° 17' 20.00'' Est, 45° 35' 05.00'' Nord";"42222";"LA VARENNE JOURSEY";;"42330";"SAINT-GALMIER";"Pylône autostable"; 35.0;"SNCF Réseau"
1407644;4.35500;46.17056;"04° 21' 18.00'' Est, 46° 10' 14.00'' Nord";"42015";"MONTAIGU";"SITE ITAS TIM";"42670";"BELMONT-DE-LA-LOIRE";"Pylône autostable"; 37.0;"TDF"
1407797;4.74750;45.38528;"04° 44' 51.00'' Est, 45° 23' 07.00'' Nord";"42272";"LA BASCULE";;"42520";"SAINT-PIERRE-DE-BOEUF";"Tunnel"; 8.6;"SNCF Réseau"
1409706;4.75361;45.45639;"04° 45' 13.00'' Est, 45° 27' 23.00'' Nord";"42327";"LE BOURG";"ROUTE DÉPARTEMENTALE N°30";"42410";"VERIN";"Mât métallique"; 20.0;"SNCF Réseau"
1410283;4.38833;45.41111;"04° 23' 18.00'' Est, 45° 24' 40.00'' Nord";"42218";;"RUE GABRIEL PÉRI";"42000";"SAINT-ETIENNE";"Tunnel"; 6.2;"SNCF Réseau"
1410511;4.38694;45.42667;"04° 23' 13.00'' Est, 45° 25' 36.00'' Nord";"42218";;"BOULEVARD DAGUERRE";"42000";"SAINT-ETIENNE";"Mât métallique"; 2.8;"SNCF Réseau"
1410518;4.38389;45.42778;"04° 23' 02.00'' Est, 45° 25' 40.00'' Nord";"42218";;"RUE ALFRED COLOMBET";"42000";"SAINT-ETIENNE";"Tunnel"; 10.7;"SNCF Réseau"
1418598;4.02306;45.88611;"04° 01' 23.00'' Est, 45° 53' 10.00'' Nord";"42268";"LA BRUYÈRE";;"42260";"SAINT-PAUL-DE-VEZELIN";"Pylône autostable"; 18.0;"ORANGE"
1419013;4.06639;45.97806;"04° 03' 59.00'' Est, 45° 58' 41.00'' Nord";"42069";;"CHASSIGNOL  PYLONE EG DIFFUSION";"42120";"COMMELLE-VERNAY";"Pylône autostable"; 12.0;"Société Privée SA"
1422582;4.58556;45.55917;"04° 35' 08.00'' Est, 45° 33' 33.00'' Nord";"42259";;"LE CAILLOU BLANC";"42800";"SAINT-MARTIN-LA-PLAINE";"Pylône autostable"; 12.0;"TDF"
1422867;4.21278;45.79861;"04° 12' 46.00'' Est, 45° 47' 55.00'' Nord";"42088";"CHANTAGRET";"0";"42110";"EPERCIEUX-SAINT-PAUL";"Pylône autostable"; 20.0;"SNCF Réseau"
1423202;4.13056;45.89306;"04° 07' 50.00'' Est, 45° 53' 35.00'' Nord";"42241";"LE SAUT";;"42590";"SAINT-JODARD";"Pylône autostable"; 20.0;"SNCF Réseau"
1423206;4.28333;45.52806;"04° 16' 60.00'' Est, 45° 31' 41.00'' Nord";"42005";"LA VORZELIERE SUD";;"42160";"ANDREZIEUX-BOUTHEON";"Pylône autostable"; 25.0;"SNCF Réseau"
1425961;4.35389;45.47500;"04° 21' 14.00'' Est, 45° 28' 30.00'' Nord";"42330";"LE CURNIEUX";"RUE DE LA GARE";"42390";"VILLARS";"Pylône autostable"; 28.0;"CELLNEX"
1427299;4.06639;45.97806;"04° 03' 59.00'' Est, 45° 58' 41.00'' Nord";"42069";;"CHASSIGNOL";"42120";"COMMELLE-VERNAY";"Pylône autostable"; 20.0;"TDF"
1427484;4.21667;45.98556;"04° 13' 00.00'' Est, 45° 59' 08.00'' Nord";"42181";"DOMAINE DURANTIN";"DOMAINE DURANTIN";"42630";"REGNY";"Pylône autostable"; 26.3;"TDF"
1438514;4.65861;45.54222;"04° 39' 31.00'' Est, 45° 32' 32.00'' Nord";"42053";"SOUTERRAIN DE CHATEAUNEUF";"AU GIER";"42800";"CHATEAUNEUF";"Tunnel"; 5.3;"SNCF Réseau"
1439086;4.37861;45.43583;"04° 22' 43.00'' Est, 45° 26' 09.00'' Nord";"42218";;"BOULEVARD PIERRE MENDÈS FRANCE";"42000";"SAINT-ETIENNE";"Pylône autostable"; 20.0;"SNCF Réseau"
1439956;4.55694;45.48250;"04° 33' 25.00'' Est, 45° 28' 57.00'' Nord";"42271";"LACHAL";;"42740";"SAINT-PAUL-EN-JAREZ";"Pylône autostable"; 25.6;"TDF"
1442553;4.11444;46.09167;"04° 06' 52.00'' Est, 46° 05' 30.00'' Nord";"42338";"LES CHAMBONS";"CHEMIN RURAL";"42720";"VOUGY";"Pylône autostable"; 25.0;"HIVORY"
1442599;4.18389;45.40444;"04° 11' 02.00'' Est, 45° 24' 16.00'' Nord";"42262";"CIMETIÈRE";"ROUTE DE PERIGNEUX";"42240";"SAINT-MAURICE-EN-GOURGOIS";"Pylône tubulaire"; 25.0;"SFR"
1442641;4.47861;45.55139;"04° 28' 43.00'' Est, 45° 33' 05.00'' Nord";"42208";;"CHEMIN LE PRE FONTIER";"42320";"SAINT-CHRISTO-EN-JAREZ";"Pylône autostable"; 20.0;"HIVORY"
1443453;4.52111;45.41611;"04° 31' 16.00'' Est, 45° 24' 58.00'' Nord";"42322";"L'OBSERVATOIRE";"TERRAIN DE SPORT";"42131";"LA VALLA-EN-GIER";"Pylône autostable"; 35.3;"HIVORY"
1443521;4.57889;45.44861;"04° 34' 44.00'' Est, 45° 26' 55.00'' Nord";"42308";;"LE GOTEAU";"42740";"LA TERRASSE-SUR-DORLAY";"Pylône autostable"; 29.0;"TDF"
1444371;4.37222;45.44111;"04° 22' 20.00'' Est, 45° 26' 28.00'' Nord";"42218";;"24 BD MARÉCHAL FRANCHET D'ESPEREY";"42000";"SAINT-ETIENNE";"Pylône tubulaire"; 30.0;"HIVORY"
1445215;4.29528;45.75889;"04° 17' 43.00'' Est, 45° 45' 32.00'' Nord";"42297";;"LA VALETTE - LES CHANEES";"42110";"SALVIZINET";"Pylône autostable"; 20.7;"TDF"
1447055;4.39472;45.42056;"04° 23' 41.00'' Est, 45° 25' 14.00'' Nord";"42218";;"5 R DES TEINTURIERS";"42000";"SAINT-ETIENNE";"Immeuble"; 60.0;"Société HLM"
1449661;4.23333;45.83667;"04° 14' 00.00'' Est, 45° 50' 12.00'' Nord";"42154";"SALAMARD";;"42510";"NERONDE";"Pylône autostable"; 25.0;"TDF"
1450606;4.34361;45.46139;"04° 20' 37.00'' Est, 45° 27' 41.00'' Nord";"42330";;"LA BOUTONNE";"42390";"VILLARS";"Pylône autostable"; 31.4;"HIVORY"
1452184;4.26000;45.64417;"04° 15' 36.00'' Est, 45° 38' 39.00'' Nord";"42200";;"LE FOREST";"42210";"SAINT-ANDRE-LE-PUY";"Pylône tubulaire"; 28.0;"ATC FRANCE"
1453075;4.00833;46.05389;"04° 00' 30.00'' Est, 46° 03' 14.00'' Nord";"42184";;"CHEM HELENE BOUCHER";"42153";"RIORGES";"Pylône autostable"; 18.1;"HIVORY"
1454790;4.64972;45.53917;"04° 38' 59.00'' Est, 45° 32' 21.00'' Nord";"42053";;"ROUTE FRANCOIS MOUTON";"42800";"CHATEAUNEUF";"Pylône autostable"; 12.8;"TDF"
1454950;4.30222;45.41278;"04° 18' 08.00'' Est, 45° 24' 46.00'' Nord";"42189";;"LAUMIERE";"42230";"ROCHE-LA-MOLIERE";"Pylône autostable"; 21.0;"ATC FRANCE"
1455832;4.25694;45.39750;"04° 15' 25.00'' Est, 45° 23' 51.00'' Nord";"42270";"LA CASE AU BOIS";"TUNNEL DU BOIS DE LA RIVE";"42240";"SAINT-PAUL-EN-CORNILLON";"Mât métallique"; 8.0;"SNCF Réseau"
1456060;4.24083;45.40194;"04° 14' 27.00'' Est, 45° 24' 07.00'' Nord";"42270";"POCHET";"SENTIER DE VERDINE";"42240";"SAINT-PAUL-EN-CORNILLON";"Mât métallique"; 12.0;"SNCF Réseau"
1456062;4.24750;45.40583;"04° 14' 51.00'' Est, 45° 24' 21.00'' Nord";"42270";"LE PERTUISET";"RD108 ROUTE DES GORGES";"42240";"SAINT-PAUL-EN-CORNILLON";"Mât métallique"; 12.0;"SNCF Réseau"
1456731;3.90222;46.06306;"03° 54' 08.00'' Est, 46° 03' 47.00'' Nord";"42233";"LA JUDÉE";;"42370";"SAINT-HAON-LE-VIEUX";"Pylône autostable"; 30.3;"HIVORY"
1459295;4.04333;45.61056;"04° 02' 36.00'' Est, 45° 36' 38.00'' Nord";"42147";"LE PAILLER";"D.69 - RTE DE CHÂTELNEUF";"42600";"MONTBRISON";"Pylône autostable"; 25.0;"HIVORY"
1462443;4.25278;45.40472;"04° 15' 10.00'' Est, 45° 24' 17.00'' Nord";"42316";"BOIRON";"VOIE COMMUNALE N°30";"42240";"UNIEUX";"Tunnel"; 7.0;"SNCF Réseau"
1465877;4.29639;45.37444;"04° 17' 47.00'' Est, 45° 22' 28.00'' Nord";"42095";"LES PREAUX";;"42700";"FIRMINY";"Pylône autostable"; 25.0;"HIVORY"
1465902;4.35222;45.45611;"04° 21' 08.00'' Est, 45° 27' 22.00'' Nord";"42330";;"LE MARTHOUREY";"42390";"VILLARS";"Pylône autostable"; 32.0;"ATC FRANCE"
1471183;4.30417;45.38778;"04° 18' 15.00'' Est, 45° 23' 16.00'' Nord";"42044";;"BOIS CARBOZ - COMPLEXE SPORTIF DE GAFFARD";"42500";"LE CHAMBON-FEUGEROLLES";"Pylône autostable"; 27.7;"ATC FRANCE"
1474222;4.40833;45.53139;"04° 24' 30.00'' Est, 45° 31' 53.00'' Nord";"42234";;"PIERRE LA BAUCHE";"42570";"SAINT-HEAND";"Pylône autostable"; 36.7;"ATC FRANCE"
1480552;4.57250;45.53583;"04° 34' 21.00'' Est, 45° 32' 09.00'' Nord";"42225";;"LACHAL";"42800";"GENILAC";"Pylône autostable"; 18.0;"ATC FRANCE"
1481691;4.12639;45.90861;"04° 07' 35.00'' Est, 45° 54' 31.00'' Nord";"42325";"A ROMANION";;"42590";"VENDRANGES";"Mât métallique"; 4.0;"SNCF Réseau"
1481713;4.12361;45.91056;"04° 07' 25.00'' Est, 45° 54' 38.00'' Nord";"42325";"CHEZ BARBIER";;"42590";"VENDRANGES";"Mât métallique"; 4.0;"SNCF Réseau"
1481872;4.12806;45.90167;"04° 07' 41.00'' Est, 45° 54' 06.00'' Nord";"42241";"LE SAUT";;"42590";"SAINT-JODARD";"Mât métallique"; 8.0;"SNCF Réseau"
1490432;3.79611;46.21167;"03° 47' 46.00'' Est, 46° 12' 42.00'' Nord";"42257";"LA ROCHERE";;"42620";"SAINT-MARTIN-D'ESTREAUX";"Tunnel"; 5.8;"SNCF Réseau"
1491996;4.26389;45.56806;"04° 15' 50.00'' Est, 45° 34' 05.00'' Nord";"42324";"LE CHÂTEAU";"CHEM DE MALÉPINE";"42340";"VEAUCHETTE";"Pylône autostable"; 33.0;"HIVORY"
1500090;4.40861;45.45528;"04° 24' 31.00'' Est, 45° 27' 19.00'' Nord";"42218";;"16 RUE NECKER";"42230";"SAINT-ETIENNE";"Pylône tubulaire"; 15.0;"ORANGE"
1502569;4.38639;45.42444;"04° 23' 11.00'' Est, 45° 25' 28.00'' Nord";"42218";;"41 RUE MONTFERRE DD42";"42000";"SAINT-ETIENNE";"Immeuble"; 14.0;"Association"
1503024;3.78861;46.20111;"03° 47' 19.00'' Est, 46° 12' 04.00'' Nord";"42257";"LE TUNNEL";;"42620";"SAINT-MARTIN-D'ESTREAUX";"Mât métallique"; 3.0;"SNCF Réseau"
1506088;4.36472;45.46972;"04° 21' 53.00'' Est, 45° 28' 11.00'' Nord";"42330";;"7 RUE DE L'ARTISANAT";"42390";"VILLARS";"Immeuble"; 20.5;"Copropriété, Syndic, SCI"
1507090;3.79389;45.85028;"03° 47' 38.00'' Est, 45° 51' 01.00'' Nord";"42295";"PRÉ PONCHON";"PÉAGE SORTIE N°4- A72";"42440";"LES SALLES";"Pylône autostable"; 30.0;"Sociétés d'Autoroutes"
1510373;4.39222;45.43139;"04° 23' 32.00'' Est, 45° 25' 53.00'' Nord";"42218";;"15, RUE DU VERNAY";"42000";"SAINT-ETIENNE";"Immeuble"; 22.0;"Copropriété, Syndic, SCI"
1511194;4.38083;45.43222;"04° 22' 51.00'' Est, 45° 25' 56.00'' Nord";"42218";;"211 RUE DE TARDY";"42000";"SAINT-ETIENNE";"Mât métallique"; 1.5;"SNCF Réseau"
1517921;4.20750;45.60667;"04° 12' 27.00'' Est, 45° 36' 24.00'' Nord";"42108";"CHANINATS";"AIRE DE CHANTE-PERDRIX A 72";"42210";"L'HOPITAL-LE-GRAND";"Pylône autostable"; 40.0;"Sociétés d'Autoroutes"
1518162;4.36444;45.40056;"04° 21' 52.00'' Est, 45° 24' 02.00'' Nord";"42183";;"RUE DES MARTYRS DE LA RESISTANCE";"42150";"LA RICAMARIE";"Bâtiment"; 14.1;"Particulier"
1526992;4.11444;45.57333;"04° 06' 52.00'' Est, 45° 34' 24.00'' Nord";"42285";;"AVENUE DE CRUCHIN";"42610";"SAINT-ROMAIN-LE-PUY";"Pylône autostable"; 20.4;"IFW-FREE"
1527315;4.55500;45.53722;"04° 33' 18.00'' Est, 45° 32' 14.00'' Nord";"42036";;"LAYA - LAGARENNE";"42800";"CHAGNON";"Pylône autostable"; 34.1;"TDF"
1537108;4.12250;45.94000;"04° 07' 21.00'' Est, 45° 56' 24.00'' Nord";"42212";"DOMAINE DE VERBEAU";;"42123";"SAINT-CYR-DE-FAVIERES";"Tunnel"; 9.0;"SNCF Réseau"
1537110;4.12889;45.89583;"04° 07' 44.00'' Est, 45° 53' 45.00'' Nord";"42241";"LE SAUT";;"42590";"SAINT-JODARD";"Tunnel"; 9.0;"SNCF Réseau"
1537557;4.11833;45.93472;"04° 07' 06.00'' Est, 45° 56' 05.00'' Nord";"42277";"AUX VILLARDS";;"42590";"SAINT-PRIEST-LA-ROCHE";"Tunnel"; 9.0;"SNCF Réseau"
1537559;4.15139;45.85361;"04° 09' 05.00'' Est, 45° 51' 13.00'' Nord";"42254";"CHASSENAY";"0";"42122";"SAINT-MARCEL-DE-FELINES";"Tunnel"; 5.9;"SNCF Réseau"
1537561;4.26889;45.51333;"04° 16' 08.00'' Est, 45° 30' 48.00'' Nord";"42279";"LA QUERILLERE";"TUNNEL DE LA TRANCHARDIÈRE";"42170";"SAINT-JUST-SAINT-RAMBERT";"Tunnel"; 9.5;"SNCF Réseau"
1537563;4.15250;45.84806;"04° 09' 09.00'' Est, 45° 50' 53.00'' Nord";"42011";"LES CHESSIEUX";;"42510";"BALBIGNY";"Pylône tubulaire"; 10.0;"SNCF Réseau"
1537884;4.12250;45.95333;"04° 07' 21.00'' Est, 45° 57' 12.00'' Nord";"42212";"DOMAINE MALVAL";;"42123";"SAINT-CYR-DE-FAVIERES";"Tunnel"; 12.2;"SNCF Réseau"
1537886;4.26694;45.51361;"04° 16' 01.00'' Est, 45° 30' 49.00'' Nord";"42279";"LE MARAIS EST";;"42170";"SAINT-JUST-SAINT-RAMBERT";"Tunnel"; 8.8;"SNCF Réseau"
1537888;4.10750;45.95917;"04° 06' 27.00'' Est, 45° 57' 33.00'' Nord";"42212";"TREVAL";"SORTIE TUNNEL VERS ST GERMAIN DES FOSSES";"42123";"SAINT-CYR-DE-FAVIERES";"Tunnel"; 11.0;"SNCF Réseau"
1537890;4.11528;45.95667;"04° 06' 55.00'' Est, 45° 57' 24.00'' Nord";"42212";"DOMAINE GILBERT";"SORTIE TUNNEL VERS ST ETIENNE";"42123";"SAINT-CYR-DE-FAVIERES";"Tunnel"; 8.8;"SNCF Réseau"
1538107;4.12306;45.95250;"04° 07' 23.00'' Est, 45° 57' 09.00'' Nord";"42212";"DOMAINE MALVAL";"0";"42123";"SAINT-CYR-DE-FAVIERES";"Tunnel"; 8.6;"SNCF Réseau"
1538109;4.12361;45.94861;"04° 07' 25.00'' Est, 45° 56' 55.00'' Nord";"42212";"DOMAINE MALVAL";"0";"42123";"SAINT-CYR-DE-FAVIERES";"Pylône tubulaire"; 8.0;"SNCF Réseau"
1538125;4.62139;45.31639;"04° 37' 17.00'' Est, 45° 18' 59.00'' Nord";"42246";;"LE MAS";"42220";"SAINT-JULIEN-MOLIN-MOLETTE";"Pylône tubulaire"; 21.0;"TDF"
1539340;4.55861;45.50583;"04° 33' 31.00'' Est, 45° 30' 21.00'' Nord";"42103";;"R DE COMBERIGOL";"42320";"LA GRAND-CROIX";"Pylône autostable"; 18.2;"IFW-FREE"
1539342;4.08361;45.59861;"04° 05' 01.00'' Est, 45° 35' 55.00'' Nord";"42147";;"RUE DE LAPLATTE";"42600";"MONTBRISON";"Pylône tubulaire"; 20.5;"IFW-FREE"
1542489;4.43472;45.48139;"04° 26' 05.00'' Est, 45° 28' 53.00'' Nord";"42305";;"RUE VICTOR HUGO";"42350";"LA TALAUDIERE";"Immeuble"; 21.5;"Copropriété, Syndic, SCI"
1543111;4.42222;45.46222;"04° 25' 20.00'' Est, 45° 27' 44.00'' Nord";"42305";;"3 ALL FOURNEYRON";"42350";"LA TALAUDIERE";"Pylône tubulaire"; 25.7;"ATC FRANCE"
1545532;4.31389;46.13306;"04° 18' 50.00'' Est, 46° 07' 59.00'' Nord";"42033";"ANSENOT";"TERRE DESSUS";"42460";"LE CERGNE";"Pylône autostable"; 40.0;"ORANGE Services Fixes"
1547457;4.22917;45.64667;"04° 13' 45.00'' Est, 45° 38' 48.00'' Nord";"42149";;"RUE DE ROANNE";"42210";"MONTROND-LES-BAINS";"Pylône tubulaire"; 20.0;"IFW-FREE"
1549035;4.09444;46.02000;"04° 05' 40.00'' Est, 46° 01' 12.00'' Nord";"42071";;"BOULEVARD DE LA POTERIE";"42120";"LE COTEAU";"Pylône autostable"; 26.5;"IFW-FREE"
1549037;4.31889;45.59028;"04° 19' 08.00'' Est, 45° 35' 25.00'' Nord";"42222";;"RUE DIDIER GUETTON";"42330";"SAINT-GALMIER";"Immeuble"; 17.0;"Copropriété, Syndic, SCI"
1554197;4.07000;46.04667;"04° 04' 12.00'' Est, 46° 02' 48.00'' Nord";"42187";;"AVENUE DE PARIS LES TAMARIS";"42300";"ROANNE";"Immeuble"; 24.0;"Copropriété, Syndic, SCI"
1559623;4.26389;45.50278;"04° 15' 50.00'' Est, 45° 30' 10.00'' Nord";"42279";;"PLACE JEANNE D'ARC";"42170";"SAINT-JUST-SAINT-RAMBERT";"Monument religieux"; 33.2;"Commune, communauté de commune"
1560475;4.02222;46.08222;"04° 01' 20.00'' Est, 46° 04' 56.00'' Nord";"42284";;"ZAC DU TEMPLE";"42640";"SAINT-ROMAIN-LA-MOTTE";"Pylône autostable"; 21.0;"ORANGE"
1563023;4.39917;45.41222;"04° 23' 57.00'' Est, 45° 24' 44.00'' Nord";"42218";;"6 RUE BONNASSIEUX";"42000";"SAINT-ETIENNE";"Bâtiment"; 41.4;"Société HLM"
1563105;4.13583;45.93778;"04° 08' 09.00'' Est, 45° 56' 16.00'' Nord";"42325";"BECHIRAND";"N 82";"42590";"VENDRANGES";"Pylône autostable"; 25.0;"ORANGE"
1563238;4.19222;45.54444;"04° 11' 32.00'' Est, 45° 32' 40.00'' Nord";"42304";"LES VERCHERES";;"42450";"SURY-LE-COMTAL";"Pylône tubulaire"; 22.0;"IFW-FREE"
1563357;4.28833;45.38667;"04° 17' 18.00'' Est, 45° 23' 12.00'' Nord";"42095";;"2, RUE DE LA VIEILLE PORTE";"42700";"FIRMINY";"Immeuble"; 56.0;"Société HLM"
1564063;4.27417;45.52000;"04° 16' 27.00'' Est, 45° 31' 12.00'' Nord";"42279";;"RUE DU FOREZ SUD";"42170";"SAINT-JUST-SAINT-RAMBERT";"Pylône autostable"; 20.0;"IFW-FREE"
1568538;4.44833;45.50111;"04° 26' 54.00'' Est, 45° 30' 04.00'' Nord";"42302";;"RUE DES CRETES";"42290";"SORBIERS";"Pylône autostable"; 25.1;"IFW-FREE"
1569539;4.04611;45.61944;"04° 02' 46.00'' Est, 45° 37' 10.00'' Nord";"42147";;"CHEMIN DES RAINES";"42600";"MONTBRISON";"Pylône tubulaire"; 25.0;"IFW-FREE"
1571374;4.54361;45.48861;"04° 32' 37.00'' Est, 45° 29' 19.00'' Nord";"42110";;"12 AVENUE PASTEUR";"42152";"L'HORME";"Bâtiment"; 20.0;"Copropriété, Syndic, SCI"
1572221;4.39528;45.42750;"04° 23' 43.00'' Est, 45° 25' 39.00'' Nord";"42218";;"37 BOULEVARD VALBENOITE";"42000";"SAINT-ETIENNE";"Immeuble"; 20.0;"Copropriété, Syndic, SCI"
1576553;4.34694;45.43472;"04° 20' 49.00'' Est, 45° 26' 05.00'' Nord";"42189";;"IMPASSE DE DOURDEL";"42230";"ROCHE-LA-MOLIERE";"Bâtiment"; 18.0;"DDE"
1576598;3.95444;45.63611;"03° 57' 16.00'' Est, 45° 38' 10.00'' Nord";"42054";"LE CHÂTEAU";"FRAISSE";"42940";"CHATELNEUF";"Pylône autostable"; 20.0;"Conseil Départemental"
1586234;4.58972;45.50889;"04° 35' 23.00'' Est, 45° 30' 32.00'' Nord";"42123";;"CHEMIN DE CRET FOREST";"42420";"LORETTE";"Pylône autostable"; 25.6;"IFW-FREE"
1589050;4.48528;45.45972;"04° 29' 07.00'' Est, 45° 27' 35.00'' Nord";"42207";"CEI LA VARIZELLE";"55 ROUTE DE LA VARIZELLE";"42400";"SAINT-CHAMOND";"Mât métallique"; 11.0;"DDE"
1592017;4.05778;46.02250;"04° 03' 28.00'' Est, 46° 01' 21.00'' Nord";"42187";;"RUE DU MOULIN A VENT";"42300";"ROANNE";"Immeuble"; 25.8;"Copropriété, Syndic, SCI"
1594532;4.30972;45.53556;"04° 18' 35.00'' Est, 45° 32' 08.00'' Nord";"42005";;"RUE CHARLES NUNGESSER ZAC DE MILIEUX";"42160";"ANDREZIEUX-BOUTHEON";"Bâtiment"; 20.0;"Société Privée SA"
1597530;4.38139;45.48250;"04° 22' 53.00'' Est, 45° 28' 57.00'' Nord";"42092";;"8 ALLÉE DE LA LICHÈRE";"42580";"L'ETRAT";"Immeuble"; 15.0;"Particulier"
1597531;4.38167;45.48250;"04° 22' 54.00'' Est, 45° 28' 57.00'' Nord";"42092";;"9 ALLÉE DE LA LICHÈRE";"42580";"L'ETRAT";"Immeuble"; 15.0;"Particulier"
1607727;4.36389;45.44444;"04° 21' 50.00'' Est, 45° 26' 40.00'' Nord";"42218";;"PLACE DE LA REPUBLIQUE";"42000";"SAINT-ETIENNE";"Bâtiment"; 20.2;"Particulier"
1607729;4.40389;45.46444;"04° 24' 14.00'' Est, 45° 27' 52.00'' Nord";"42218";;"50 RUE DE MOLINA";"42000";"SAINT-ETIENNE";"Pylône tubulaire"; 21.0;"IFW-FREE"
1618261;4.39139;45.45667;"04° 23' 29.00'' Est, 45° 27' 24.00'' Nord";"42218";;"15 RUE CAMILLE DE ROCHETAILLE IMMEUBLE ROCADIER";"42000";"SAINT-ETIENNE";"Immeuble"; 22.0;"Société Privée SA"
1623107;4.38250;45.43333;"04° 22' 57.00'' Est, 45° 25' 60.00'' Nord";"42218";;"15 RUE VAILLANT COUTURIER";"42000";"SAINT-ETIENNE";"Immeuble"; 20.8;"Particulier"
1624045;4.04444;46.04333;"04° 02' 40.00'' Est, 46° 02' 36.00'' Nord";"42184";"LES POUPÉES";"411 R PASTEUR MAIRIE";"42153";"RIORGES";"Immeuble"; 20.0;"Commune, communauté de commune"
1624630;4.31222;45.40833;"04° 18' 44.00'' Est, 45° 24' 30.00'' Nord";"42189";"PUITS CHARLES";"ZI CHARLES CHANA SITA BORDE-MATIN";"42230";"ROCHE-LA-MOLIERE";"Mât"; 5.0;"Société Privée SA"
1628793;4.43778;45.43306;"04° 26' 16.00'' Est, 45° 25' 59.00'' Nord";"42218";;"7 R ANATOLE FRANCE";"42000";"SAINT-ETIENNE";"Immeuble"; 23.6;"Copropriété, Syndic, SCI"
1629855;4.55250;45.48778;"04° 33' 09.00'' Est, 45° 29' 16.00'' Nord";"42110";;"24 RUE DE LA LIBERATION";"42152";"L'HORME";"Pylône autostable"; 25.3;"HIVORY"
1630148;4.56250;45.30000;"04° 33' 45.00'' Est, 45° 17' 60.00'' Nord";"42023";"COTAVIOL";"BOURG ARGENTAL";"42220";"BOURG-ARGENTAL";"Pylône tubulaire"; 27.0;"Titulaire programme Radio/TV"
1630673;4.55889;45.29556;"04° 33' 32.00'' Est, 45° 17' 44.00'' Nord";"42023";;"10 RUE DU DOCTEUR MOULIN";"42220";"BOURG-ARGENTAL";"Immeuble"; 17.0;"Titulaire programme Radio/TV"
1638745;4.61444;45.33000;"04° 36' 52.00'' Est, 45° 19' 48.00'' Nord";"42246";"LE PLESSA";;"42220";"SAINT-JULIEN-MOLIN-MOLETTE";"Bâtiment"; 10.0;"Société Privée SA"
1638747;4.56639;45.27083;"04° 33' 59.00'' Est, 45° 16' 15.00'' Nord";"42028";"LE BOURG";"MAIRIE SALLE DES FÊTES LES TILLEULS";"42220";"BURDIGNES";"Bâtiment"; 11.0;"Commune, communauté de commune"
1639985;3.93806;46.09389;"03° 56' 17.00'' Est, 46° 05' 38.00'' Nord";"42231";"LES TUILERIES";;"42640";"SAINT-GERMAIN-LESPINASSE";"Bâtiment"; 37.0;"Société Privée SA"
1640112;4.33667;45.78250;"04° 20' 12.00'' Est, 45° 46' 57.00'' Nord";"42165";"CHEZ GAMPALOUP";;"42360";"PANISSIERES";"Pylône autostable"; 13.1;"Société Privée SA"
1640196;4.17528;46.03278;"04° 10' 31.00'' Est, 46° 01' 58.00'' Nord";"42170";;"LES VERRIÈRES";"42120";"PERREUX";"Pylône autostable"; 32.4;"HIVORY"
1640596;3.92389;45.73889;"03° 55' 26.00'' Est, 45° 44' 20.00'' Nord";"42164";"CHOMÉ OUEST";"RD 55";"42990";"PALOGNEUX";"Pylône autostable"; 15.5;"Conseil Départemental"
