Numéro du support;Longitude;Latitude;"Position";"Insee";"Lieu dit";"Adresse";"Code postal";"Commune";"Nature du support";Hauteur en m;"Propriétaire"
11850;0.72111;44.11833;"00° 43' 16.00'' Est, 44° 07' 06.00'' Nord";"47060";"RD 129";"PI RD 129 A62";"47220";"CAUDECOSTE";"Pylône autostable"; 30.0;"Sociétés d'Autoroutes"
11854;0.65194;44.14306;"00° 39' 07.00'' Est, 44° 08' 35.00'' Nord";"47145";;"PS RN21 A62";"47390";"LAYRAC";"Pylône autostable"; 25.0;"Sociétés d'Autoroutes"
11860;0.42944;44.21278;"00° 25' 46.00'' Est, 44° 12' 46.00'' Nord";"47186";"CAMINOTS";;"47130";"MONTESQUIEU";"Mât métallique"; 30.0;
11886;0.59528;44.65056;"00° 35' 43.00'' Est, 44° 39' 02.00'' Nord";"47057";"LE JARDIN";;"47330";"CASTILLONNES";"Pylône autostable"; 26.0;"ORANGE Services Fixes"
11898;0.32361;44.13056;"00° 19' 25.00'' Est, 44° 07' 50.00'' Nord";"47195";"GOUDOU";;"47600";"NERAC";"Pylône autostable"; 34.0;"ORANGE Services Fixes"
11918;0.02889;44.44917;"00° 01' 44.00'' Est, 44° 26' 57.00'' Nord";"47068";;"CD.3 - BOURG DU VILLAGE SOCOTEL";"47250";"COCUMONT";"Bâtiment"; 10.0;"ORANGE Services Fixes"
32491;0.32306;44.57639;"00° 19' 23.00'' Est, 44° 34' 35.00'' Nord";"47204";"BOUSQUET";;"47350";"PEYRIERE";"Pylône autostable"; 45.0;"HIVORY"
32501;0.66583;44.25972;"00° 39' 57.00'' Est, 44° 15' 35.00'' Nord";"47100";;"R LOUIS PASTEUR CHÂTEAU D'EAU";"47510";"FOULAYRONNES";"Château d'eau - réservoir"; 49.7;"Syndicat des eaux, Adduction"
57267;0.20778;44.68694;"00° 12' 28.00'' Est, 44° 41' 13.00'' Nord";"47086";"LE BOUCAUD";;"47120";"DURAS";"Pylône autostable"; 33.0;"HIVORY"
97462;0.29556;44.26306;"00° 17' 44.00'' Est, 44° 15' 47.00'' Nord";"47043";"BOURNEAU";"STATION D'EPURATION";"47160";"BUZET-SUR-BAISE";"Pylône autostable"; 51.0;"ORANGE"
97520;0.46611;44.62750;"00° 27' 58.00'' Est, 44° 37' 39.00'' Nord";"47142";"GRANDES VIGNES";"CHÂTEAU D'EAU";"47410";"LAUZUN";"Château d'eau - réservoir"; 26.0;"Syndicat des eaux, Adduction"
97526;0.29750;44.64667;"00° 17' 51.00'' Est, 44° 38' 48.00'' Nord";"47194";"CROSES";;"47800";"MOUSTIER";"Pylône autostable"; 36.0;"ORANGE"
97538;0.37139;44.03194;"00° 22' 17.00'' Est, 44° 01' 55.00'' Nord";"47174";;"R DU CHÂTEAU D'EAU";"47600";"MONCRABEAU";"Château d'eau - réservoir"; 22.0;"Syndicat des eaux, Adduction"
97540;0.30333;44.52833;"00° 18' 12.00'' Est, 44° 31' 42.00'' Nord";"47216";"PETITE LAUBIE";;"47350";"PUYMICLAN";"Pylône autostable"; 30.0;"ORANGE"
97542;0.21750;44.18806;"00° 13' 03.00'' Est, 44° 11' 17.00'' Nord";"47207";"BURENQUE";;"47230";"POMPIEY";"Pylône autostable"; 36.0;"ORANGE"
114681;0.14722;44.30639;"00° 08' 50.00'' Est, 44° 18' 23.00'' Nord";"47052";"LE PINSAN";"CHÂTEAU D'EAU";"47700";"CASTELJALOUX";"Château d'eau - réservoir"; 25.0;"Syndicat des eaux, Adduction"
163984;1.01806;44.59056;"01° 01' 05.00'' Est, 44° 35' 26.00'' Nord";"47292";;"RTE DE FUMEL";"47500";"SAUVETERRE-LA-LEMANCE";"Support non décrit"; 7.0;
193614;0.64972;44.20167;"00° 38' 59.00'' Est, 44° 12' 06.00'' Nord";"47032";;"937 RTE DE PECAU PECAU";"47240";"BON-ENCONTRE";"Bâtiment"; 6.0;"Particulier"
211508;0.33917;44.26722;"00° 20' 21.00'' Est, 44° 16' 02.00'' Nord";"47210";;"RST S/ST AIGUILLON PK 111.060";"47130";"PORT-SAINTE-MARIE";"Mât"; 6.0;"SNCF Réseau"
241320;0.70917;44.43028;"00° 42' 33.00'' Est, 44° 25' 49.00'' Nord";"47323";"MASSANES";;"47300";"VILLENEUVE-SUR-LOT";"Pylône autostable"; 35.0;"ORANGE Services Fixes"
256919;0.58000;44.13528;"00° 34' 48.00'' Est, 44° 08' 07.00'' Nord";"47016";"PRENTIGARDE";"RTE DE MOIRAX";"47310";"AUBIAC";"Château d'eau - réservoir"; 27.0;"Syndicat des eaux, Adduction"
259068;0.39083;44.14694;"00° 23' 27.00'' Est, 44° 08' 49.00'' Nord";"47195";"BOURIDOU NAOU";;"47600";"NERAC";"Pylône autostable"; 30.0;"HIVORY"
259070;0.56250;44.43694;"00° 33' 45.00'' Est, 44° 26' 13.00'' Nord";"47206";"PECH DE PASTURE";;"47380";"PINEL-HAUTERIVE";"Pylône autostable"; 21.0;"Sociétés d'Autoroutes"
278946;0.14889;44.43389;"00° 08' 56.00'' Est, 44° 26' 02.00'' Nord";"47253";"DUBOURG";"VC N°503 RÉSERVOIR D'EAU DE STE MARTHE";"47430";"SAINTE-MARTHE";"Pylône autostable"; 40.6;"HIVORY"
289455;0.72250;44.39194;"00° 43' 21.00'' Est, 44° 23' 31.00'' Nord";"47323";;"R AMPERE ZI DU RAUY SOCIÉTÉ SERALU";"47300";"VILLENEUVE-SUR-LOT";"Pylône tubulaire"; 25.0;"Copropriété, Syndic, SCI"
289646;0.69889;44.40556;"00° 41' 56.00'' Est, 44° 24' 20.00'' Nord";"47323";;"7, BD DANTON";"47300";"VILLENEUVE-SUR-LOT";"Bâtiment"; 13.0;"Copropriété, Syndic, SCI"
328337;0.89972;44.59028;"00° 53' 59.00'' Est, 44° 35' 25.00'' Nord";"47123";"BOURBON";;"47150";"LACAPELLE-BIRON";"Pylône autostable"; 30.0;"Conseil Départemental"
333597;0.15722;44.23472;"00° 09' 26.00'' Est, 44° 14' 05.00'' Nord";"47093";"LOURDENS";;"47700";"FARGUES-SUR-OURBISE";"Pylône tubulaire"; 35.0;"HIVORY"
333599;0.20083;44.09111;"00° 12' 03.00'' Est, 44° 05' 28.00'' Nord";"47221";"LAS CLOTTES";;"47170";"REAUP-LISSE";"Pylône autostable"; 40.0;"HIVORY"
333601;0.16278;44.04583;"00° 09' 46.00'' Est, 44° 02' 45.00'' Nord";"47302";"CABALÉ";"RÉSERVOIR DE LOULIÉ";"47170";"SOS";"Château d'eau - réservoir"; 39.2;"Syndicat des eaux, Adduction"
340425;0.70250;44.38389;"00° 42' 09.00'' Est, 44° 23' 02.00'' Nord";"47215";;"CHEM DE LA GARENNE";"47300";"PUJOLS";"Pylône autostable"; 16.0;"Titulaire programme Radio/TV"
369458;0.62278;44.53611;"00° 37' 22.00'' Est, 44° 32' 10.00'' Nord";"47048";"R DU PIGEONNIER";;"47290";"CANCON";"Pylône autostable"; 28.0;"ORANGE Services Fixes"
369460;0.76806;44.52861;"00° 46' 05.00'' Est, 44° 31' 43.00'' Nord";"47175";"CLOS DE PÉRÈS";;"47150";"MONFLANQUIN";"Mât"; 7.0;"ORANGE Services Fixes"
374197;0.64917;44.19444;"00° 38' 57.00'' Est, 44° 11' 40.00'' Nord";"47032";"COLAYRAC";"R GEORGES CLÉMENCEAU ZI";"47240";"BON-ENCONTRE";"Pylône autostable"; 24.0;"ORANGE"
387981;0.68833;44.39500;"00° 41' 18.00'' Est, 44° 23' 42.00'' Nord";"47027";;"R DE MALBENTRE";"47300";"BIAS";"Pylône tubulaire"; 28.0;"ORANGE"
391726;0.52917;44.11306;"00° 31' 45.00'' Est, 44° 06' 47.00'' Nord";"47137";;"AV DE CONDON";"47310";"LAPLUME";"Mât métallique"; 8.0;"ORANGE Services Fixes"
411417;0.34694;44.11917;"00° 20' 49.00'' Est, 44° 07' 09.00'' Nord";"47195";"PETRE";"ROUTE DE CONDOM PROCHE D 930";"47600";"NERAC";"Pylône tubulaire"; 30.0;"ORANGE"
435111;0.07000;44.43278;"00° 04' 12.00'' Est, 44° 25' 58.00'' Nord";"47115";"RENARD";;"47250";"GUERIN";"Pylône autostable"; 48.0;"TDF"
435207;0.30972;44.72639;"00° 18' 35.00'' Est, 44° 43' 35.00'' Nord";"47151";"CHATONY";"CHEM DE LOUBES  EYMET";"47120";"LOUBES-BERNAC";"Pylône autostable"; 38.3;"ATC FRANCE"
436585;0.65944;44.25556;"00° 39' 34.00'' Est, 44° 15' 20.00'' Nord";"47209";"LA TUQUETTE";"RN 21";"47480";"PONT-DU-CASSE";"Pylône autostable"; 92.8;"TDF"
437509;0.30389;44.39306;"00° 18' 14.00'' Est, 44° 23' 35.00'' Nord";"47310";;"R COLISSON HÔPITAL TONNEINS";"47400";"TONNEINS";"Pylône autostable"; 36.0;"Etablissement de soins"
440561;0.63833;44.21472;"00° 38' 18.00'' Est, 44° 12' 53.00'' Nord";"47001";"ST-ESPRIT";"AV STALINGRAD";"47000";"AGEN";"Pylône autostable"; 48.0;"TDF"
442160;0.97417;44.50000;"00° 58' 27.00'' Est, 44° 30' 00.00'' Nord";"47106";"AU SAULOU";"LA GARENNE";"47500";"FUMEL";"Pylône autostable"; 31.0;"ORANGE Services Fixes"
442763;0.59444;44.19167;"00° 35' 40.00'' Est, 44° 11' 30.00'' Nord";"47201";"JEAN COUCUT";"R DU CH D'EAU";"47520";"LE PASSAGE";"Château d'eau - réservoir"; 38.0;"Commune, communauté de commune"
452531;0.72222;44.43333;"00° 43' 20.00'' Est, 44° 25' 60.00'' Nord";"47323";"PECH DE MONFABES";;"47300";"VILLENEUVE-SUR-LOT";"Pylône autostable"; 42.0;"TDF"
455421;0.32083;44.69778;"00° 19' 15.00'' Est, 44° 41' 52.00'' Nord";"47303";"LE MOULIN DE MARTINAUD";"LES CABANES D 313";"47120";"SOUMENSAC";"Pylône autostable"; 30.3;"ATC FRANCE"
455988;0.61139;44.22278;"00° 36' 41.00'' Est, 44° 13' 22.00'' Nord";"47100";"LAURIE";;"47510";"FOULAYRONNES";"Pylône autostable"; 18.6;"ORANGE"
456241;0.60361;44.18222;"00° 36' 13.00'' Est, 44° 10' 56.00'' Nord";"47201";"TOUNIS";"AV DES PYRÉNÉES (ADMIN: RUE ANDRÉ MAUROIS) HLM ROCHEBRUNE,BAT C";"47520";"LE PASSAGE";"Immeuble"; 31.0;"Société HLM"
457052;0.32417;44.38833;"00° 19' 27.00'' Est, 44° 23' 18.00'' Nord";"47310";"RUISSEAU CAILLOUX";"R DE LA TRONCE";"47400";"TONNEINS";"Pylône autostable"; 25.0;"ORANGE"
457335;0.08250;44.42722;"00° 04' 57.00'' Est, 44° 25' 38.00'' Nord";"47285";"DARGAOUL";;"47250";"SAMAZAN";"Pylône autostable"; 29.0;"Towercast"
457440;0.72278;44.43917;"00° 43' 22.00'' Est, 44° 26' 21.00'' Nord";"47323";"BORNE MONFABÈS";"ROUTE DE PARIS";"47300";"VILLENEUVE-SUR-LOT";"Château d'eau - réservoir"; 42.0;"Syndicat des eaux, Adduction"
459931;0.03167;44.19250;"00° 01' 54.00'' Est, 44° 11' 33.00'' Nord";"47119";"LE BOURG";"LABOUERE";"47420";"HOUEILLES";"Château d'eau - réservoir"; 41.0;"Commune, communauté de commune"
461884;0.60472;44.43917;"00° 36' 17.00'' Est, 44° 26' 21.00'' Nord";"47252";"RENAT";;"47110";"SAINTE-LIVRADE-SUR-LOT";"Pylône autostable"; 34.0;"CELLNEX"
466399;0.60278;44.20583;"00° 36' 10.00'' Est, 44° 12' 21.00'' Nord";"47201";;"217 R DE LA GARONNE DISTRICT EDF";"47520";"LE PASSAGE";"Pylône autostable"; 31.0;"RTE"
468574;0.70556;44.50972;"00° 42' 20.00'' Est, 44° 30' 35.00'' Nord";"47055";"BOIS-GRAND";;"47290";"CASTELNAUD-DE-GRATECAMBE";"Pylône autostable"; 33.0;"HIVORY"
468961;1.01639;44.45944;"01° 00' 59.00'' Est, 44° 27' 34.00'' Nord";"47185";"LES CLUSELS";"LES CLUSELS";"47500";"MONTAYRAL";"Pylône autostable"; 40.4;"TDF"
481214;0.34528;44.14667;"00° 20' 43.00'' Est, 44° 08' 48.00'' Nord";"47195";"BOUILLARD";;"47600";"NERAC";"Pylône autostable"; 53.0;"TDF"
486319;0.08889;44.32222;"00° 05' 20.00'' Est, 44° 19' 20.00'' Nord";"47052";"PRES D'ARAGNE";;"47700";"CASTELJALOUX";"Pylône autostable"; 49.3;"TDF"
494735;0.63083;44.14389;"00° 37' 51.00'' Est, 44° 08' 38.00'' Nord";"47169";"ARCHES";"PYLONE ASF DE MOIRAX A 62";"47310";"MOIRAX";"Pylône autostable"; 42.0;"Sociétés d'Autoroutes"
495013;0.39194;44.26444;"00° 23' 31.00'' Est, 44° 15' 52.00'' Nord";"47210";"ST JULIEN";"PRES D304 PYLONE TDF";"47130";"PORT-SAINTE-MARIE";"Pylône autostable"; 52.0;"TDF"
495272;0.67139;44.18611;"00° 40' 17.00'' Est, 44° 11' 10.00'' Nord";"47032";;"R DU CALVAIRE";"47240";"BON-ENCONTRE";"Monument religieux"; 46.0;"Commune, communauté de commune"
496605;0.71222;44.41028;"00° 42' 44.00'' Est, 44° 24' 37.00'' Nord";"47323";;"AV DE LA MYRE MORY RUE DU CHATEAU D'EAU";"47300";"VILLENEUVE-SUR-LOT";"Château d'eau - réservoir"; 39.5;"Syndicat des eaux, Adduction"
496718;0.31250;44.44333;"00° 18' 45.00'' Est, 44° 26' 36.00'' Nord";"47110";"CLERC";;"47400";"GONTAUD-DE-NOGARET";"Pylône autostable"; 30.0;"ORANGE"
499273;0.34139;44.30028;"00° 20' 29.00'' Est, 44° 18' 01.00'' Nord";"47004";"LE GUINLET";"R JULES FERRY";"47190";"AIGUILLON";"Château d'eau - réservoir"; 34.0;"Commune, communauté de commune"
499408;0.21056;44.28056;"00° 12' 38.00'' Est, 44° 16' 50.00'' Nord";"47320";"PAGNON";"RTE DE LA MAGDELAINE";"47160";"VILLEFRANCHE-DU-QUEYRAN";"Tour hertzienne"; 75.0;"ORANGE Services Fixes"
500262;0.94722;44.49083;"00° 56' 50.00'' Est, 44° 29' 27.00'' Nord";"47106";"CLOS DE BARDY";"VOIE COMMUNALE ENTREPÔT MUNICIPAUX";"47500";"FUMEL";"Pylône tubulaire"; 25.0;"ORANGE"
502356;0.59833;44.62917;"00° 35' 54.00'' Est, 44° 37' 45.00'' Nord";"47057";"GRAND BOIS";;"47330";"CASTILLONNES";"Pylône autostable"; 42.0;"HIVORY"
504125;0.95056;44.56778;"00° 57' 02.00'' Est, 44° 34' 04.00'' Nord";"47077";"MÉLIS";"CHEM RURAL DE MÉLIS";"47500";"CUZORN";"Pylône autostable"; 34.7;"TDF"
504259;0.36444;44.59167;"00° 21' 52.00'' Est, 44° 35' 30.00'' Nord";"47168";;"AV MARCEL CERDAN STADE PROCHE D.279";"47800";"MIRAMONT-DE-GUYENNE";"Pylône autostable"; 40.0;"TDF"
504331;0.86917;44.13833;"00° 52' 09.00'' Est, 44° 08' 18.00'' Nord";"47067";"LA SERRETTE";;"47270";"CLERMONT-SOUBIRAN";"Pylône autostable"; 26.0;"TDF"
506211;0.09500;44.53056;"00° 05' 42.00'' Est, 44° 31' 50.00'' Nord";"47233";;"R D'OREILLE AUTOCOM";"47180";"SAINTE-BAZEILLE";"Pylône autostable"; 25.0;"ORANGE"
508170;0.20444;44.53167;"00° 12' 16.00'' Est, 44° 31' 54.00'' Nord";"47157";"PELEVISOT";"RTE D'ESCASSEFORT";"47200";"MARMANDE";"Château d'eau - réservoir"; 38.0;"Syndicat des eaux, Adduction"
514335;0.81972;44.18389;"00° 49' 11.00'' Est, 44° 11' 02.00'' Nord";"47217";"A LABORIE";;"47270";"PUYMIROL";"Pylône autostable"; 36.0;"ORANGE"
515181;0.53056;44.11306;"00° 31' 50.00'' Est, 44° 06' 47.00'' Nord";"47137";;"PL DU MARCADIEU RTE D'AGEN CHATEAU D'EAU";"47310";"LAPLUME";"Château d'eau - réservoir"; 48.0;"Syndicat des eaux, Adduction"
517172;0.67417;44.12889;"00° 40' 27.00'' Est, 44° 07' 44.00'' Nord";"47145";"BAJOLLES";"CHEM RURAL DE BAJOLLES AS PEYRES";"47390";"LAYRAC";"Pylône autostable"; 32.0;"TDF"
520169;0.32472;44.23556;"00° 19' 29.00'' Est, 44° 14' 08.00'' Nord";"47318";;"LACROIX";"47230";"VIANNE";"Pylône autostable"; 40.0;"Sociétés d'Autoroutes"
521016;0.60250;44.38000;"00° 36' 09.00'' Est, 44° 22' 48.00'' Nord";"47252";"PECH D'ANGEROS";;"47110";"SAINTE-LIVRADE-SUR-LOT";"Pylône autostable"; 30.0;"Commune, communauté de commune"
522353;0.53778;44.20500;"00° 32' 16.00'' Est, 44° 12' 18.00'' Nord";"47040";"GARROUSSET";"5005 AV DES LANDES";"47310";"BRAX";"Pylône autostable"; 35.0;"ORANGE"
523190;0.45861;44.40500;"00° 27' 31.00'' Est, 44° 24' 18.00'' Nord";"47135";"MARLIAC";;"47260";"LAPARADE";"Château d'eau - réservoir"; 31.0;"Syndicat des eaux, Adduction"
524196;0.43056;44.07889;"00° 25' 50.00'' Est, 44° 04' 44.00'' Nord";"47102";"ST-CAPRAIS";;"47600";"FRANCESCAS";"Château d'eau - réservoir"; 38.0;"Syndicat des eaux, Adduction"
524198;0.62639;44.34500;"00° 37' 35.00'' Est, 44° 20' 42.00'' Nord";"47081";"LE MOULIN À VENT";"CHATEAU D'EAU";"47110";"DOLMAYRAC";"Château d'eau - réservoir"; 33.0;"Syndicat des eaux, Adduction"
524204;0.82639;44.35389;"00° 49' 35.00'' Est, 44° 21' 14.00'' Nord";"47203";"BARRY BAS";;"47140";"PENNE-D'AGENAIS";"Château d'eau - réservoir"; 35.0;"Syndicat des eaux, Adduction"
524210;0.51722;44.48861;"00° 31' 02.00'' Est, 44° 29' 19.00'' Nord";"47182";"EGLISE DU BOURG";;"47380";"MONTASTRUC";"Monument religieux"; 18.0;"Commune, communauté de commune"
524626;0.95583;44.47111;"00° 57' 21.00'' Est, 44° 28' 16.00'' Nord";"47283";"FONTAUZEL";;"47500";"SAINT-VITE";"Château d'eau - réservoir"; 32.0;"Syndicat des eaux, Adduction"
524660;0.48306;44.21111;"00° 28' 59.00'' Est, 44° 12' 40.00'' Nord";"47300";"LAGRANGE";"CHATEAU D EAU";"47310";"SERIGNAC-SUR-GARONNE";"Château d'eau - réservoir"; 25.0;"Syndicat des eaux, Adduction"
524672;0.52861;44.44472;"00° 31' 43.00'' Est, 44° 26' 41.00'' Nord";"47173";;"R DU CHÂTEAU D'EAU";"47380";"MONCLAR";"Château d'eau - réservoir"; 34.0;"Syndicat des eaux, Adduction"
528984;0.97528;44.41778;"00° 58' 31.00'' Est, 44° 25' 04.00'' Nord";"47036";"GABOT";"CHATEAU D EAU";"47370";"BOURLENS";"Château d'eau - réservoir"; 25.0;"Syndicat des eaux, Adduction"
528992;0.26000;44.20528;"00° 15' 36.00'' Est, 44° 12' 19.00'' Nord";"47327";"ALBRET SANS FIL";"22 R DU SENTIER";"47230";"XAINTRAILLES";"Monument religieux"; 14.0;"Commune, communauté de commune"
528996;0.15111;44.01306;"00° 09' 04.00'' Est, 44° 00' 47.00'' Nord";"47258";"LE BOURG";;"47170";"SAINTE-MAURE-DE-PEYRIAC";"Château d'eau - réservoir"; 29.0;"Syndicat des eaux, Adduction"
529004;1.01389;44.60528;"01° 00' 50.00'' Est, 44° 36' 19.00'' Nord";"47292";"LAPEZE HAUTE";;"47500";"SAUVETERRE-LA-LEMANCE";"Pylône autostable"; 25.0;"Commune, communauté de commune"
529011;0.45778;44.19139;"00° 27' 28.00'' Est, 44° 11' 29.00'' Nord";"47186";"BERTRAND";;"47130";"MONTESQUIEU";"Pylône autostable"; 25.0;"Commune, communauté de commune"
529014;0.42722;44.50611;"00° 25' 38.00'' Est, 44° 30' 22.00'' Nord";"47313";"LE BOURG - ANCIEN MOULIN";"PRÈS RÉSERVOIR";"47380";"TOURTRES";"Pylône tubulaire"; 12.0;"Commune, communauté de commune"
529019;0.84611;44.52500;"00° 50' 46.00'' Est, 44° 31' 30.00'' Nord";"47181";"LE PECH";"RESERVOIR";"47150";"MONTAGNAC-SUR-LEDE";"Pylône autostable"; 20.0;"Commune, communauté de commune"
530091;0.90389;44.57278;"00° 54' 14.00'' Est, 44° 34' 22.00'' Nord";"47109";"LES GRANDES CHATAIGNERAIES";"GRICHET CHEM RURAL";"47150";"GAVAUDUN";"Pylône autostable"; 26.0;"Conseil Départemental"
530130;0.62222;44.29889;"00° 37' 20.00'' Est, 44° 17' 56.00'' Nord";"47140";"MARSAC";;"47360";"LAUGNAC";"Château d'eau - réservoir"; 35.0;"Syndicat des eaux, Adduction"
530143;0.76861;44.53361;"00° 46' 07.00'' Est, 44° 32' 01.00'' Nord";"47175";"TOUR DE VILLE";;"47150";"MONFLANQUIN";"Château d'eau - réservoir"; 23.0;"Syndicat des eaux, Adduction"
530153;0.98111;44.38056;"00° 58' 52.00'' Est, 44° 22' 50.00'' Nord";"47312";"TOURREL";;"47370";"TOURNON-D'AGENAIS";"Château d'eau - réservoir"; 25.2;"Syndicat des eaux, Adduction"
530173;0.36583;44.14333;"00° 21' 57.00'' Est, 44° 08' 36.00'' Nord";"47195";"ST PE DE TOURNE";"CHATEAU D EAU";"47600";"NERAC";"Château d'eau - réservoir"; 65.0;"Syndicat des eaux, Adduction"
530181;0.74639;44.34861;"00° 44' 47.00'' Est, 44° 20' 55.00'' Nord";"47228";"CAP DE L HOMME";"CHEM D'HAUTEFAGE CHÂTEAU D'EAU";"47340";"SAINT-ANTOINE-DE-FICALBA";"Château d'eau - réservoir"; 54.0;"Syndicat des eaux, Adduction"
530192;0.34750;44.45667;"00° 20' 51.00'' Est, 44° 27' 24.00'' Nord";"47118";"LES MOULINS";"CHEM DE CHARRAU";"47400";"HAUTESVIGNES";"Château d'eau - réservoir"; 31.0;"Syndicat des eaux, Adduction"
530208;0.27278;44.25889;"00° 16' 22.00'' Est, 44° 15' 32.00'' Nord";"47267";"CARNELOT";;"47160";"SAINT-PIERRE-DE-BUZET";"Château d'eau - réservoir"; 32.0;"Syndicat des eaux, Adduction"
530255;0.49778;44.25806;"00° 29' 52.00'' Est, 44° 15' 29.00'' Nord";"47154";"MENDOUSE";"CHEM RURAL PRÈS D.245";"47360";"LUSIGNAN-PETIT";"Château d'eau - réservoir"; 34.0;"Syndicat des eaux, Adduction"
530270;0.63583;44.51111;"00° 38' 09.00'' Est, 44° 30' 40.00'' Nord";"47023";"SOULODRES";"CHEM COMMUNAL N°430";"47290";"BEAUGAS";"Château d'eau - réservoir"; 61.0;"Syndicat des eaux, Adduction"
530782;0.57500;44.56778;"00° 34' 30.00'' Est, 44° 34' 04.00'' Nord";"47193";"FAUCHES";"D 241";"47290";"MOULINET";"Pylône tubulaire"; 20.0;"Commune, communauté de commune"
531506;0.27806;44.05028;"00° 16' 41.00'' Est, 44° 03' 01.00'' Nord";"47167";"BELLEVUE";"RD 117 CHATEAU D'EAU DE SAINT PIERRE";"47170";"MEZIN";"Château d'eau - réservoir"; 51.0;"Syndicat des eaux, Adduction"
531981;0.95083;44.61556;"00° 57' 03.00'' Est, 44° 36' 56.00'' Nord";"47029";"LA BURLADE";;"47500";"BLANQUEFORT-SUR-BRIOLANCE";"Château d'eau - réservoir"; 36.0;"Syndicat des eaux, Adduction"
532657;0.63278;44.19556;"00° 37' 58.00'' Est, 44° 11' 44.00'' Nord";"47001";;"22 AV GEORGES CUVIER";"47000";"AGEN";"Immeuble"; 44.5;"Copropriété, Syndic, SCI"
533096;0.12472;44.35722;"00° 07' 29.00'' Est, 44° 21' 26.00'' Nord";"47121";"LA CONCADE NORD";"VC N° 101";"47250";"LABASTIDE-CASTEL-AMOUROUX";"Pylône autostable"; 30.0;"ORANGE"
533403;0.87500;44.36722;"00° 52' 30.00'' Est, 44° 22' 02.00'' Nord";"47203";"CHATEAU LAROUQUETTE";"PYL TDF";"47140";"PENNE-D'AGENAIS";"Pylône autostable"; 34.0;"TDF"
542250;0.33028;44.33611;"00° 19' 49.00'' Est, 44° 20' 10.00'' Nord";"47196";"LENTRE";;"47190";"NICOLE";"Pylône autostable"; 45.2;"TDF"
544071;0.75667;44.18722;"00° 45' 24.00'' Est, 44° 11' 14.00'' Nord";"47269";"JOUATAS";"RTE DE BELLE SOURCE";"47270";"SAINT-PIERRE-DE-CLAIRAC";"Pylône autostable"; 44.0;"TDF"
551596;0.73861;44.38333;"00° 44' 19.00'' Est, 44° 22' 60.00'' Nord";"47323";"SALABEILLES";"VOIE COMMUNALE N° 204";"47300";"VILLENEUVE-SUR-LOT";"Pylône autostable"; 27.0;"ORANGE Services Fixes"
551697;0.62583;44.17778;"00° 37' 33.00'' Est, 44° 10' 40.00'' Nord";"47031";;"7 R LAMOTHE MAGNAC";"47550";"BOE";"Pylône autostable"; 25.0;"ORANGE"
551726;0.34361;44.17250;"00° 20' 37.00'' Est, 44° 10' 21.00'' Nord";"47090";"LA TUQUE NEUVE";;"47600";"ESPIENS";"Pylône autostable"; 16.0;"ORANGE"
570279;0.27833;44.05056;"00° 16' 42.00'' Est, 44° 03' 02.00'' Nord";"47167";"ST PIERRE";"RD 117";"47170";"MEZIN";"Mât béton"; 10.0;"ORANGE Services Fixes"
572863;0.19056;44.52722;"00° 11' 26.00'' Est, 44° 31' 38.00'' Nord";"47157";"JUVELIN";"CHEM RURAL PYLÔNE FRANCE TELECOM ADM. : LA MAGDELEINE";"47200";"MARMANDE";"Pylône autostable"; 30.0;"ORANGE"
579540;0.75639;44.18944;"00° 45' 23.00'' Est, 44° 11' 22.00'' Nord";"47269";;"JOUATAS SITE ITAS TIM";"47270";"SAINT-PIERRE-DE-CLAIRAC";"Pylône autostable"; 36.0;"TDF"
579653;0.79444;44.18722;"00° 47' 40.00'' Est, 44° 11' 14.00'' Nord";"47217";;"R DU CHÂTEAU";"47270";"PUYMIROL";"Château d'eau - réservoir"; 35.0;"Syndicat des eaux, Adduction"
579688;0.85917;44.17361;"00° 51' 33.00'' Est, 44° 10' 25.00'' Nord";"47281";"FONTANELLES";;"47270";"SAINT-URCISSE";"Château d'eau - réservoir"; 27.0;"Syndicat des eaux, Adduction"
580209;0.67361;44.09028;"00° 40' 25.00'' Est, 44° 05' 25.00'' Nord";"47092";"MOULIN DE BOURBON";"MONDON";"47220";"FALS";"Château d'eau - réservoir"; 39.0;"Syndicat des eaux, Adduction"
580511;0.86917;44.13833;"00° 52' 09.00'' Est, 44° 08' 18.00'' Nord";"47067";"LA SERRETTE";;"47270";"CLERMONT-SOUBIRAN";"Pylône autostable"; 31.0;"ORANGE"
581254;0.97389;44.60389;"00° 58' 26.00'' Est, 44° 36' 14.00'' Nord";"47029";"LE BREIL";"VOIE COMMUNALE N° 16";"47500";"BLANQUEFORT-SUR-BRIOLANCE";"Mât"; 12.0;"ORANGE"
581354;0.21167;44.40694;"00° 12' 42.00'' Est, 44° 24' 25.00'' Nord";"47159";"LARÉGNADE";"VC N°6 DE LARÉGNADE";"47430";"LE MAS-D'AGENAIS";"Château d'eau - réservoir"; 42.0;"Syndicat des eaux, Adduction"
583650;0.15639;44.37722;"00° 09' 23.00'' Est, 44° 22' 38.00'' Nord";"47244";"PEY DE BIZOC";;"47250";"SAINTE-GEMME-MARTAILLAC";"Pylône autostable"; 32.0;"Particulier"
584116;0.22833;44.68083;"00° 13' 42.00'' Est, 44° 40' 51.00'' Nord";"47086";"NAVARRE";;"47120";"DURAS";"Château d'eau - réservoir"; 40.0;"Syndicat des eaux, Adduction"
584125;0.18667;44.70861;"00° 11' 12.00'' Est, 44° 42' 31.00'' Nord";"47294";"JACOB";"CHATEAU D'EAU";"47120";"SAVIGNAC-DE-DURAS";"Château d'eau - réservoir"; 26.0;"Syndicat des eaux, Adduction"
584149;0.31194;44.57556;"00° 18' 43.00'' Est, 44° 34' 32.00'' Nord";"47204";"BRANDEAU";;"47350";"PEYRIERE";"Château d'eau - réservoir"; 28.0;"Syndicat des eaux, Adduction"
585561;0.13528;44.34000;"00° 08' 07.00'' Est, 44° 20' 24.00'' Nord";"47121";"PIQUET";;"47250";"LABASTIDE-CASTEL-AMOUROUX";"Château d'eau - réservoir"; 42.0;"Syndicat des eaux, Adduction"
585575;0.22278;44.36333;"00° 13' 22.00'' Est, 44° 21' 48.00'' Nord";"47046";"PICHOLLE";"GAT";"47430";"CALONGES";"Château d'eau - réservoir"; 44.0;"Syndicat des eaux, Adduction"
585660;0.91167;44.44472;"00° 54' 42.00'' Est, 44° 26' 41.00'' Nord";"47328";"TROTES";;"47370";"SAINT-GEORGES";"Pylône autostable"; 45.0;"HIVORY"
585756;0.40528;44.61889;"00° 24' 19.00'' Est, 44° 37' 08.00'' Nord";"47035";"LE MOULIN DE LANAUVE";;"47410";"BOURGOUGNAGUE";"Pylône autostable"; 25.0;"Particulier"
585908;0.09722;44.39333;"00° 05' 50.00'' Est, 44° 23' 36.00'' Nord";"47034";;"PL DE LA MAIRIE CHATEAU D'EAU";"47250";"BOUGLON";"Château d'eau - réservoir"; 28.5;"Syndicat des eaux, Adduction"
585916;0.02250;44.35139;"00° 01' 21.00'' Est, 44° 21' 05.00'' Nord";"47010";"JACQUET";"PRÈS D 655 CHATEAU D'EAU";"47700";"ANTAGNAC";"Château d'eau - réservoir"; 32.0;"Syndicat des eaux, Adduction"
588967;0.24889;44.34389;"00° 14' 56.00'' Est, 44° 20' 38.00'' Nord";"47214";"AIRES DE QUEYRAU";"A.62  - SENS BORDEAUX /TOULOUSE AIRES DE QUEYRAU";"47160";"PUCH-D'AGENAIS";"Pylône autostable"; 30.0;"Sociétés d'Autoroutes"
589794;0.61889;44.52083;"00° 37' 08.00'' Est, 44° 31' 15.00'' Nord";"47048";"PARRINOTS";;"47290";"CANCON";"Château d'eau - réservoir"; 34.0;"Syndicat des eaux, Adduction"
590056;0.71139;44.34111;"00° 42' 41.00'' Est, 44° 20' 28.00'' Nord";"47228";"POULVIGNAC";;"47340";"SAINT-ANTOINE-DE-FICALBA";"Château d'eau - réservoir"; 34.0;"Syndicat des eaux, Adduction"
600150;0.03000;44.52361;"00° 01' 48.00'' Est, 44° 31' 25.00'' Nord";"47165";"LABEYRIE";;"47180";"MEILHAN-SUR-GARONNE";"Château d'eau - réservoir"; 27.4;"Syndicat des eaux, Adduction"
607894;0.68194;44.66444;"00° 40' 55.00'' Est, 44° 39' 52.00'' Nord";"47083";"MARSAL";;"47210";"DOUDRAC";"Pylône autostable"; 25.5;"Particulier"
608006;0.64139;44.58417;"00° 38' 29.00'' Est, 44° 35' 03.00'' Nord";"47152";"ROCADET";"RÉSERVOIR";"47290";"LOUGRATTE";"Château d'eau - réservoir"; 28.2;"Syndicat des eaux, Adduction"
608318;0.71861;44.56222;"00° 43' 07.00'' Est, 44° 33' 44.00'' Nord";"47241";"LANÉGRIE";;"47210";"SAINT-EUTROPE-DE-BORN";"Château d'eau - réservoir"; 30.0;"Syndicat des eaux, Adduction"
608368;0.72556;44.21250;"00° 43' 32.00'' Est, 44° 12' 45.00'' Nord";"47032";"LAGRAVETE";;"47240";"BON-ENCONTRE";"Pylône autostable"; 30.0;"Particulier"
608380;0.16806;44.60806;"00° 10' 05.00'' Est, 44° 36' 29.00'' Nord";"47059";"LAVERGNE";;"47120";"CAUBON-SAINT-SAUVEUR";"Château d'eau - réservoir"; 41.0;"Syndicat des eaux, Adduction"
608596;0.63556;44.21667;"00° 38' 08.00'' Est, 44° 13' 00.00'' Nord";"47001";"ST ESPRIT";"RTE DE VILLENEUVE HOP";"47000";"AGEN";"Bâtiment"; 57.0;"Etablissement de soins"
608603;0.82278;44.27861;"00° 49' 22.00'' Est, 44° 16' 43.00'' Nord";"47062";"PECH JOUAN";"PLAINE DE BROUELLE";"47470";"CAUZAC";"Château d'eau - réservoir"; 56.0;"Syndicat des eaux, Adduction"
608618;0.59167;44.65083;"00° 35' 30.00'' Est, 44° 39' 03.00'' Nord";"47057";"PALFOURQUES";"AV DE LA REPUBLIQUE";"47330";"CASTILLONNES";"Château d'eau - réservoir"; 42.0;"Syndicat des eaux, Adduction"
608916;0.37528;44.54000;"00° 22' 31.00'' Est, 44° 32' 24.00'' Nord";"47232";"LES MENAUDES";"CHEM COMMUNAL PRÉS D315";"47350";"SAINT-BARTHELEMY-D'AGENAIS";"Pylône autostable"; 35.0;"Conseil Départemental"
609599;0.83417;44.66361;"00° 50' 03.00'' Est, 44° 39' 49.00'' Nord";"47200";"LA TUQUE";;"47210";"PARRANQUET";"Pylône autostable"; 30.0;"Particulier"
609723;0.86361;44.31528;"00° 51' 49.00'' Est, 44° 18' 55.00'' Nord";"47161";"PECH DE MAUREL";;"47140";"MASSELS";"Pylône autostable"; 25.0;"Particulier"
614065;0.35528;44.36083;"00° 21' 19.00'' Est, 44° 21' 39.00'' Nord";"47065";"LA FERRIÈRE";"GR 69";"47320";"CLAIRAC";"Pylône autostable"; 40.0;"HIVORY"
617311;0.73222;44.26389;"00° 43' 56.00'' Est, 44° 15' 50.00'' Nord";"47138";"BARBUT";;"47340";"LAROQUE-TIMBAUT";"Pylône autostable"; 38.0;"ORANGE"
619810;0.34528;44.59111;"00° 20' 43.00'' Est, 44° 35' 28.00'' Nord";"47168";"GRAND-CROIX";"PRÉS D933";"47800";"MIRAMONT-DE-GUYENNE";"Pylône autostable"; 42.0;"ORANGE"
629058;0.39861;44.21417;"00° 23' 55.00'' Est, 44° 12' 51.00'' Nord";"47041";"MAZÈRES";"CHEM RURAL PRÈS A.62 - SENS TOULOUSE-BORDEAUX";"47130";"BRUCH";"Pylône autostable"; 36.0;"ORANGE"
629965;-0.00417;44.47306;"00° 00' 15.00'' Ouest, 44° 28' 23.00'' Nord";"47277";"CARBOUE";;"47180";"SAINT-SAUVEUR-DE-MEILHAN";"Pylône autostable"; 20.0;"Particulier"
643029;0.61639;44.21222;"00° 36' 59.00'' Est, 44° 12' 44.00'' Nord";"47001";;"232 R DE BELLEVUE";"47000";"AGEN";"Pylône autostable"; 35.0;"Towercast"
645247;0.62417;44.19417;"00° 37' 27.00'' Est, 44° 11' 39.00'' Nord";"47001";;"75 R RENE CASSIN";"47000";"AGEN";"Bâtiment"; 8.0;"Particulier"
656770;0.54278;44.14583;"00° 32' 34.00'' Est, 44° 08' 45.00'' Nord";"47137";"ROSIÈRE";;"47310";"LAPLUME";"Pylône autostable"; 38.0;"HIVORY"
657314;0.15111;44.42389;"00° 09' 04.00'' Est, 44° 25' 26.00'' Nord";"47253";"RAYNE";"VC N° 503";"47430";"SAINTE-MARTHE";"Pylône autostable"; 30.0;"ORANGE"
661625;0.44556;44.19833;"00° 26' 44.00'' Est, 44° 11' 54.00'' Nord";"47186";"SERGENT";;"47130";"MONTESQUIEU";"Pylône autostable"; 51.0;"HIVORY"
663587;0.99861;44.46306;"00° 59' 55.00'' Est, 44° 27' 47.00'' Nord";"47185";"VILLAGE VACANCES DES COLLINES";;"47500";"MONTAYRAL";"Pylône autostable"; 16.0;"Titulaire programme Radio/TV"
674098;0.93417;44.47778;"00° 56' 03.00'' Est, 44° 28' 40.00'' Nord";"47070";"LABESQUE";"CHEM PRÈS D.911 ZA LALANDETTE";"47500";"CONDEZAYGUES";"Pylône autostable"; 26.0;"ORANGE"
686605;0.58944;44.39806;"00° 35' 22.00'' Est, 44° 23' 53.00'' Nord";"47252";;"1 R D'AGEN";"47110";"SAINTE-LIVRADE-SUR-LOT";"Immeuble"; 19.0;"Particulier"
709733;0.47639;44.15889;"00° 28' 35.00'' Est, 44° 09' 32.00'' Nord";"47180";"JOLIFOURCAUD";"RÉSERVOIR";"47600";"MONTAGNAC-SUR-AUVIGNON";"Bâtiment"; 13.0;"Commune, communauté de commune"
709915;0.59528;44.35556;"00° 35' 43.00'' Est, 44° 21' 20.00'' Nord";"47081";;"LE RIEUX";"47110";"DOLMAYRAC";"Bâtiment"; 15.0;"Société Privée SA"
710060;0.28833;44.48306;"00° 17' 18.00'' Est, 44° 28' 59.00'' Nord";"47028";"LE MOULIN DE BIRAC";"CHÂTEAU D'EAU";"47200";"BIRAC-SUR-TREC";"Château d'eau - réservoir"; 22.0;"Syndicat des eaux, Adduction"
710698;0.68833;44.38556;"00° 41' 18.00'' Est, 44° 23' 08.00'' Nord";"47215";"LE BOURG";"MAIRIE";"47300";"PUJOLS";"Bâtiment"; 18.0;"Commune, communauté de commune"
710825;0.65000;44.20167;"00° 39' 00.00'' Est, 44° 12' 06.00'' Nord";"47032";;"775 CHEM DE PÉCAU";"47240";"BON-ENCONTRE";"Pylône autostable"; 27.0;"Lagardère Active Média"
719507;0.12333;44.58778;"00° 07' 24.00'' Est, 44° 35' 16.00'' Nord";"47131";"LE BOIS DE HARDIT";;"47180";"LAGUPIE";"Pylône autostable"; 25.0;"Particulier"
720860;0.33250;44.20167;"00° 19' 57.00'' Est, 44° 12' 06.00'' Nord";"47318";"PEBORDE";"PRÈS D930";"47230";"VIANNE";"Pylône autostable"; 24.0;"ORANGE"
731388;0.43694;44.27361;"00° 26' 13.00'' Est, 44° 16' 25.00'' Nord";"47022";"PATAROTS";"RD 205";"47130";"BAZENS";"Pylône autostable"; 35.0;"Titulaire programme Radio/TV"
732862;0.59639;44.62667;"00° 35' 47.00'' Est, 44° 37' 36.00'' Nord";"47183";"LARTIGUE";"CEI DE CASTILLONNES LARTIGUE";"47330";"MONTAURIOL";"Mât"; 8.0;"DDE"
732864;0.28194;44.29056;"00° 16' 55.00'' Est, 44° 17' 26.00'' Nord";"47078";"LAVARICE";"CENTRE DE LA NAVIGATION";"47160";"DAMAZAN";"Pylône haubané"; 10.0;"Conseil Départemental"
739186;0.16472;44.50361;"00° 09' 53.00'' Est, 44° 30' 13.00'' Nord";"47157";;"59 BD ULYSSE CASSE";"47200";"MARMANDE";"Immeuble"; 33.8;"Copropriété, Syndic, SCI"
743127;0.70361;44.11444;"00° 42' 13.00'' Est, 44° 06' 52.00'' Nord";"47092";"BOIS DES HUGUETS";"LA GARENNE VC N°4";"47220";"FALS";"Pylône autostable"; 44.6;"TDF"
744238;0.49861;44.14444;"00° 29' 55.00'' Est, 44° 08' 40.00'' Nord";"47172";"LE TOUYRE";"RELAIS LE TOUYRE";"47310";"MONCAUT";"Pylône autostable"; 30.0;"EDF ou GDF"
745800;0.35139;44.58194;"00° 21' 05.00'' Est, 44° 34' 55.00'' Nord";"47168";"GENÈVRIER";"CHATEAU D'EAU GENÈVRIER";"47800";"MIRAMONT-DE-GUYENNE";"Château d'eau - réservoir"; 39.0;"Syndicat des eaux, Adduction"
745802;0.17306;44.53194;"00° 10' 23.00'' Est, 44° 31' 55.00'' Nord";"47157";"BRETTES";"RELAIS EDF";"47200";"MARMANDE";"Pylône autostable"; 30.0;"EDF ou GDF"
747365;0.73806;44.63083;"00° 44' 17.00'' Est, 44° 37' 51.00'' Nord";"47324";"CAILLAOU EST";"CHEM VICINAL N°2";"47210";"VILLEREAL";"Pylône autostable"; 32.0;"ORANGE Services Fixes"
747409;0.18861;44.67556;"00° 11' 19.00'' Est, 44° 40' 32.00'' Nord";"47086";"LES BOUTÈRES";"CHEMIN DE ST EYRARD VOIE COMMUNALE N°106";"47120";"DURAS";"Pylône autostable"; 31.0;"ORANGE Services Fixes"
747875;0.62056;44.52000;"00° 37' 14.00'' Est, 44° 31' 12.00'' Nord";"47023";"CAMINOLLES";"RELAIS EDF";"47290";"BEAUGAS";"Pylône autostable"; 42.0;"EDF ou GDF"
761364;0.39917;44.15250;"00° 23' 57.00'' Est, 44° 09' 09.00'' Nord";"47090";"MARIOTTE";;"47600";"ESPIENS";"Pylône autostable"; 45.0;"EDF ou GDF"
762199;0.13083;44.33722;"00° 07' 51.00'' Est, 44° 20' 14.00'' Nord";"47121";"PIQUET";;"47250";"LABASTIDE-CASTEL-AMOUROUX";"Pylône autostable"; 38.0;"EDF ou GDF"
762270;0.35250;44.36028;"00° 21' 09.00'' Est, 44° 21' 37.00'' Nord";"47065";"SEGUIN";"RELAIS EDF SEGUIN";"47320";"CLAIRAC";"Pylône autostable"; 33.0;"EDF ou GDF"
789553;0.47778;44.45833;"00° 28' 40.00'' Est, 44° 27' 30.00'' Nord";"47071";;"LASTUQUE";"47260";"COULX";"Pylône autostable"; 30.0;"ORANGE"
791847;0.15472;44.50167;"00° 09' 17.00'' Est, 44° 30' 06.00'' Nord";"47157";;"CHEM DU ROC";"47200";"MARMANDE";"Pylône autostable"; 24.0;"ORANGE Services Fixes"
791849;0.61778;44.20444;"00° 37' 04.00'' Est, 44° 12' 16.00'' Nord";"47001";;"PL JEAN-BAPTISTE DURAND MARCHÉ PARKING";"47000";"AGEN";"Immeuble"; 28.0;"Commune, communauté de commune"
791851;0.18611;44.58667;"00° 11' 10.00'' Est, 44° 35' 12.00'' Nord";"47059";"GRIFFON";;"47120";"CAUBON-SAINT-SAUVEUR";"Pylône autostable"; 37.0;"ORANGE"
791853;0.64528;44.18583;"00° 38' 43.00'' Est, 44° 11' 09.00'' Nord";"47031";;"2, R DE MAYCAYRAN LA COURONNE";"47550";"BOE";"Pylône autostable"; 30.0;"ORANGE"
791855;0.47250;44.06417;"00° 28' 21.00'' Est, 44° 03' 51.00'' Nord";"47197";"BAULENS OUEST";"VOIE COM N°101";"47600";"NOMDIEU";"Pylône autostable"; 38.0;"ORANGE"
791861;0.82250;44.39028;"00° 49' 21.00'' Est, 44° 23' 25.00'' Nord";"47203";"SANSOT- FERRACAP";"A COTÉ DU RÉSERVOIR D'EAU";"47140";"PENNE-D'AGENAIS";"Pylône tubulaire"; 20.0;"ORANGE"
791863;0.59028;44.41194;"00° 35' 25.00'' Est, 44° 24' 43.00'' Nord";"47252";"MAZIÈRE";"CHÂTEAU D'EAU";"47110";"SAINTE-LIVRADE-SUR-LOT";"Château d'eau - réservoir"; 32.0;"Commune, communauté de commune"
791877;0.15778;44.51222;"00° 09' 28.00'' Est, 44° 30' 44.00'' Nord";"47157";;"4 R DE GUYENNE HLM LOLYA";"47200";"MARMANDE";"Immeuble"; 24.0;"Société HLM"
791881;0.33833;44.13556;"00° 20' 18.00'' Est, 44° 08' 08.00'' Nord";"47195";;"88 R GAMBETTA";"47600";"NERAC";"Immeuble"; 19.0;"Particulier"
791886;0.69917;44.41667;"00° 41' 57.00'' Est, 44° 24' 60.00'' Nord";"47323";;"75 AV JEAN CLAUDE CAYREL";"47300";"VILLENEUVE-SUR-LOT";"Pylône autostable"; 30.0;"ORANGE"
791890;0.68417;44.40028;"00° 41' 03.00'' Est, 44° 24' 01.00'' Nord";"47027";"SOUILLÈS";"D446 / R DE MARQUÈS";"47300";"BIAS";"Pylône autostable"; 30.0;"ORANGE"
791894;0.63944;44.20833;"00° 38' 22.00'' Est, 44° 12' 30.00'' Nord";"47001";;"270 R JEAN LAFFORE";"47000";"AGEN";"Immeuble"; 39.0;"Société HLM"
791896;0.62861;44.20833;"00° 37' 43.00'' Est, 44° 12' 30.00'' Nord";"47001";;"281 R DE POMPEYRIE";"47000";"AGEN";"Immeuble"; 28.0;"Société HLM"
791898;0.65056;44.42611;"00° 39' 02.00'' Est, 44° 25' 34.00'' Nord";"47049";"CLOTS DE ROQUES";"PYLÔNE ORANGE";"47440";"CASSENEUIL";"Pylône autostable"; 33.0;"ORANGE"
791908;0.71222;44.40500;"00° 42' 44.00'' Est, 44° 24' 18.00'' Nord";"47323";;"18, R JEAN MOULIN SITE FT";"47300";"VILLENEUVE-SUR-LOT";"Bâtiment"; 38.0;"ORANGE Services Fixes"
791910;0.72417;44.42111;"00° 43' 27.00'' Est, 44° 25' 16.00'' Nord";"47323";"LA TOUR";"R DE LA TOUR TERRAIN DES SPORTS";"47300";"VILLENEUVE-SUR-LOT";"Pylône tubulaire"; 29.0;"ORANGE"
791912;0.71194;44.39278;"00° 42' 43.00'' Est, 44° 23' 34.00'' Nord";"47323";;"ROUTE D' AGEN STADE DE LA MYRE-MORY";"47300";"VILLENEUVE-SUR-LOT";"Pylône tubulaire"; 34.0;"ORANGE"
792169;0.90583;44.23500;"00° 54' 21.00'' Est, 44° 14' 06.00'' Nord";"47260";"CARDOU";"CHEM RURAL";"47270";"SAINT-MAURIN";"Pylône autostable"; 38.0;"Conseil Départemental"
792171;0.63472;44.19528;"00° 38' 05.00'' Est, 44° 11' 43.00'' Nord";"47001";;"44 R PAGANEL CENTRE FRANCE TELECOM";"47000";"AGEN";"Bâtiment"; 26.0;"ORANGE Services Fixes"
792177;0.17500;44.50250;"00° 10' 30.00'' Est, 44° 30' 09.00'' Nord";"47157";;"40 AV PIERRE BUFFIN";"47200";"MARMANDE";"Pylône autostable"; 31.0;"SDIS, secours, incendie"
794199;0.74500;44.22417;"00° 44' 42.00'' Est, 44° 13' 27.00'' Nord";"47234";"LAGAYSSE BASSE";;"47270";"SAINT-CAPRAIS-DE-LERM";"Pylône autostable"; 40.4;"SFR"
796888;0.07111;44.46333;"00° 04' 16.00'' Est, 44° 27' 48.00'' Nord";"47156";;"TERRES DE BARRAIL";"47200";"MARCELLUS";"Pylône autostable"; 26.0;"HIVORY"
808500;0.19417;44.52556;"00° 11' 39.00'' Est, 44° 31' 32.00'' Nord";"47157";;"LA MAGDELEINE";"47200";"MARMANDE";"Pylône autostable"; 27.0;"TDF"
810755;0.22806;44.51194;"00° 13' 41.00'' Est, 44° 30' 43.00'' Nord";"47326";;"LA PLANEGE - LA PIPE";"47200";"VIRAZEIL";"Pylône autostable"; 42.0;"Sociétés d'Autoroutes"
826086;0.25194;44.54611;"00° 15' 07.00'' Est, 44° 32' 46.00'' Nord";"47088";"PETIT PEY";"CHÂTEAU D'EAU";"47350";"ESCASSEFORT";"Château d'eau - réservoir"; 30.0;"Syndicat des eaux, Adduction"
831040;0.67639;44.40500;"00° 40' 35.00'' Est, 44° 24' 18.00'' Nord";"47027";;"RTE DE BORDEAUX CCAL";"47300";"BIAS";"Bâtiment"; 14.0;"Société Privée SA"
839041;0.63611;44.24083;"00° 38' 10.00'' Est, 44° 14' 27.00'' Nord";"47100";"MIQUEL";"ALLÉE DE MIQUEL";"47510";"FOULAYRONNES";"Pylône tubulaire"; 24.0;"HIVORY"
839115;0.30222;44.40222;"00° 18' 08.00'' Est, 44° 24' 08.00'' Nord";"47310";;"AV. MARÉCHAL JUIN ZI DE LA QUEILLE";"47400";"TONNEINS";"Château d'eau - réservoir"; 42.0;"Syndicat des eaux, Adduction"
840277;0.14528;44.51472;"00° 08' 43.00'' Est, 44° 30' 53.00'' Nord";"47157";;"CHEM DE MICHELON";"47200";"MARMANDE";"Pylône autostable"; 32.0;"RTE"
856083;0.29194;44.12278;"00° 17' 31.00'' Est, 44° 07' 22.00'' Nord";"47195";"SÉGURET";"D 656";"47600";"NERAC";"Pylône autostable"; 20.0;"HIVORY"
856251;0.63472;44.38444;"00° 38' 05.00'' Est, 44° 23' 04.00'' Nord";"47237";"PECH LAMBERT";;"47300";"SAINTE-COLOMBE-DE-VILLENEUVE";"Pylône autostable"; 40.0;"EDF ou GDF"
856269;0.72250;44.40278;"00° 43' 21.00'' Est, 44° 24' 10.00'' Nord";"47323";"BARRAGE EDF";;"47300";"VILLENEUVE-SUR-LOT";"Bâtiment"; 8.0;"EDF ou GDF"
856289;0.49750;44.39194;"00° 29' 51.00'' Est, 44° 23' 31.00'' Nord";"47306";"LA GAZAILLE";;"47110";"LE TEMPLE-SUR-LOT";"Bâtiment"; 38.0;"EDF ou GDF"
856309;0.89944;44.43778;"00° 53' 58.00'' Est, 44° 26' 16.00'' Nord";"47315";"COUTET";;"47140";"TRENTELS";"Mât béton"; 12.0;"EDF ou GDF"
857125;0.64028;44.20611;"00° 38' 25.00'' Est, 44° 12' 22.00'' Nord";"47001";"LA RUCHE MERIDIONALE";;"47000";"AGEN";"Pylône autostable"; 25.0;"HIVORY"
861830;0.71833;44.43194;"00° 43' 06.00'' Est, 44° 25' 55.00'' Nord";"47323";"PECH CAILLOU";;"47300";"VILLENEUVE-SUR-LOT";"Pylône autostable"; 21.0;"Lagardère Active Média"
869866;0.68972;44.17861;"00° 41' 23.00'' Est, 44° 10' 43.00'' Nord";"47051";"TERREFORT DE GRANDFONDS";"IMP DIDIER LAPEYRE ZI JEAN MALEZE";"47240";"CASTELCULIER";"Pylône autostable"; 35.0;"HIVORY"
872957;0.12750;44.54139;"00° 07' 39.00'' Est, 44° 32' 29.00'' Nord";"47233";"MARCACHAUD";"CHEM RURAL DE MARROC";"47180";"SAINTE-BAZEILLE";"Pylône autostable"; 26.0;"ORANGE"
881556;0.88472;44.22806;"00° 53' 05.00'' Est, 44° 13' 41.00'' Nord";"47260";"BOIS MARTY";;"47270";"SAINT-MAURIN";"Château d'eau - réservoir"; 39.0;"Syndicat des eaux, Adduction"
881571;0.32833;44.57972;"00° 19' 42.00'' Est, 44° 34' 47.00'' Nord";"47218";"TRITON";;"47800";"PUYSSERAMPION";"Pylône autostable"; 36.0;"TDF"
882130;0.78861;44.26000;"00° 47' 19.00'' Est, 44° 15' 36.00'' Nord";"47273";"SOULEILLAN";;"47340";"SAINT-ROBERT";"Pylône autostable"; 35.0;"EDF ou GDF"
895625;0.29806;44.18139;"00° 17' 53.00'' Est, 44° 10' 53.00'' Nord";"47143";;"R DE LA CALE";"47230";"LAVARDAC";"Mât"; 12.0;"Etat, Ministère"
904768;0.72417;44.16333;"00° 43' 27.00'' Est, 44° 09' 48.00'' Nord";"47248";;"MONTEILS ZER AGEN";"47270";"SAINT-JEAN-DE-THURAC";"Pylône autostable"; 42.0;"Sociétés d'Autoroutes"
909246;0.50306;44.19722;"00° 30' 11.00'' Est, 44° 11' 50.00'' Nord";"47238";"LES VIGNES DE MARTIN";"AIRE DE REPOS DE PORTE D'AQUITAINE SITE ASF";"47310";"SAINTE-COLOMBE-EN-BRUILHOIS";"Pylône autostable"; 50.0;"Sociétés d'Autoroutes"
912353;0.65889;44.37583;"00° 39' 32.00'' Est, 44° 22' 33.00'' Nord";"47215";"FAURAT";;"47300";"PUJOLS";"Pylône autostable"; 30.0;"ORANGE"
921189;0.17417;44.16944;"00° 10' 27.00'' Est, 44° 10' 10.00'' Nord";"47085";"D665";"SIBELCO";"47420";"DURANCE";"Bâtiment"; 15.0;"Société Privée SA"
921437;0.79306;44.60944;"00° 47' 35.00'' Est, 44° 36' 34.00'' Nord";"47080";"BELLEVUE";"D 255";"47210";"DEVILLAC";"Château d'eau - réservoir"; 48.0;"Syndicat des eaux, Adduction"
931712;0.68833;44.21694;"00° 41' 18.00'' Est, 44° 13' 01.00'' Nord";"47032";"BOIS DES JÉSUITES";;"47240";"BON-ENCONTRE";"Château d'eau - réservoir"; 32.9;"Syndicat des eaux, Adduction"
946257;0.62556;44.20167;"00° 37' 32.00'' Est, 44° 12' 06.00'' Nord";"47001";;"6-8, R ST MARTIN";"47000";"AGEN";"Immeuble"; 18.2;"Copropriété, Syndic, SCI"
951037;0.47639;44.15889;"00° 28' 35.00'' Est, 44° 09' 32.00'' Nord";"47180";"JOLY-FOURCAUD";"JOLY-FOURCAUD";"47600";"MONTAGNAC-SUR-AUVIGNON";"Pylône autostable"; 12.5;"BOUYGUES"
956722;0.42833;44.06389;"00° 25' 42.00'' Est, 44° 03' 50.00'' Nord";"47102";;"2 R PORTE DU PUITS MAIRIE DE FRANCESCAS";"47600";"FRANCESCAS";"Bâtiment"; 13.0;"Commune, communauté de commune"
959315;0.60778;44.16444;"00° 36' 28.00'' Est, 44° 09' 52.00'' Nord";"47201";"GAUSSENS";"PÉAGE - SORTIE N°7 - A62";"47520";"LE PASSAGE";"Bâtiment"; 17.0;"Sociétés d'Autoroutes"
1022596;0.80750;44.34306;"00° 48' 27.00'' Est, 44° 20' 35.00'' Nord";"47017";"PECH DEL REY";;"47140";"AURADOU";"Pylône autostable"; 29.0;"Commune, communauté de commune"
1039865;0.17306;44.50389;"00° 10' 23.00'' Est, 44° 30' 14.00'' Nord";"47157";;"AV DU DOCTEUR NEAU";"47200";"MARMANDE";"Bâtiment"; 4.0;"EDF ou GDF"
1040076;0.16861;44.51417;"00° 10' 07.00'' Est, 44° 30' 51.00'' Nord";"47157";;"ROUTE DES VILLAS";"47200";"MARMANDE";"Bâtiment"; 5.0;"EDF ou GDF"
1040078;0.34000;44.64889;"00° 20' 24.00'' Est, 44° 38' 56.00'' Nord";"47290";;"AVENUE DU PIED";"47800";"LA SAUVETAT-DU-DROPT";"Bâtiment"; 4.0;"EDF ou GDF"
1040090;0.44389;44.50000;"00° 26' 38.00'' Est, 44° 30' 00.00'' Nord";"47309";"RAMOUNET";"D 120 POSTE HT";"47380";"TOMBEBOEUF";"Bâtiment"; 3.0;"EDF ou GDF"
1040096;0.30556;44.41167;"00° 18' 20.00'' Est, 44° 24' 42.00'' Nord";"47310";;"RUE ANDRE THEVET";"47400";"TONNEINS";"Mât métallique"; 4.0;"EDF ou GDF"
1040100;0.09417;44.31889;"00° 05' 39.00'' Est, 44° 19' 08.00'' Nord";"47052";;"12 RUE DE MARMADE QUARTIER DES ABATTOIRS";"47700";"CASTELJALOUX";"Bâtiment"; 4.0;"EDF ou GDF"
1040111;0.32472;44.14750;"00° 19' 29.00'' Est, 44° 08' 51.00'' Nord";"47195";;"ZI DE LAVARDAC- RD 930";"47600";"NERAC";"Bâtiment"; 4.0;"EDF ou GDF"
1040114;0.27000;44.05417;"00° 16' 12.00'' Est, 44° 03' 15.00'' Nord";"47167";"LE COUDE";"ROUTE DE CONDOM POSTE ÉLÉCTRIQUE";"47170";"MEZIN";"Bâtiment"; 4.0;"EDF ou GDF"
1040801;0.41500;44.20611;"00° 24' 54.00'' Est, 44° 12' 22.00'' Nord";"47041";;"D 119 POSTE HT";"47130";"BRUCH";"Mât"; 13.5;"EDF ou GDF"
1040826;0.33111;44.35250;"00° 19' 52.00'' Est, 44° 21' 09.00'' Nord";"47310";;"D 414 POSTE HT - UNET";"47400";"TONNEINS";"Bâtiment"; 7.0;"EDF ou GDF"
1044915;0.16861;44.50389;"00° 10' 07.00'' Est, 44° 30' 14.00'' Nord";"47157";;"RUE FALLIÈRES";"47200";"MARMANDE";"Pylône tubulaire"; 25.0;"SNCF Réseau"
1044917;0.73417;44.15472;"00° 44' 03.00'' Est, 44° 09' 17.00'' Nord";"47248";"PLAINE DE LACOSTE";;"47270";"SAINT-JEAN-DE-THURAC";"Pylône autostable"; 20.0;"SNCF Réseau"
1047657;0.66972;44.66056;"00° 40' 11.00'' Est, 44° 39' 38.00'' Nord";"47083";;"POSTE HT RD 250";"47210";"DOUDRAC";"Bâtiment"; 3.0;"EDF ou GDF"
1047659;0.64667;44.53667;"00° 38' 48.00'' Est, 44° 32' 12.00'' Nord";"47048";;"D124 - ROUTE DE MONFLANQUIN POSTE HT - CAPILLAC";"47290";"CANCON";"Mât"; 8.0;"EDF ou GDF"
1047976;0.94556;44.49750;"00° 56' 44.00'' Est, 44° 29' 51.00'' Nord";"47106";;"ROUTE DE CUZORN D710 POSTE HT MARTILOQUE";"47500";"FUMEL";"Bâtiment"; 5.0;"EDF ou GDF"
1049703;0.72306;44.39889;"00° 43' 23.00'' Est, 44° 23' 56.00'' Nord";"47323";;"AVENUE HENRI BARBUSSE D 661";"47300";"VILLENEUVE-SUR-LOT";"Bâtiment"; 6.0;"EDF ou GDF"
1049708;0.65028;44.22000;"00° 39' 01.00'' Est, 44° 13' 12.00'' Nord";"47209";"RAVEZOL";"ROUTE D'AGEN POSTE HT";"47480";"PONT-DU-CASSE";"Bâtiment"; 6.0;"EDF ou GDF"
1050013;0.66306;44.17333;"00° 39' 47.00'' Est, 44° 10' 24.00'' Nord";"47031";;"RUE DE LA GARE";"47550";"BOE";"Bâtiment"; 4.0;"EDF ou GDF"
1082748;0.59722;44.21722;"00° 35' 50.00'' Est, 44° 13' 02.00'' Nord";"47069";;"2 ROUTE D'AGEN";"47450";"COLAYRAC-SAINT-CIRQ";"Pylône autostable"; 20.0;"SNCF Réseau"
1094455;0.33472;44.29722;"00° 20' 05.00'' Est, 44° 17' 50.00'' Nord";"47004";;"AVENUE DE LA GARE";"47190";"AIGUILLON";"Pylône tubulaire"; 25.0;"SNCF Réseau"
1132839;0.24361;44.44861;"00° 14' 37.00'' Est, 44° 26' 55.00'' Nord";"47094";"GUILLAUTE";;"47400";"FAUGUEROLLES";"Pylône autostable"; 20.0;"SNCF Réseau"
1132841;0.36694;44.25611;"00° 22' 01.00'' Est, 44° 15' 22.00'' Nord";"47210";;"PLAINE DE MAURY";"47130";"PORT-SAINTE-MARIE";"Pylône autostable"; 30.0;"SNCF Réseau"
1174004;0.50111;44.24083;"00° 30' 04.00'' Est, 44° 14' 27.00'' Nord";"47246";;"LA GRABERE";"47450";"SAINT-HILAIRE-DE-LUSIGNAN";"Pylône autostable"; 30.0;"SNCF Réseau"
1185455;0.63500;44.20306;"00° 38' 06.00'' Est, 44° 12' 11.00'' Nord";"47001";;"RUE PAULIN RÉGNIER";"47000";"AGEN";"Pylône tubulaire"; 30.0;"SNCF Réseau"
1206063;0.61583;44.20472;"00° 36' 57.00'' Est, 44° 12' 17.00'' Nord";"47001";;"43 BOULEVARD DE LA REPUBLIQUE";"47000";"AGEN";"Immeuble"; 37.0;"Copropriété, Syndic, SCI"
1214539;0.60667;44.16417;"00° 36' 24.00'' Est, 44° 09' 51.00'' Nord";"47201";"GAUSSENS";"ASF DISTRICT D AGEN";"47520";"LE PASSAGE";"Bâtiment"; 8.0;"Sociétés d'Autoroutes"
1254715;0.34056;44.13444;"00° 20' 26.00'' Est, 44° 08' 04.00'' Nord";"47195";;"AVENUE MONDENARD D 656";"47600";"NERAC";"Bâtiment"; 15.0;"Etat, Ministère"
1272159;0.72111;44.41806;"00° 43' 16.00'' Est, 44° 25' 05.00'' Nord";"47323";;"RUE DES MARTYRS DE LA RESISTANCE CENTRE DE DÉTENTION D'EYSSES RUE PIERRE DOIZE";"47300";"VILLENEUVE-SUR-LOT";"Bâtiment"; 12.0;"Etat, Ministère"
1273065;0.70139;44.40944;"00° 42' 05.00'' Est, 44° 24' 34.00'' Nord";"47323";;"PONT DE BASTEROU CHEMIN DE LA CALE";"47300";"VILLENEUVE-SUR-LOT";"Mât béton"; 14.0;"Etat, Ministère"
1273075;0.15667;44.49972;"00° 09' 24.00'' Est, 44° 29' 59.00'' Nord";"47157";;"CHEMIN DU ROC";"47200";"MARMANDE";"Bâtiment"; 5.0;"Etat, Ministère"
1273077;0.30194;44.39000;"00° 18' 07.00'' Est, 44° 23' 24.00'' Nord";"47310";;"D 120 AV DU PONT";"47400";"TONNEINS";"Mât métallique"; 5.0;"Etat, Ministère"
1273079;0.60639;44.20139;"00° 36' 23.00'' Est, 44° 12' 05.00'' Nord";"47201";;"PL DE LA REPUBLIQUE TABAC PRESSE RIVE GAUCHE DE LA GARONNE";"47520";"LE PASSAGE";"Bâtiment"; 6.0;"Etat, Ministère"
1293288;0.31306;44.39361;"00° 18' 47.00'' Est, 44° 23' 37.00'' Nord";"47310";;"BOULEVARD DE LATTRE DE TASSIGNY";"47400";"TONNEINS";"Pylône autostable"; 25.0;"SNCF Réseau"
1316948;0.76028;44.16222;"00° 45' 37.00'' Est, 44° 09' 44.00'' Nord";"47248";"LA BORDE HAUTE";;"47270";"SAINT-JEAN-DE-THURAC";"Pylône autostable"; 25.0;"Titulaire programme Radio/TV"
1380522;0.72278;44.40250;"00° 43' 22.00'' Est, 44° 24' 09.00'' Nord";"47323";"VIREBEAU";"BARRAGE HYDROÉLECTRIQUE";"47300";"VILLENEUVE-SUR-LOT";"Pylône autostable"; 20.0;"EDF ou GDF"
1413447;0.19472;44.48611;"00° 11' 41.00'' Est, 44° 29' 10.00'' Nord";"47157";"JARDINEY";"POSTE HT - PATRAS";"47200";"MARMANDE";"Bâtiment"; 4.0;"EDF ou GDF"
1413880;0.60750;44.39472;"00° 36' 27.00'' Est, 44° 23' 41.00'' Nord";"47252";"FOURNERAC";"POSTE HT - ROUTE D'ALLEZ ET CAZENEUVE";"47110";"SAINTE-LIVRADE-SUR-LOT";"Bâtiment"; 5.0;"EDF ou GDF"
1437128;0.65528;44.19056;"00° 39' 19.00'' Est, 44° 11' 26.00'' Nord";"47032";;"R JEAN ROUSSILLE ZAC DE REDON";"47240";"BON-ENCONTRE";"Pylône autostable"; 20.0;"HIVORY"
1444236;0.09417;44.53694;"00° 05' 39.00'' Est, 44° 32' 13.00'' Nord";"47233";"LABASTIDE";"TERRAIN DE SPORT NEUFONS";"47180";"SAINTE-BAZEILLE";"Pylône tubulaire"; 29.0;"ATC FRANCE"
1445347;0.26639;44.50833;"00° 15' 59.00'' Est, 44° 30' 30.00'' Nord";"47326";"NINES";;"47200";"VIRAZEIL";"Pylône autostable"; 39.0;"ATC FRANCE"
1460527;0.12833;44.43583;"00° 07' 42.00'' Est, 44° 26' 09.00'' Nord";"47285";;"ZAC MARMANDE SUD D 933 AUTOROUTE DES 2 MERS";"47250";"SAMAZAN";"Silo"; 18.0;"Société Privée SA"
1460529;0.59028;44.16722;"00° 35' 25.00'' Est, 44° 10' 02.00'' Nord";"47091";;"USINE DELPEYRAT D 931 E1";"47310";"ESTILLAC";"Bâtiment"; 10.0;"Société Privée SA"
1460531;0.65167;44.15694;"00° 39' 06.00'' Est, 44° 09' 25.00'' Nord";"47031";;"AUX SABLES D 17";"47550";"BOE";"Bâtiment"; 5.0;"Société Privée SA"
1469033;0.35889;44.13417;"00° 21' 32.00'' Est, 44° 08' 03.00'' Nord";"47195";"LE CAUZE";"SILO";"47600";"NERAC";"Silo"; 15.0;"Société Privée SA"
1472519;1.01333;44.46167;"01° 00' 48.00'' Est, 44° 27' 42.00'' Nord";"47185";"SERRE DE BARREAU";;"47500";"MONTAYRAL";"Pylône autostable"; 42.0;"Towercast"
1482451;0.60361;44.19028;"00° 36' 13.00'' Est, 44° 11' 25.00'' Nord";"47201";;"66 AVE DE VERDUN SERVICES TECHNIQUES";"47520";"LE PASSAGE";"Bâtiment"; 5.0;"Commune, communauté de commune"
1484682;0.57139;44.22333;"00° 34' 17.00'' Est, 44° 13' 24.00'' Nord";"47069";"LA CHAISE";"ALLÉE DE LA CHAISE";"47450";"COLAYRAC-SAINT-CIRQ";"Pylône tubulaire"; 23.2;"HIVORY"
1510475;0.74528;44.40639;"00° 44' 43.00'' Est, 44° 24' 23.00'' Nord";"47323";"BRIGNOL-ROMAS";"ROUTE DE FUMEL PÔLE DE SANTÉ DU VILLENEUVOIS";"47300";"VILLENEUVE-SUR-LOT";"Bâtiment"; 17.0;"Etablissement de soins"
1524037;0.37139;44.36389;"00° 22' 17.00'' Est, 44° 21' 50.00'' Nord";"47065";"BELLEVUE";"BELLEVUE";"47320";"CLAIRAC";"Pylône autostable"; 33.6;"ATC FRANCE"
1526972;0.73833;44.40611;"00° 44' 18.00'' Est, 44° 24' 22.00'' Nord";"47323";;"RUE MARGUERITE ET ANDRÉ FIHOL ZAE DE PARASOL";"47305";"VILLENEUVE-SUR-LOT";"Bâtiment"; 10.0;"Société Privée SA"
1526974;0.74389;44.40639;"00° 44' 38.00'' Est, 44° 24' 23.00'' Nord";"47323";"ROMAS - BRIGNOL";;"47300";"VILLENEUVE-SUR-LOT";"Bâtiment"; 16.0;"Etablissement de soins"
1537698;0.62222;44.57222;"00° 37' 20.00'' Est, 44° 34' 20.00'' Nord";"47152";"POUVET";"CHE DE LA GRATADE";"47290";"LOUGRATTE";"Pylône autostable"; 39.0;"ATC FRANCE"
1569390;0.60333;44.17833;"00° 36' 12.00'' Est, 44° 10' 42.00'' Nord";"47201";;"3 AVENUE DES PYRÉNÉES BMS BRISTOL MYERS SQUIBB";"47520";"LE PASSAGE";"Bâtiment"; 12.0;"Société Privée SA"
1570017;0.72917;44.16278;"00° 43' 45.00'' Est, 44° 09' 46.00'' Nord";"47248";"MONTEILS";"VOIE COM N°4";"47270";"SAINT-JEAN-DE-THURAC";"Pylône autostable"; 33.0;"ORANGE"
1571813;0.61361;44.20222;"00° 36' 49.00'' Est, 44° 12' 08.00'' Nord";"47001";;"8 RUE ANDRÉ CHÉNIER";"47000";"AGEN";"Bâtiment"; 16.0;"Commune, communauté de commune"
1622195;0.52222;44.34806;"00° 31' 20.00'' Est, 44° 20' 53.00'' Nord";"47190";;"RUE DU CHÂTEAU EGLISE DE MONTPEZAT D'AGENAIS";"47360";"MONTPEZAT";"Monument religieux"; 31.0;"Commune, communauté de commune"
1624018;0.81639;44.38944;"00° 48' 59.00'' Est, 44° 23' 22.00'' Nord";"47203";"NOTRE DAME DE PEYRAGUDE";"BASILIQUE";"47140";"PENNE-D'AGENAIS";"Monument religieux"; 25.8;"Association"
1636873;0.59417;44.17639;"00° 35' 39.00'' Est, 44° 10' 35.00'' Nord";"47091";;"AEROPORT D AGEN LA GARENNE ESTILLAC";"47310";"ESTILLAC";"Bâtiment"; 6.0;"Aviation Civile"
1638495;0.33972;44.29250;"00° 20' 23.00'' Est, 44° 17' 33.00'' Nord";"47004";;"17 AVENUE DU 11 NOVEMBRE 1918";"47190";"AIGUILLON";"Bâtiment"; 24.3;"Société Privée SA"
1642084;0.34417;44.38056;"00° 20' 39.00'' Est, 44° 22' 50.00'' Nord";"47310";"MOULIN DE BUGASSAT";;"47400";"TONNEINS";"Pylône autostable"; 61.0;"ORANGE"
1646795;0.63000;44.17944;"00° 37' 48.00'' Est, 44° 10' 46.00'' Nord";"47031";;"3 RUE DE RIGOULET";"47550";"BOE";"Bâtiment"; 15.0;"Titulaire programme Radio/TV"
1647338;0.59250;44.16611;"00° 35' 33.00'' Est, 44° 09' 58.00'' Nord";"47091";"LASSERRE";"AGROPOLE BATIMENT C2";"47310";"ESTILLAC";"Pylône haubané"; 6.0;"Commune, communauté de commune"
1650843;0.58028;44.39028;"00° 34' 49.00'' Est, 44° 23' 25.00'' Nord";"47252";"LA ROSE";"CHEMIN DE LA ROSE";"47110";"SAINTE-LIVRADE-SUR-LOT";"Pylône autostable"; 43.0;"TDF"
1655136;0.28000;44.30722;"00° 16' 48.00'' Est, 44° 18' 26.00'' Nord";"47078";"LOMPIAN";"MONDESIR";"47160";"DAMAZAN";"Pylône autostable"; 20.0;"Commune, communauté de commune"
1670047;0.16222;44.42389;"00° 09' 44.00'' Est, 44° 25' 26.00'' Nord";"47253";"SACRISTE";"V COMMUNALE 6 DE GREZET";"47430";"SAINTE-MARTHE";"Pylône autostable"; 49.7;"TDF"
1670065;0.06861;44.46944;"00° 04' 07.00'' Est, 44° 28' 10.00'' Nord";"47156";"MAYNE DE L'OR";"CHEM COMMUNAL";"47200";"MARCELLUS";"Pylône autostable"; 39.0;"TDF"
1685149;0.60111;44.20500;"00° 36' 04.00'' Est, 44° 12' 18.00'' Nord";"47201";"PCG DE PASSAGE D'AGEN";"4 IMPASSE JACQUES AMBLARD";"47520";"LE PASSAGE";"Pylône autostable"; 15.0;"EDF ou GDF"
1688378;0.30750;44.39139;"00° 18' 27.00'' Est, 44° 23' 29.00'' Nord";"47310";;"8 AVENUE CHARLES DE GAULLE RES DU PARC";"47400";"TONNEINS";"Immeuble"; 38.0;"Copropriété, Syndic, SCI"
1698682;0.44056;44.41111;"00° 26' 26.00'' Est, 44° 24' 40.00'' Nord";"47135";;"MENDE";"47260";"LAPARADE";"Silo"; 12.0;"Société Privée SA"
1698684;0.16417;44.32806;"00° 09' 51.00'' Est, 44° 19' 41.00'' Nord";"47148";;"SILO DE MONCASSIN";"47700";"LEYRITZ-MONCASSIN";"Bâtiment"; 5.0;"Société Privée SA"
1698686;0.16444;44.32833;"00° 09' 52.00'' Est, 44° 19' 42.00'' Nord";"47148";;"SILO DE MONCASSIN";"47700";"LEYRITZ-MONCASSIN";"Bâtiment"; 10.0;"Société Privée SA"
1698688;1.02139;44.59667;"01° 01' 17.00'' Est, 44° 35' 48.00'' Nord";"47292";;"LE MARTINET USINE DE SAUVETERRE";"47500";"SAUVETERRE-LA-LEMANCE";"Bâtiment"; 3.0;"Société Privée SA"
1698714;1.02056;44.59778;"01° 01' 14.00'' Est, 44° 35' 52.00'' Nord";"47292";;"LE MARTINET USINE DE SAUVETERRE";"47500";"SAUVETERRE-LA-LEMANCE";"Bâtiment"; 3.0;"Société Privée SA"
1702662;0.02639;44.19306;"00° 01' 35.00'' Est, 44° 11' 35.00'' Nord";"47119";;"AV LOUISE NADEAU TOUR DE GUET";"47420";"HOUEILLES";"Pylône autostable"; 42.0;"SDIS, secours, incendie"
1706178;0.68861;44.22444;"00° 41' 19.00'' Est, 44° 13' 28.00'' Nord";"47209";"CURSOR";"RTE DE CASSOU";"47480";"PONT-DU-CASSE";"Pylône autostable"; 33.0;"ORANGE"
1723352;0.68083;44.40694;"00° 40' 51.00'' Est, 44° 24' 25.00'' Nord";"47027";;"2285 AV PONT DES MARTINETS";"47300";"BIAS";"Pylône tubulaire"; 30.0;"IFW-FREE"
1731532;0.65167;44.07500;"00° 39' 06.00'' Est, 44° 04' 30.00'' Nord";"47015";"BORDENEUVE";;"47220";"ASTAFFORT";"Pylône autostable"; 31.9;"IFW-FREE"
1737068;0.18806;44.40417;"00° 11' 17.00'' Est, 44° 24' 15.00'' Nord";"47159";"LAUNAY";"AIRE DE REPOS NORD DU MAS D'AGENAIS";"47430";"LE MAS-D'AGENAIS";"Pylône autostable"; 40.7;"Sociétés d'Autoroutes"
1764618;-0.06556;44.19639;"00° 03' 56.00'' Ouest, 44° 11' 47.00'' Nord";"47007";"LANDES DU CHATEAU D'ALLONS";"VOIE COMMUNALE N7";"47420";"ALLONS";"Pylône autostable"; 49.3;"SFR"
1780995;0.75333;44.61056;"00° 45' 12.00'' Est, 44° 36' 38.00'' Nord";"47240";"BRASSIÉ DE TAILLEFER";;"47210";"SAINT-ETIENNE-DE-VILLEREAL";"Pylône autostable"; 25.0;"HIVORY"
1822771;0.63111;44.17500;"00° 37' 52.00'' Est, 44° 10' 30.00'' Nord";"47031";"ZAC LAMOTHE MAGNAC";"7 ALLEE DE LACAPELETTE";"47550";"BOE";"Bâtiment"; 13.6;"BOUYGUES"
1830002;0.64417;44.19500;"00° 38' 39.00'' Est, 44° 11' 42.00'' Nord";"47001";;"22 AVENUE JEAN JAURES";"47000";"AGEN";"Bâtiment"; 12.0;"DDE"
1830454;0.49528;44.14722;"00° 29' 43.00'' Est, 44° 08' 50.00'' Nord";"47172";"LA AOUILLÉ";"CH D EAU A 5";"47310";"MONCAUT";"Château d'eau - réservoir"; 30.0;"Syndicat des eaux, Adduction"
1832680;0.52528;44.30111;"00° 31' 31.00'' Est, 44° 18' 04.00'' Nord";"47213";"FERRIE";;"47360";"PRAYSSAS";"Pylône autostable"; 35.3;"HIVORY"
1833823;0.97472;44.49972;"00° 58' 29.00'' Est, 44° 29' 59.00'' Nord";"47106";"AU SAULOU";"LA GARENNE";"47500";"FUMEL";"Pylône autostable"; 38.0;"CELLNEX"
1833863;0.35278;44.60444;"00° 21' 10.00'' Est, 44° 36' 16.00'' Nord";"47168";"LA PHILLIPE";"279 AVENUE D'AQUITAINE";"47800";"MIRAMONT-DE-GUYENNE";"Pylône autostable"; 34.5;"ATC FRANCE"
1834353;0.15694;44.50667;"00° 09' 25.00'' Est, 44° 30' 24.00'' Nord";"47157";;"2 RUE PORTO GRUARO";"47200";"MARMANDE";"Château d'eau - réservoir"; 54.0;"Commune, communauté de commune"
1835596;0.01639;44.19083;"00° 00' 59.00'' Est, 44° 11' 27.00'' Nord";"47119";"LE GIN";"CHEMIN SURRET DE PARGOT CABPOURTEIL STADE MUNICIPAL";"47420";"HOUEILLES";"Pylône autostable"; 47.9;"HIVORY"
1841317;0.69389;44.05333;"00° 41' 38.00'' Est, 44° 03' 12.00'' Nord";"47015";"LE GRÈS";"CHATEAU D'EAU";"47220";"ASTAFFORT";"Château d'eau - réservoir"; 40.0;"Syndicat des eaux, Adduction"
1841428;0.29083;44.72944;"00° 17' 27.00'' Est, 44° 43' 46.00'' Nord";"47151";;"CENTRE BOURG CH D'EAU";"47120";"LOUBES-BERNAC";"Château d'eau - réservoir"; 45.0;"Commune, communauté de commune"
1841514;0.43944;44.29667;"00° 26' 22.00'' Est, 44° 17' 48.00'' Nord";"47275";"LES GOUNOTS";"CH D'EAU DE BOULBENES";"47360";"SAINT-SALVY";"Château d'eau - réservoir"; 33.0;"Commune, communauté de commune"
1843688;0.87889;44.48528;"00° 52' 44.00'' Est, 44° 29' 07.00'' Nord";"47178";"MONTEAUT";"R DE LA FORGE";"47150";"MONSEGUR";"Pylône autostable"; 30.0;"SDIS, secours, incendie"
1844657;0.30722;44.18861;"00° 18' 26.00'' Est, 44° 11' 19.00'' Nord";"47143";"LA PLAINE DE MATALIN";;"47230";"LAVARDAC";"Pylône autostable"; 33.0;"CELLNEX"
1846133;0.65056;44.06083;"00° 39' 02.00'' Est, 44° 03' 39.00'' Nord";"47015";"CORNE";"RN 21 SUD DU BOURG";"47220";"ASTAFFORT";"Château d'eau - réservoir"; 32.0;"Syndicat des eaux, Adduction"
1855732;0.76556;44.27667;"00° 45' 56.00'' Est, 44° 16' 36.00'' Nord";"47138";"COMTE";"STADE MUNICIPAL DELBES";"47340";"LAROQUE-TIMBAUT";"Pylône tubulaire"; 30.0;"Commune, communauté de commune"
1871878;0.60417;44.16500;"00° 36' 15.00'' Est, 44° 09' 54.00'' Nord";"47201";"GAUSSENS";;"47520";"LE PASSAGE";"Pylône autostable"; 16.0;"HIVORY"
1872310;-0.00333;44.49389;"00° 00' 12.00'' Ouest, 44° 29' 38.00'' Nord";"47165";"LUEY";;"47180";"MEILHAN-SUR-GARONNE";"Pylône autostable"; 42.0;"HIVORY"
1872362;0.10306;44.31639;"00° 06' 11.00'' Est, 44° 18' 59.00'' Nord";"47052";"CAUBIN";;"47700";"CASTELJALOUX";"Pylône autostable"; 41.0;"HIVORY"
1872372;0.60500;44.19444;"00° 36' 18.00'' Est, 44° 11' 40.00'' Nord";"47201";;"45-47 AV DE LA MARNE";"47520";"LE PASSAGE";"Immeuble"; 18.3;"Copropriété, Syndic, SCI"
1873311;0.60361;44.40167;"00° 36' 13.00'' Est, 44° 24' 06.00'' Nord";"47252";"FONFREDE EST";"TERRAIN DE SPORT";"47110";"SAINTE-LIVRADE-SUR-LOT";"Pylône autostable"; 30.0;"HIVORY"
1876256;0.69000;44.24222;"00° 41' 24.00'' Est, 44° 14' 32.00'' Nord";"47019";"SERRES";"PRÈS CHÂTEAU D'EAU";"47480";"BAJAMONT";"Pylône autostable"; 30.0;"HIVORY"
1877613;0.61722;44.43861;"00° 37' 02.00'' Est, 44° 26' 19.00'' Nord";"47049";"LE MAYNE";"ZONE ACTIVITES LE MAYNE ENTREPRISE DUS";"47440";"CASSENEUIL";"Pylône autostable"; 32.8;"IFW-FREE"
1878774;0.62917;44.20056;"00° 37' 45.00'' Est, 44° 12' 02.00'' Nord";"47001";;"75 R DENFERT ROCHEREAU";"47000";"AGEN";"Immeuble"; 19.0;"Copropriété, Syndic, SCI"
1879521;0.78750;44.32806;"00° 47' 15.00'' Est, 44° 19' 41.00'' Nord";"47117";"LE FIGUE";;"47340";"HAUTEFAGE-LA-TOUR";"Pylône autostable"; 30.0;"Conseil Départemental"
1879523;0.83806;44.31250;"00° 50' 17.00'' Est, 44° 18' 45.00'' Nord";"47161";"LES PLAINES DE LAMOUTHE";;"47140";"MASSELS";"Pylône autostable"; 32.5;"Conseil Départemental"
1879525;1.03472;44.42639;"01° 02' 05.00'' Est, 44° 25' 35.00'' Nord";"47307";"BOIS DE SALLES";;"47370";"THEZAC";"Pylône autostable"; 35.0;"Conseil Départemental"
1883898;0.31194;44.18361;"00° 18' 43.00'' Est, 44° 11' 01.00'' Nord";"47143";"CUGNERAYRE";"D 930";"47230";"LAVARDAC";"Pylône autostable"; 32.8;"IFW-FREE"
1884562;0.33556;44.19500;"00° 20' 08.00'' Est, 44° 11' 42.00'' Nord";"47143";"BROUSTEAU";;"47230";"LAVARDAC";"Pylône autostable"; 30.9;"HIVORY"
1888814;0.45389;44.61139;"00° 27' 14.00'' Est, 44° 36' 41.00'' Nord";"47235";"TOUPINIE";"CHEMIN EXPLOITATION 6";"47410";"SAINT-COLOMB-DE-LAUZUN";"Pylône autostable"; 35.0;"IFW-FREE"
1889243;0.26778;44.28444;"00° 16' 04.00'' Est, 44° 17' 04.00'' Nord";"47078";"ECH N°6 D'AIGUILLON";"AUTOROUTE DES DEUX MERS A62/D8";"47160";"DAMAZAN";"Pylône autostable"; 30.0;"Sociétés d'Autoroutes"
1891100;0.73583;44.39861;"00° 44' 09.00'' Est, 44° 23' 55.00'' Nord";"47323";;"109 RUE HENRI BARBUSSE";"47300";"VILLENEUVE-SUR-LOT";"Monument religieux"; 40.0;"Commune, communauté de commune"
1891102;0.72694;44.39750;"00° 43' 37.00'' Est, 44° 23' 51.00'' Nord";"47323";;"88 RUE HENRI BARBUSSE";"47300";"VILLENEUVE-SUR-LOT";"Bâtiment"; 15.0;"Commune, communauté de commune"
1891104;0.70611;44.41028;"00° 42' 22.00'' Est, 44° 24' 37.00'' Nord";"47323";;"BOULEVARD DE LA RÉPUBLIQUE";"47300";"VILLENEUVE-SUR-LOT";"Bâtiment"; 20.0;"Commune, communauté de commune"
1898295;0.31722;44.51222;"00° 19' 02.00'' Est, 44° 30' 44.00'' Nord";"47216";;"LE BOURG HANGAR AGRICOLE";"47350";"PUYMICLAN";"Bâtiment"; 12.0;"Particulier"
1908369;0.49694;44.39194;"00° 29' 49.00'' Est, 44° 23' 31.00'' Nord";"47306";;"USINE HYDRAULIQUE LAGAZAILLE";"47110";"LE TEMPLE-SUR-LOT";"Bâtiment"; 17.5;"EDF ou GDF"
1911790;0.17417;44.49500;"00° 10' 27.00'' Est, 44° 29' 42.00'' Nord";"47157";;"RUE DES ERABLES PARKING DU CIMETIERE GRANON";"47200";"MARMANDE";"Pylône tubulaire"; 26.5;"ORANGE"
1915615;0.62111;44.20806;"00° 37' 16.00'' Est, 44° 12' 29.00'' Nord";"47001";;"1 PLACE RABELAIS AGENCE TEMPO BUS";"47000";"AGEN";"Immeuble"; 10.0;"Société HLM"
1915617;0.65389;44.19306;"00° 39' 14.00'' Est, 44° 11' 35.00'' Nord";"47032";;"RUE GEORGES CLEMENCEAU ZI DE LAVILLE KEOLIS DEPOT";"47240";"BON-ENCONTRE";"Immeuble"; 10.0;"Société HLM"
1915761;0.60056;44.13306;"00° 36' 02.00'' Est, 44° 07' 59.00'' Nord";"47169";"LE SAHUC";"264 LE SAHUC CHATEAU D EAU LE SAHUC";"47310";"MOIRAX";"Château d'eau - réservoir"; 20.0;"Commune, communauté de commune"
1937789;0.56000;44.18194;"00° 33' 36.00'' Est, 44° 10' 55.00'' Nord";"47225";"RAMES";"CHEMIN DES MURES STATION DE POMPAGE";"47310";"ROQUEFORT";"Pylône autostable"; 24.0;"ORANGE"
1954308;0.61944;44.17778;"00° 37' 10.00'' Est, 44° 10' 40.00'' Nord";"47031";"RIOLS";"ALLÉE DE RIOLS";"47550";"BOE";"Pylône autostable"; 32.0;"Particulier"
1957799;0.65944;44.18111;"00° 39' 34.00'' Est, 44° 10' 52.00'' Nord";"47031";"BARLEFOND BAS";"AVENUE GEORGES GUIGNARD";"47550";"BOE";"Pylône autostable"; 28.0;"ORANGE"
1964838;0.60000;44.16389;"00° 36' 00.00'' Est, 44° 09' 50.00'' Nord";"47201";;"ROUTE DE CONDOM HOTEL IBIS";"47520";"LE PASSAGE";"Pylône tubulaire"; 26.4;"IFW-FREE"
1975425;0.58583;44.18917;"00° 35' 09.00'' Est, 44° 11' 21.00'' Nord";"47091";;"ROUTE DE NÉRAC PARC ROUTIER";"47310";"ESTILLAC";"Pylône haubané"; 25.0;"Etat, Ministère"
1975591;0.61250;44.20583;"00° 36' 45.00'' Est, 44° 12' 21.00'' Nord";"47001";;"6 BIS BD SCALIGER DITL";"47000";"AGEN";"Immeuble"; 20.0;"DDE"
2041684;0.59889;44.63639;"00° 35' 56.00'' Est, 44° 38' 11.00'' Nord";"47057";"COUSTOU";"ZONE D ACTIVITE DU COSTOU";"47330";"CASTILLONNES";"Pylône autostable"; 32.8;"IFW-FREE"
2043638;0.98139;44.38028;"00° 58' 53.00'' Est, 44° 22' 49.00'' Nord";"47312";"SAINTE-ROMA";;"47370";"TOURNON-D'AGENAIS";"Pylône autostable"; 27.8;"IFW-FREE"
2058692;0.68472;44.29583;"00° 41' 05.00'' Est, 44° 17' 45.00'' Nord";"47075";"PORQUERIE HAUTE";;"47340";"LA CROIX-BLANCHE";"Pylône autostable"; 32.8;"IFW-FREE"
2062480;0.01667;44.19167;"00° 01' 00.00'' Est, 44° 11' 30.00'' Nord";"47119";"CAP BARTOS";;"47420";"HOUEILLES";"Pylône autostable"; 47.8;"TDF"
2063681;0.11111;44.44167;"00° 06' 40.00'' Est, 44° 26' 30.00'' Nord";"47285";"P.S. DE LA SERRE";"ZONE DE LASSERRE SUD";"47250";"SAMAZAN";"Pylône autostable"; 40.0;"Sociétés d'Autoroutes"
2065420;0.27417;44.25889;"00° 16' 27.00'' Est, 44° 15' 32.00'' Nord";"47267";"CAMELOT";;"47160";"SAINT-PIERRE-DE-BUZET";"Pylône autostable"; 37.8;"IFW-FREE"
2072310;0.47917;44.45833;"00° 28' 45.00'' Est, 44° 27' 30.00'' Nord";"47071";;"MOULIN BURLAT";"47260";"COULX";"Pylône autostable"; 37.8;"IFW-FREE"
2079595;0.75111;44.28278;"00° 45' 04.00'' Est, 44° 16' 58.00'' Nord";"47138";"POURRET";"ZA DE POURRET";"47340";"LAROQUE-TIMBAUT";"Pylône autostable"; 30.0;"ORANGE"
2119038;0.51750;44.08750;"00° 31' 03.00'' Est, 44° 05' 15.00'' Nord";"47282";"LE MOULIN";;"47310";"SAINT-VINCENT-DE-LAMONTJOIE";"Pylône autostable"; 27.8;"IFW-FREE"
2123343;0.49444;44.39722;"00° 29' 40.00'' Est, 44° 23' 50.00'' Nord";"47054";;"PLACE DE L'EGLISE";"47260";"CASTELMORON-SUR-LOT";"Monument religieux"; 29.0;"Commune, communauté de commune"
2125218;0.49944;44.14778;"00° 29' 58.00'' Est, 44° 08' 52.00'' Nord";"47172";"LA AOUILLÉ";"RD 7";"47310";"MONCAUT";"Pylône autostable"; 36.0;"ORANGE"
2129051;0.57167;44.22361;"00° 34' 18.00'' Est, 44° 13' 25.00'' Nord";"47069";"LA CHAISE";;"47450";"COLAYRAC-SAINT-CIRQ";"Pylône autostable"; 36.0;"ORANGE"
2129446;0.44222;44.23917;"00° 26' 32.00'' Est, 44° 14' 21.00'' Nord";"47066";"FOURTIC";;"47130";"CLERMONT-DESSOUS";"Pylône autostable"; 36.0;"ORANGE"
2142424;0.20639;44.53056;"00° 12' 23.00'' Est, 44° 31' 50.00'' Nord";"47157";"PELEVISOT";;"47200";"MARMANDE";"Pylône autostable"; 37.8;"IFW-FREE"
2145338;0.66639;44.59694;"00° 39' 59.00'' Est, 44° 35' 49.00'' Nord";"47184";"LA JONCADE";"ROUTE DE LOUGRATTE - D218";"47210";"MONTAUT";"Pylône autostable"; 24.0;"ORANGE"
2146142;0.98889;44.46972;"00° 59' 20.00'' Est, 44° 28' 11.00'' Nord";"47185";"CAVAILLÉ";;"47500";"MONTAYRAL";"Pylône autostable"; 30.0;"ORANGE"
2156750;0.71778;44.57083;"00° 43' 04.00'' Est, 44° 34' 15.00'' Nord";"47241";"LACAJOQUE";"RTE DE LACAJOQUE";"47210";"SAINT-EUTROPE-DE-BORN";"Pylône autostable"; 24.0;"ORANGE"
2158657;0.88778;44.26028;"00° 53' 16.00'' Est, 44° 15' 37.00'' Nord";"47087";"LE BOURG NORD";;"47470";"ENGAYRAC";"Pylône autostable"; 24.0;"ORANGE"
2161943;0.61917;44.19472;"00° 37' 09.00'' Est, 44° 11' 41.00'' Nord";"47001";;"98 RUE PAUL DANGLA RÉSIDENCE PONT DE LA GARDE";"47000";"AGEN";"Immeuble"; 33.0;"Société Privée SA"
2162384;0.87944;44.15667;"00° 52' 46.00'' Est, 44° 09' 24.00'' Nord";"47113";"BOIS DE VALENCE";"CHEM DES CHATAIGNIERS";"47270";"GRAYSSAS";"Pylône autostable"; 24.0;"ORANGE"
2163198;0.75194;44.29833;"00° 45' 07.00'' Est, 44° 17' 54.00'' Nord";"47171";"FOURESTIE";"D 110";"47340";"MONBALEN";"Pylône autostable"; 37.8;"IFW-FREE"
2171091;0.90833;44.41500;"00° 54' 30.00'' Est, 44° 24' 54.00'' Nord";"47314";"POUMET";"VOIE COMMUNALE VC N°104 DE CLARAS";"47140";"TREMONS";"Pylône autostable"; 36.0;"TDF"
2179576;0.58444;44.28111;"00° 35' 04.00'' Est, 44° 16' 52.00'' Nord";"47155";"LABADIO";;"47360";"MADAILLAN";"Pylône autostable"; 31.8;"IFW-FREE"
2189852;0.12139;44.51556;"00° 07' 17.00'' Est, 44° 30' 56.00'' Nord";"47233";"LALIET";"ZAC DE LA PLAINE RUE GALILÉE";"47200";"SAINTE-BAZEILLE";"Pylône tubulaire"; 25.3;"IFW-FREE"
2190706;0.88500;44.27500;"00° 53' 06.00'' Est, 44° 16' 30.00'' Nord";"47025";;"AVENUE SAINT ROCH";"47470";"BEAUVILLE";"Pylône autostable"; 31.8;"IFW-FREE"
2217391;0.81250;44.65583;"00° 48' 45.00'' Est, 44° 39' 21.00'' Nord";"47200";"L'ECOLE";"LE BOURG";"47210";"PARRANQUET";"Bâtiment"; 10.0;"La Poste"
2225163;0.55111;44.21028;"00° 33' 04.00'' Est, 44° 12' 37.00'' Nord";"47040";;"49 CHEMIN DE REVIGNAN";"47310";"BRAX";"Pylône autostable"; 32.8;"IFW-FREE"
2226487;0.70917;44.26389;"00° 42' 33.00'' Est, 44° 15' 50.00'' Nord";"47019";"BAYSSE";"CIMETIERE D310";"47480";"BAJAMONT";"Pylône autostable"; 31.9;"IFW-FREE"
2234421;0.07667;44.31611;"00° 04' 36.00'' Est, 44° 18' 58.00'' Nord";"47052";"MANGANE";"RTE DE BEAUZIAC CD 230";"47700";"CASTELJALOUX";"Pylône autostable"; 35.0;"ORANGE Services Fixes"
2234454;0.14722;44.30639;"00° 08' 50.00'' Est, 44° 18' 23.00'' Nord";"47012";"LE PINSAN";"D 261 DE CASTELJALOUX À VILLEFRANCHE";"47700";"ANZEX";"Château d'eau - réservoir"; 44.0;"Commune, communauté de commune"
2234612;-0.00167;44.23778;"00° 00' 06.00'' Ouest, 44° 14' 16.00'' Nord";"47286";;"D N°157 D'ALLONS A CASTELJALOUX";"47420";"SAUMEJAN";"Pylône autostable"; 45.0;"SFR"
2235183;0.75083;44.52722;"00° 45' 03.00'' Est, 44° 31' 38.00'' Nord";"47175";"MONDÉSIR";"PLN DE GUILLAUME";"47150";"MONFLANQUIN";"Pylône autostable"; 32.8;"IFW-FREE"
2241795;0.53000;44.46111;"00° 31' 48.00'' Est, 44° 27' 40.00'' Nord";"47173";"BELLEVUE";;"47380";"MONCLAR";"Pylône autostable"; 24.0;"ORANGE"
2243497;0.54556;44.11500;"00° 32' 44.00'' Est, 44° 06' 54.00'' Nord";"47137";"VIGNEAU";;"47310";"LAPLUME";"Pylône autostable"; 32.6;"TDF"
2248742;0.92583;44.53222;"00° 55' 33.00'' Est, 44° 31' 56.00'' Nord";"47077";"LA JASSE TESQUET";"D162";"47500";"CUZORN";"Pylône autostable"; 30.0;"ORANGE"
2250765;0.59194;44.32917;"00° 35' 31.00'' Est, 44° 19' 45.00'' Nord";"47073";"PECH D AGRE";;"47360";"COURS";"Pylône autostable"; 26.8;"IFW-FREE"
2252425;0.48222;44.24056;"00° 28' 56.00'' Est, 44° 14' 26.00'' Nord";"47066";"LAPOULEILLE-EST";"CHEMIN RURAL DE PUYMASSON";"47130";"CLERMONT-DESSOUS";"Pylône autostable"; 24.0;"ORANGE"
2263299;0.78583;44.16972;"00° 47' 09.00'' Est, 44° 10' 11.00'' Nord";"47217";"BOISSIÈRE";"D 277 / CHEMIN RURAL N°1";"47270";"PUYMIROL";"Pylône autostable"; 24.0;"ORANGE"
2264931;0.03694;44.47583;"00° 02' 13.00'' Est, 44° 28' 33.00'' Nord";"47068";"AIRE DE COCUMONT A62 NORD";;"47250";"COCUMONT";"Pylône autostable"; 40.0;"Sociétés d'Autoroutes"
2267229;0.77694;44.14333;"00° 46' 37.00'' Est, 44° 08' 36.00'' Nord";"47274";;"1270 CHEMIN DE BELLERIVE AU CANAL";"47270";"SAINT-ROMAIN-LE-NOBLE";"Pylône autostable"; 40.0;"ORANGE"
2269537;0.14778;44.45333;"00° 08' 52.00'' Est, 44° 27' 12.00'' Nord";"47101";"MAYNE DES SABLES";"459 MAYNE DES SABLES TERRAIN DE LOISIRS";"47200";"FOURQUES-SUR-GARONNE";"Pylône autostable"; 30.0;"ORANGE"
2274633;0.37583;44.25361;"00° 22' 33.00'' Est, 44° 15' 13.00'' Nord";"47210";"BOUILLOUSSE";"D 813";"47130";"PORT-SAINTE-MARIE";"Pylône tubulaire"; 25.0;"ORANGE"
2278281;0.59528;44.24111;"00° 35' 43.00'' Est, 44° 14' 28.00'' Nord";"47069";"FRANC";"ROUTE DE FRANC";"47450";"COLAYRAC-SAINT-CIRQ";"Pylône autostable"; 30.0;"ORANGE"
2283311;1.01917;44.58444;"01° 01' 09.00'' Est, 44° 35' 04.00'' Nord";"47292";"LABORIE";"VC 134 DE LABORIE A LE LONGAL";"47500";"SAUVETERRE-LA-LEMANCE";"Pylône autostable"; 30.0;"ORANGE"
2287206;0.71167;44.39250;"00° 42' 42.00'' Est, 44° 23' 33.00'' Nord";"47323";;"CHATEAU DE ROOY";"47300";"VILLENEUVE-SUR-LOT";"Mât"; 40.8;"Commune, communauté de commune"
2298498;0.33583;44.13417;"00° 20' 09.00'' Est, 44° 08' 03.00'' Nord";"47195";;"PLACE DU CHAMP DE FOIRE";"47600";"NERAC";"Mât béton"; 1.0;"Société Privée SA"
2304312;0.04472;44.29917;"00° 02' 41.00'' Est, 44° 17' 57.00'' Nord";"47026";"CINQ ARDITS";;"47700";"BEAUZIAC";"Pylône autostable"; 47.0;"Conseil Départemental"
2318624;0.41528;44.24778;"00° 24' 55.00'' Est, 44° 14' 52.00'' Nord";"47022";;"71 LAURESPIN - BARATET";"47130";"BAZENS";"Pylône autostable"; 36.0;"ORANGE"
2319979;0.50417;44.40139;"00° 30' 15.00'' Est, 44° 24' 05.00'' Nord";"47054";"GRANGE D ESPAGNOL";"RUE DES SANGLIERS  D225";"47260";"CASTELMORON-SUR-LOT";"Pylône autostable"; 32.8;"IFW-FREE"
2359893;0.47361;44.15611;"00° 28' 25.00'' Est, 44° 09' 22.00'' Nord";"47180";"HAGET";"D7";"47600";"MONTAGNAC-SUR-AUVIGNON";"Pylône autostable"; 57.4;"RTE"
2367395;0.04778;44.25583;"00° 02' 52.00'' Est, 44° 15' 21.00'' Nord";"47208";;"281 CHEMIN DE LABONNE";"47420";"POMPOGNE";"Pylône autostable"; 42.0;"SFR"
2370576;0.23222;44.45667;"00° 13' 56.00'' Est, 44° 27' 24.00'' Nord";"47094";"LES VITARELLES";;"47400";"FAUGUEROLLES";"Pylône autostable"; 36.0;"ATC FRANCE"
2378038;0.54444;44.14611;"00° 32' 40.00'' Est, 44° 08' 46.00'' Nord";"47016";"VIGNOBLE DE ROSIÈRE";;"47310";"AUBIAC";"Pylône autostable"; 36.0;"ORANGE"
2379508;0.26972;44.04361;"00° 16' 11.00'' Est, 44° 02' 37.00'' Nord";"47167";"BOURDILOT";;"47170";"MEZIN";"Pylône autostable"; 32.8;"IFW-FREE"
2382573;0.57889;44.13194;"00° 34' 44.00'' Est, 44° 07' 55.00'' Nord";"47016";"LA CAPELLE";"ROUTE D HARTANES";"47310";"AUBIAC";"Pylône autostable"; 32.8;"IFW-FREE"
2385662;0.57333;44.24556;"00° 34' 24.00'' Est, 44° 14' 44.00'' Nord";"47069";"CAZALET";"ROUTE DE LA CEPEDE";"47450";"COLAYRAC-SAINT-CIRQ";"Château d'eau - réservoir"; 42.0;"Syndicat des eaux, Adduction"
2385712;0.09750;44.39528;"00° 05' 51.00'' Est, 44° 23' 43.00'' Nord";"47034";;"MÉTAIRIE DE LA CROIX";"47250";"BOUGLON";"Pylône autostable"; 37.0;"TDF"
2385938;0.44694;44.23583;"00° 26' 49.00'' Est, 44° 14' 09.00'' Nord";"47186";"PINÉ";"AU BORD DE LA GARONNE";"47130";"MONTESQUIEU";"Pylône autostable"; 35.7;"ORANGE"
2386745;0.46889;44.58250;"00° 28' 08.00'' Est, 44° 34' 57.00'' Nord";"47188";"BARCELONE";;"47800";"MONTIGNAC-DE-LAUZUN";"Pylône autostable"; 38.8;"IFW-FREE"
2386944;0.67917;44.28917;"00° 40' 45.00'' Est, 44° 17' 21.00'' Nord";"47075";;"454 CHEMIN CÔTE DU MOULIN ALLÉE DU MOULIN PROCHE N21";"47340";"LA CROIX-BLANCHE";"Pylône autostable"; 24.5;"ATC FRANCE"
2390266;0.51278;44.23194;"00° 30' 46.00'' Est, 44° 13' 55.00'' Nord";"47246";"CHAMPS DE LASSERRE";"IMP DE LA PLAINE PROCHE DU CHEMIN DE FER";"47450";"SAINT-HILAIRE-DE-LUSIGNAN";"Pylône autostable"; 36.0;"TDF"
2398925;0.26639;44.28167;"00° 15' 59.00'' Est, 44° 16' 54.00'' Nord";"47078";;"370 LE BETBEZE VÉLODROME DE BETBÈZE";"47160";"DAMAZAN";"Pylône autostable"; 38.8;"IFW-FREE"
2399892;0.12306;44.52028;"00° 07' 23.00'' Est, 44° 31' 13.00'' Nord";"47233";"MENAUDON SUD";"ROUTE DE LA BERGERIE";"47180";"SAINTE-BAZEILLE";"Pylône autostable"; 24.0;"ORANGE"
2405088;0.55889;44.36111;"00° 33' 32.00'' Est, 44° 21' 40.00'' Nord";"47306";"LES PETITOUS";;"47110";"LE TEMPLE-SUR-LOT";"Pylône autostable"; 32.8;"IFW-FREE"
2421071;0.61556;44.25583;"00° 36' 56.00'' Est, 44° 15' 21.00'' Nord";"47100";;"ROUTE DE PAUILHAC";"47510";"FOULAYRONNES";"Pylône autostable"; 36.3;"SFR"
2425203;0.62722;44.30194;"00° 37' 38.00'' Est, 44° 18' 07.00'' Nord";"47140";"NICOT";"ROUTE DU STADE";"47360";"LAUGNAC";"Pylône autostable"; 38.0;"ATC FRANCE"
2431279;0.02472;44.44722;"00° 01' 29.00'' Est, 44° 26' 50.00'' Nord";"47068";"BELLEVUE";"CHEMIN DE RONDE DU GAMAY NOIR";"47250";"COCUMONT";"Château d'eau - réservoir"; 56.0;"Syndicat des eaux, Adduction"
2435126;0.07833;44.51167;"00° 04' 42.00'' Est, 44° 30' 42.00'' Nord";"47074";;"34 RUE DES TILLEULS";"47180";"COUTHURES-SUR-GARONNE";"Mât métallique"; 12.0;"ORANGE"
2437587;0.11139;44.27417;"00° 06' 41.00'' Est, 44° 16' 27.00'' Nord";"47222";;"594 ROUTE DE COUTHURES";"47700";"LA REUNION";"Pylône autostable"; 42.0;"SFR"
2438169;0.54889;44.23028;"00° 32' 56.00'' Est, 44° 13' 49.00'' Nord";"47069";;"564 CHEMIN CAMP DE LAGRANGE";"47450";"COLAYRAC-SAINT-CIRQ";"Pylône autostable"; 30.0;"ORANGE"
