Numéro du support;Longitude;Latitude;"Position";"Insee";"Lieu dit";"Adresse";"Code postal";"Commune";"Nature du support";Hauteur en m;"Propriétaire"
11964;3.50139;44.56222;"03° 30' 05.00'' Est, 44° 33' 44.00'' Nord";"48042";;"LES BARAQUES";"48000";"CHASTEL-NOUVEL";"Bâtiment"; 15.0;"ORANGE Services Fixes"
11980;3.29056;44.55694;"03° 17' 26.00'' Est, 44° 33' 25.00'' Nord";"48092";;"11 T AV THEOPHILE ROUSSEL";"48100";"MARVEJOLS";"Pylône autostable"; 25.0;"ORANGE Services Fixes"
11984;3.77444;44.14667;"03° 46' 28.00'' Est, 44° 08' 48.00'' Nord";"48097";;"ST ROMAIN DE TOUSQUE";"48110";"MOISSAC-VALLEE-FRANCAISE";"Pylône autostable"; 20.0;"ORANGE Services Fixes"
11986;3.85472;44.74444;"03° 51' 17.00'' Est, 44° 44' 40.00'' Nord";"48080";"LIGNOLAS";;"48300";"LANGOGNE";"Pylône autostable"; 16.0;"ORANGE Services Fixes"
11988;3.64306;44.78139;"03° 38' 35.00'' Est, 44° 46' 53.00'' Nord";"48070";;"LOU CHAUMAS";"48600";"GRANDRIEU";"Pylône autostable"; 30.0;"ORANGE Services Fixes"
11992;3.92556;44.44000;"03° 55' 32.00'' Est, 44° 26' 24.00'' Nord";"48198";;"AV DE LA GARE";"48800";"VILLEFORT";"Bâtiment"; 8.0;"ORANGE Services Fixes"
11994;3.45389;44.66167;"03° 27' 14.00'' Est, 44° 39' 42.00'' Nord";"48133";;"RTE D'ESTABLES";"48700";"SAINT-AMANS";"Pylône autostable"; 12.0;"ORANGE Services Fixes"
12000;3.17139;44.32694;"03° 10' 17.00'' Est, 44° 19' 37.00'' Nord";"48125";"LE TENSIONNIEU";;"48500";"LE RECOUX";"Pylône autostable"; 12.0;"ORANGE Services Fixes"
12002;3.17167;44.30667;"03° 10' 18.00'' Est, 44° 18' 24.00'' Nord";"48094";;"LOT PUECH DE LAS COMBES";"48500";"LE MASSEGROS";"Bâtiment"; 6.0;"ORANGE Services Fixes"
12006;3.41361;44.36306;"03° 24' 49.00'' Est, 44° 21' 47.00'' Nord";"48146";;"LOU VIALA D 986";"48210";"SAINTE-ENIMIE";"Bâtiment"; 6.0;"ORANGE Services Fixes"
12008;3.63139;44.78222;"03° 37' 53.00'' Est, 44° 46' 56.00'' Nord";"48070";;"CHEM DU COUVENT - BEAUSÉJOUR AUTOCOMMUTATEUR";"48600";"GRANDRIEU";"Pylône tubulaire"; 10.0;"ORANGE Services Fixes"
12010;3.21111;44.19250;"03° 12' 40.00'' Est, 44° 11' 33.00'' Nord";"48131";"CAPLUC";;"48150";"LE ROZIER";"Pylône autostable"; 6.0;"ORANGE Services Fixes"
12018;3.74000;44.49472;"03° 44' 24.00'' Est, 44° 29' 41.00'' Nord";"48027";;"RTE DE GOULET";"48190";"LE BLEYMARD";"Bâtiment"; 6.0;"ORANGE Services Fixes"
56588;3.19361;44.68861;"03° 11' 37.00'' Est, 44° 41' 19.00'' Nord";"48120";"SOULEYROLS";;"48100";"PRINSUEJOLS";"Pylône autostable"; 15.0;"Titulaire programme Radio/TV"
60619;3.49361;44.51028;"03° 29' 37.00'' Est, 44° 30' 37.00'' Nord";"48095";"MONT MIMAT";"RLP EAUX VIVES LOZERE - MENDE";"48000";"MENDE";"Mât béton"; 17.0;"Titulaire programme Radio/TV"
60625;3.22222;44.61361;"03° 13' 20.00'' Est, 44° 36' 49.00'' Nord";"48165";"CHANTEGRENOUILLE";;"48100";"SAINT-LAURENT-DE-MURET";"Pylône autostable"; 15.0;"Titulaire programme Radio/TV"
60627;3.53361;44.41472;"03° 32' 01.00'' Est, 44° 24' 53.00'' Nord";"48075";"MONTMIRAT";;"48320";"ISPAGNAC";"Pylône autostable"; 30.0;"Titulaire programme Radio/TV"
60629;3.78056;44.68083;"03° 46' 50.00'' Est, 44° 40' 51.00'' Nord";"48129";;"RLP EAUX VIVES LOZERE - ROCLES";"48300";"ROCLES";"Support non décrit";;
60635;3.86778;44.73667;"03° 52' 04.00'' Est, 44° 44' 12.00'' Nord";"48080";"COTE DE LABRE";"BOIS DU NIRGOULT";"48300";"LANGOGNE";"Pylône autostable"; 20.0;"Titulaire programme Radio/TV"
63877;3.89556;44.33111;"03° 53' 44.00'' Est, 44° 19' 52.00'' Nord";"48194";;"RTE DU PORT DE MONTVERT";"48220";"VIALAS";"Pylône autostable"; 12.0;"ORANGE Services Fixes"
79504;3.25361;44.62778;"03° 15' 13.00'' Est, 44° 37' 40.00'' Nord";"48032";"LA BROUSSE";;"48100";"LE BUISSON";"Pylône autostable"; 22.0;"BOUYGUES"
97566;3.56000;44.43472;"03° 33' 36.00'' Est, 44° 26' 05.00'' Nord";"48147";"LE MONTET";;"48000";"SAINT-ETIENNE-DU-VALDONNEZ";"Pylône autostable"; 25.0;"ORANGE"
97586;3.25250;44.49583;"03° 15' 09.00'' Est, 44° 29' 45.00'' Nord";"48138";"LA ROUVIÈRE";"VERS N.9";"48100";"SAINT-BONNET-DE-CHIRAC";"Pylône autostable"; 36.0;"ORANGE"
97596;3.38222;44.75000;"03° 22' 56.00'' Est, 44° 45' 00.00'' Nord";"48063";"LOU TRUC";"RÉSERVOIR DE BERGOUGNOUX";"48700";"FONTANS";"Pylône autostable"; 30.0;"ORANGE"
97598;3.66750;44.61750;"03° 40' 03.00'' Est, 44° 37' 03.00'' Nord";"48008";"CHON BLON";"L'HABITARELLE";"48170";"ARZENC-DE-RANDON";"Pylône autostable"; 30.0;"ORANGE"
114685;3.75944;44.53833;"03° 45' 34.00'' Est, 44° 32' 18.00'' Nord";"48023";"LE GOULET";;"48170";"BELVEZET";"Pylône autostable"; 30.0;"Titulaire programme Radio/TV"
114689;3.18750;44.84000;"03° 11' 15.00'' Est, 44° 50' 24.00'' Nord";"48064";;"FENESTRE";"48310";"FOURNELS";"Pylône autostable"; 12.0;"Titulaire programme Radio/TV"
114691;3.16833;44.54222;"03° 10' 06.00'' Est, 44° 32' 32.00'' Nord";"48187";"LA CROIX DU LOUP";;"48100";"LES SALCES";"Pylône autostable"; 15.0;"Titulaire programme Radio/TV"
114695;3.30667;44.80667;"03° 18' 24.00'' Est, 44° 48' 24.00'' Nord";"48140";;"CHAMP DE LA FOUR CIVERGOLS";"48200";"SAINT-CHELY-D'APCHER";"Pylône autostable"; 20.0;"Titulaire programme Radio/TV"
116800;3.85583;44.72750;"03° 51' 21.00'' Est, 44° 43' 39.00'' Nord";"48080";;"R DES CAPUCINS CENTRAL TÉLÉPHONIQUE";"48300";"LANGOGNE";"Bâtiment"; 13.0;"ORANGE Services Fixes"
116880;3.87111;44.22361;"03° 52' 16.00'' Est, 44° 13' 25.00'' Nord";"48155";"LE PENDEDIS";;"48370";"SAINT-GERMAIN-DE-CALBERTE";"Bâtiment"; 6.0;"ORANGE Services Fixes"
116942;3.65083;44.61722;"03° 39' 03.00'' Est, 44° 37' 02.00'' Nord";"48008";"CHON BLON";"ENTRE LES MORTS ET ROUSSES";"48170";"ARZENC-DE-RANDON";"Pylône autostable"; 30.0;"ORANGE Services Fixes"
116944;3.68639;44.63722;"03° 41' 11.00'' Est, 44° 38' 14.00'' Nord";"48043";;"MOUGARIO N 88";"48170";"CHATEAUNEUF-DE-RANDON";"Bâtiment"; 8.0;"ORANGE Services Fixes"
126659;3.74167;44.26889;"03° 44' 30.00'' Est, 44° 16' 08.00'' Nord";"48036";"LE CROUZAS";"D 62";"48400";"CASSAGNAS";"Bâtiment"; 6.0;"ORANGE Services Fixes"
130173;3.22667;44.27778;"03° 13' 36.00'' Est, 44° 16' 40.00'' Nord";"48195";"LE VILLAGE";"D995";"48210";"LES VIGNES";"Bâtiment"; 7.0;"ORANGE Services Fixes"
133592;3.28861;44.72333;"03° 17' 19.00'' Est, 44° 43' 24.00'' Nord";"48009";"R DE LA PAILLADE";"AUTOCOMMUTATEUR";"48130";"AUMONT-AUBRAC";"Bâtiment"; 8.0;"ORANGE Services Fixes"
146867;3.56861;44.33000;"03° 34' 07.00'' Est, 44° 19' 48.00'' Nord";"48061";"COL DE LA PIERRE PLATE";"D16";"48400";"FLORAC";"Mât"; 7.0;"ORANGE Services Fixes"
161279;3.65750;44.23889;"03° 39' 27.00'' Est, 44° 14' 20.00'' Nord";"48019";;"BARRE DES CEVENNES";"48400";"BARRE-DES-CEVENNES";"Support non décrit"; 10.0;
173163;3.85944;44.73639;"03° 51' 34.00'' Est, 44° 44' 11.00'' Nord";"48080";;"AMONT PONT RIVE DROITE";"48300";"LANGOGNE";"Support non décrit"; 10.0;
173167;3.71444;44.81472;"03° 42' 52.00'' Est, 44° 48' 53.00'' Nord";"48084";;"RTE DE ST BONNET DE MONTAURO";"48600";"LAVAL-ATGER";"Support non décrit"; 10.0;
193616;3.17000;44.32583;"03° 10' 12.00'' Est, 44° 19' 33.00'' Nord";"48125";"LE TENSONNIEU";"RESERVOIR";"48500";"LE RECOUX";"Château d'eau - réservoir"; 12.0;"Commune, communauté de commune"
220245;3.59944;44.32028;"03° 35' 58.00'' Est, 44° 19' 13.00'' Nord";"48061";;"11 R CELESTIN FREINET";"48400";"FLORAC";"Bâtiment"; 7.0;
249998;3.24889;44.64944;"03° 14' 56.00'' Est, 44° 38' 58.00'' Nord";"48032";"COL DES ISSARTETS";"ECH D53/ A75";"48100";"LE BUISSON";"Pylône autostable"; 30.0;"Etat, Ministère"
269047;3.19028;44.83944;"03° 11' 25.00'' Est, 44° 50' 22.00'' Nord";"48190";"FENESTRES";;"48310";"TERMES";"Bâtiment"; 7.0;
269053;3.18778;44.83944;"03° 11' 16.00'' Est, 44° 50' 22.00'' Nord";"48190";"FENESTRES";"LE ROCHER";"48310";"TERMES";"Pylône autostable"; 3.0;
271839;3.19556;44.41444;"03° 11' 44.00'' Est, 44° 24' 52.00'' Nord";"48181";"LA MARCONNIÈRE";"CHEM DE TERRE SUR LES CRÊTES";"48500";"SAINT-SATURNIN";"Mât métallique"; 5.0;"ORANGE"
283700;3.42083;44.57639;"03° 25' 15.00'' Est, 44° 34' 35.00'' Nord";"48189";"VALAT DEL SABOU";"CHEM COMMUNAL";"48000";"SERVIERES";"Mât"; 12.0;"ORANGE"
290283;3.65556;44.85167;"03° 39' 20.00'' Est, 44° 51' 06.00'' Nord";"48038";"LE SERRE";"CHON DE PERDRIX CHEM COMMUNAL";"48600";"CHAMBON-LE-CHATEAU";"Pylône autostable"; 18.0;"Particulier"
290285;3.60000;44.72667;"03° 36' 00.00'' Est, 44° 43' 36.00'' Nord";"48108";"LOU MOUROU";"DEVANT LE LIEU";"48600";"LA PANOUSE";"Pylône autostable"; 18.0;"Conseil Général"
290287;3.70083;44.70778;"03° 42' 03.00'' Est, 44° 42' 28.00'' Nord";"48160";"FAGETTE BASSE";"D.34 - LE TRIBE DÉCHETTERIE";"48170";"SAINT-JEAN-LA-FOUILLOUSE";"Pylône autostable"; 30.0;"Conseil Général"
295264;3.46972;44.78528;"03° 28' 11.00'' Est, 44° 47' 07.00'' Nord";"48149";"TRUC DE CARABOUSSE";"CHEM DE TERRE  PYLÔNE";"48120";"SAINTE-EULALIE";"Pylône autostable"; 21.0;"Particulier"
296422;3.62417;44.69667;"03° 37' 27.00'' Est, 44° 41' 48.00'' Nord";"48182";"CROIX DE L'HÔPITAL";"VC CHAM MEIJO";"48170";"SAINT-SAUVEUR-DE-GINESTOUX";"Pylône autostable"; 30.0;"Conseil Général"
298139;3.75389;44.71917;"03° 45' 14.00'' Est, 44° 43' 09.00'' Nord";"48041";"HAUTS DE VILLEVIEILLETTE";;"48300";"CHASTANIER";"Pylône autostable"; 15.0;"Conseil Général"
298141;3.16583;44.67278;"03° 09' 57.00'' Est, 44° 40' 22.00'' Nord";"48120";"LE LAC";"D 73";"48100";"PRINSUEJOLS";"Pylône autostable"; 24.0;"Conseil Général"
299893;3.53556;44.21361;"03° 32' 08.00'' Est, 44° 12' 49.00'' Nord";"48065";"LA LITIÈRE";;"48400";"FRAISSINET-DE-FOURQUES";"Pylône autostable"; 20.0;"Commune, communauté de commune"
302590;3.88389;44.53500;"03° 53' 02.00'' Est, 44° 32' 06.00'' Nord";"48021";;"CABINE RADIO DU BARRAGE DE PUYLAURENT CHEM D'ACCÈS AU BARRAGE";"48250";"LA BASTIDE-PUYLAURENT";"Pylône autostable"; 12.0;"EDF GDF"
306753;3.46083;44.26278;"03° 27' 39.00'' Est, 44° 15' 46.00'' Nord";"48074";"NIVOLIERS";;"48150";"HURES-LA-PARADE";"Mât"; 8.0;"ORANGE Services Fixes"
310895;3.15972;44.77056;"03° 09' 35.00'' Est, 44° 46' 14.00'' Nord";"48058";"LA FAGE";"CHEMIN RURAL";"48310";"LA FAGE-MONTIVERNOUX";"Pylône autostable"; 20.0;"Conseil Général"
314451;3.75556;44.21333;"03° 45' 20.00'' Est, 44° 12' 48.00'' Nord";"48171";"SERRE DES CELETS";;"48110";"SAINT-MARTIN-DE-LANSUSCLE";"Pylône autostable"; 20.0;"Conseil Général"
316301;3.84694;44.72639;"03° 50' 49.00'' Est, 44° 43' 35.00'' Nord";"48080";;"BEAUREGARD";"48300";"LANGOGNE";"Pylône autostable"; 10.0;
316778;3.85389;44.73611;"03° 51' 14.00'' Est, 44° 44' 10.00'' Nord";"48080";;"QUARTIER DES ABATTOIRS";"48300";"LANGOGNE";"Bâtiment"; 13.0;
320617;3.76917;44.14944;"03° 46' 09.00'' Est, 44° 08' 58.00'' Nord";"48097";"LOU SERRE";"ST ROMAN DE TOUSQUE";"48110";"MOISSAC-VALLEE-FRANCAISE";"Pylône autostable"; 20.0;"TDF"
320962;3.13389;44.86972;"03° 08' 02.00'' Est, 44° 52' 11.00'' Nord";"48001";"POUMCLADE";"D65";"48310";"ALBARET-LE-COMTAL";"Pylône autostable"; 37.0;"ORANGE"
326489;3.04833;44.66139;"03° 02' 54.00'' Est, 44° 39' 41.00'' Nord";"48104";;"PL DU FOIRAIL AUTOCOMMUTATEUR";"48260";"NASBINALS";"Bâtiment"; 6.0;"ORANGE Services Fixes"
326496;3.12000;44.81722;"03° 07' 12.00'' Est, 44° 49' 02.00'' Nord";"48064";"AU BOURG";"PRÈS DU CROISEMENT D53/D989 AUTOCOMMUTATEUR";"48310";"FOURNELS";"Bâtiment"; 7.0;"ORANGE Services Fixes"
332525;3.75111;44.20389;"03° 45' 04.00'' Est, 44° 12' 14.00'' Nord";"48171";"FABREGUE";"D.28 - RESERVOIR DE FABREGUE";"48110";"SAINT-MARTIN-DE-LANSUSCLE";"Mât métallique"; 6.0;"ORANGE Services Fixes"
334525;3.92056;44.20167;"03° 55' 14.00'' Est, 44° 12' 06.00'' Nord";"48170";"VC N° 1 DU PENDEDIS";"LE BOURG AUTOCOMMUTATEUR";"48160";"SAINT-MARTIN-DE-BOUBAUX";"Bâtiment"; 6.0;"ORANGE Services Fixes"
335466;3.17667;44.47611;"03° 10' 36.00'' Est, 44° 28' 34.00'' Nord";"48156";"LOUS RAUBENETS";"ROUTE DE LA GALIOSSE";"48340";"SAINT-GERMAIN-DU-TEIL";"Bâtiment"; 8.0;"ORANGE Services Fixes"
337190;3.16861;44.80722;"03° 10' 07.00'' Est, 44° 48' 26.00'' Nord";"48190";"LAS BARNASSES";;"48310";"TERMES";"Pylône autostable"; 24.0;"Conseil Général"
337260;3.21500;44.27083;"03° 12' 54.00'' Est, 44° 16' 15.00'' Nord";"48180";"DESALIEGES";"PYLÔNE TÉLÉVISION COMMUNAL";"48500";"SAINT-ROME-DE-DOLAN";"Pylône autostable"; 12.0;"Commune, communauté de commune"
338836;3.92639;44.24667;"03° 55' 35.00'' Est, 44° 14' 48.00'' Nord";"48051";"LA BASTIDE";"QUARTIER MAISON DE RETRAITE AVENUE DE LA GARE AUTOCOMMUTATEUR";"48160";"LE COLLET-DE-DEZE";"Bâtiment"; 8.0;"ORANGE Services Fixes"
340893;3.85944;44.47361;"03° 51' 34.00'' Est, 44° 28' 25.00'' Nord";"48004";"ROUTE DE MENDE";"D901";"48800";"ALTIER";"Pylône autostable"; 9.0;"ORANGE Services Fixes"
340897;3.85417;44.47278;"03° 51' 15.00'' Est, 44° 28' 22.00'' Nord";"48004";;"LA PISE";"48800";"ALTIER";"Pylône autostable"; 6.0;"ORANGE Services Fixes"
353279;3.75083;44.67056;"03° 45' 03.00'' Est, 44° 40' 14.00'' Nord";"48045";"LES COMBES";"VOIE COMMUNALE N° 11 DES COMBES";"48170";"CHAUDEYRAC";"Pylône autostable"; 30.0;"ORANGE"
389976;3.37083;44.22778;"03° 22' 15.00'' Est, 44° 13' 40.00'' Nord";"48074";"L'ARPAJOUX";"INTERSECTION D63/D986";"48150";"HURES-LA-PARADE";"Pylône tubulaire"; 10.0;"ORANGE Services Fixes"
398004;3.17139;44.41361;"03° 10' 17.00'' Est, 44° 24' 49.00'' Nord";"48017";"PUECH DE CRICOU";"CD267";"48500";"BANASSAC";"Pylône autostable"; 50.0;
402957;3.73972;44.36389;"03° 44' 23.00'' Est, 44° 21' 50.00'' Nord";"48116";"LA PARO";"QUARTIER DE LA MOLINE";"48220";"LE PONT-DE-MONTVERT";"Bâtiment"; 5.0;"ORANGE Services Fixes"
403248;3.31889;44.30139;"03° 19' 08.00'' Est, 44° 18' 05.00'' Nord";"48088";"LE VILLAGE";"GITE ÉTAPE LE PRADET D907 B";"48210";"LA MALENE";"Bâtiment"; 5.0;"ORANGE Services Fixes"
420049;3.89139;44.18639;"03° 53' 29.00'' Est, 44° 11' 11.00'' Nord";"48170";;"LES MOULINES MTGNE VIEILLE MORTE";"48160";"SAINT-MARTIN-DE-BOUBAUX";"Pylône autostable"; 10.0;
428345;3.98694;44.47083;"03° 59' 13.00'' Est, 44° 28' 15.00'' Nord";"48015";"GREFOULINE";"AUTOCOMMUTATEUR";"48800";"PIED-DE-BORNE";"Pylône autostable"; 10.0;"ORANGE Services Fixes"
428347;3.98611;44.47861;"03° 59' 10.00'' Est, 44° 28' 43.00'' Nord";"48015";"ROUTE DES VANS";;"48800";"PIED-DE-BORNE";"Bâtiment"; 6.0;"EDF GDF"
441448;3.35806;44.35639;"03° 21' 29.00'' Est, 44° 21' 23.00'' Nord";"48085";"LOU BOUOS";"LAS PIGNÈDES D998";"48500";"LAVAL-DU-TARN";"Pylône autostable"; 31.0;"SFR"
445682;3.43194;44.17972;"03° 25' 55.00'' Est, 44° 10' 47.00'' Nord";"48096";"ANDRE CHANSON";;"48150";"MEYRUEIS";"Pylône autostable"; 11.0;"ORANGE Services Fixes"
445937;3.43083;44.18583;"03° 25' 51.00'' Est, 44° 11' 09.00'' Nord";"48096";"LA PAUPARELLE";"PYLONE TELECOMM.";"48150";"MEYRUEIS";"Pylône autostable"; 26.0;"ORANGE"
449487;3.94667;44.44056;"03° 56' 48.00'' Est, 44° 26' 26.00'' Nord";"48198";"CHAPELAS";;"48800";"VILLEFORT";"Pylône autostable"; 12.0;"ORANGE Services Fixes"
460374;3.48139;44.52500;"03° 28' 53.00'' Est, 44° 31' 30.00'' Nord";"48095";;"48 AV DU 11 NOVEMBRE BUREAU IBS";"48000";"MENDE";"Immeuble"; 12.0;"Société Privée SA"
461821;3.58722;44.32194;"03° 35' 14.00'' Est, 44° 19' 19.00'' Nord";"48061";"RAVINE DE LA CROIX BLANCHE";"PRES DE LA D16 ET DU RESERVOIR";"48400";"FLORAC";"Château d'eau - réservoir"; 10.0;"Syndicat des eaux, Adduction"
466010;3.89889;44.22500;"03° 53' 56.00'' Est, 44° 13' 30.00'' Nord";"48170";"ST MICHEL SIGNAL";;"48160";"SAINT-MARTIN-DE-BOUBAUX";"Pylône autostable"; 17.0;"TDF"
467709;3.57139;44.32722;"03° 34' 17.00'' Est, 44° 19' 38.00'' Nord";"48061";"ROCHER DE PRADAL";;"48400";"FLORAC";"Pylône autostable"; 24.0;"TDF"
469033;3.33056;44.54389;"03° 19' 50.00'' Est, 44° 32' 38.00'' Nord";"48103";"LA CROZE";"CHEM RURAL";"48100";"MONTRODAT";"Pylône autostable"; 12.0;"ORANGE"
470626;3.28528;44.78139;"03° 17' 07.00'' Est, 44° 46' 53.00'' Nord";"48025";"LES CHAYSSADES";"PRÈS N9";"48200";"LES BESSONS";"Pylône autostable"; 35.0;"ORANGE"
472143;3.45556;44.52167;"03° 27' 20.00'' Est, 44° 31' 18.00'' Nord";"48016";"SIGNAL DE FLAGIT";;"48000";"BALSIEGES";"Pylône autostable"; 30.0;"SFR"
497254;3.32167;44.29389;"03° 19' 18.00'' Est, 44° 17' 38.00'' Nord";"48088";"CUERFACHE";"PYLONE TDF";"48210";"LA MALENE";"Pylône autostable"; 16.1;"TDF"
497431;3.54167;44.35861;"03° 32' 30.00'' Est, 44° 21' 31.00'' Nord";"48122";"LE SINGLE";;"48320";"QUEZAC";"Pylône autostable"; 48.5;"TDF"
498971;3.25833;44.85833;"03° 15' 30.00'' Est, 44° 51' 30.00'' Nord";"48002";"ROCHER BLANC";;"48200";"ALBARET-SAINTE-MARIE";"Pylône autostable"; 50.0;"DDE"
500289;3.84222;44.16639;"03° 50' 32.00'' Est, 44° 09' 59.00'' Nord";"48148";"ALLÉE DES TILLEULS";;"48330";"SAINT-ETIENNE-VALLEE-FRANCAISE";"Bâtiment"; 5.0;"ORANGE Services Fixes"
500291;3.85167;44.16833;"03° 51' 06.00'' Est, 44° 10' 06.00'' Nord";"48148";"MIÈGE SOLLE";;"48330";"SAINT-ETIENNE-VALLEE-FRANCAISE";"Pylône autostable"; 22.0;"ORANGE Services Fixes"
501845;3.45250;44.51972;"03° 27' 09.00'' Est, 44° 31' 11.00'' Nord";"48016";"SIGNAL DE FLAGIT";;"48000";"BALSIEGES";"Pylône autostable"; 15.0;"Titulaire programme Radio/TV"
506365;3.28417;44.54833;"03° 17' 03.00'' Est, 44° 32' 54.00'' Nord";"48092";;"PRÉFONTAINES";"48100";"MARVEJOLS";"Pylône autostable"; 25.0;"TDF"
506451;3.31556;44.53417;"03° 18' 56.00'' Est, 44° 32' 03.00'' Nord";"48107";"TRUC DU MIDI";"RÉÉMETTEUR TDF DE MARVEJOLS";"48100";"PALHERS";"Pylône autostable"; 45.0;"TDF"
508149;3.40000;44.51167;"03° 23' 60.00'' Est, 44° 30' 42.00'' Nord";"48018";"CENARET";;"48000";"BARJAC";"Pylône autostable"; 43.0;"TDF"
509027;3.51528;44.52250;"03° 30' 55.00'' Est, 44° 31' 21.00'' Nord";"48095";;"8 R DE FONTANILLES";"48000";"MENDE";"Immeuble"; 30.0;"Société HLM"
513530;3.48944;44.52306;"03° 29' 22.00'' Est, 44° 31' 23.00'' Nord";"48095";;"AVE DU 8 MAI 1945";"48000";"MENDE";"Pylône tubulaire"; 15.0;"TDF"
513561;3.53222;44.64222;"03° 31' 56.00'' Est, 44° 38' 32.00'' Nord";"48127";"TRUC DE FORTUNIO";;"48700";"RIEUTORT-DE-RANDON";"Tour hertzienne"; 109.0;"TDF"
515628;3.45222;44.51972;"03° 27' 08.00'' Est, 44° 31' 11.00'' Nord";"48016";"SIGNAL DE FLAGIT";;"48000";"BALSIEGES";"Pylône autostable"; 26.0;"TDF"
515642;3.54083;44.44528;"03° 32' 27.00'' Est, 44° 26' 43.00'' Nord";"48147";;"DELBOUC";"48000";"SAINT-ETIENNE-DU-VALDONNEZ";"Pylône autostable"; 37.0;"TDF"
518651;3.11167;44.84750;"03° 06' 42.00'' Est, 44° 50' 51.00'' Nord";"48007";;"CHABRIER";"48310";"ARZENC-D'APCHER";"Bâtiment"; 5.0;"Particulier"
524621;3.57139;44.32722;"03° 34' 17.00'' Est, 44° 19' 38.00'' Nord";"48061";"LE PRADAL";"PYLONE 2";"48400";"FLORAC";"Pylône autostable"; 10.0;
534098;3.08583;44.75222;"03° 05' 09.00'' Est, 44° 45' 08.00'' Nord";"48031";"PUECH DE BRION";;"48310";"BRION";"Pylône autostable"; 24.0;"Conseil Général"
543782;3.89806;44.22583;"03° 53' 53.00'' Est, 44° 13' 33.00'' Nord";"48173";"ST-MICHEL SIGNAL";"MONTAGNE DE MORTISSOU PYLÔNE TDF";"48160";"SAINT-MICHEL-DE-DEZE";"Pylône autostable"; 20.0;"TDF"
543907;3.31889;44.86583;"03° 19' 08.00'' Est, 44° 51' 57.00'' Nord";"48090";;"VERDEZUN";"48140";"LE MALZIEU-VILLE";"Pylône autostable"; 23.0;"TDF"
545765;3.57167;44.32722;"03° 34' 18.00'' Est, 44° 19' 38.00'' Nord";"48061";"LE PRADAL";;"48400";"FLORAC";"Pylône autostable"; 22.0;"Towercast"
546235;3.19028;44.44944;"03° 11' 25.00'' Est, 44° 26' 58.00'' Nord";"48017";;"LA CAZETTE";"48500";"BANASSAC";"Pylône autostable"; 45.0;"TDF"
546308;3.46417;44.47083;"03° 27' 51.00'' Est, 44° 28' 15.00'' Nord";"48137";;"CHAUMAZELLE";"48000";"SAINT-BAUZILE";"Pylône autostable"; 35.0;"TDF"
549241;3.87167;44.73389;"03° 52' 18.00'' Est, 44° 44' 02.00'' Nord";"48080";"GERMANÈS";;"48300";"LANGOGNE";"Pylône autostable"; 19.0;"Towercast"
553602;3.58000;44.30889;"03° 34' 48.00'' Est, 44° 18' 32.00'' Nord";"48061";;"LA BASTIDE";"48400";"FLORAC";"Pylône haubané"; 30.0;"DDE"
556780;3.29694;44.55333;"03° 17' 49.00'' Est, 44° 33' 12.00'' Nord";"48092";"TRAVERS DE MACARI - LE RANQUET";"CHEM COMMUNAL";"48100";"MARVEJOLS";"Pylône tubulaire"; 14.0;"ORANGE"
557250;3.37250;44.77750;"03° 22' 21.00'' Est, 44° 46' 39.00'' Nord";"48132";"GALIER";"PRÉS D987";"48120";"SAINT-ALBAN-SUR-LIMAGNOLE";"Pylône autostable"; 21.0;"ORANGE"
559741;3.35917;44.48667;"03° 21' 33.00'' Est, 44° 29' 12.00'' Nord";"48056";"TOUTES AURES";;"48230";"ESCLANEDES";"Pylône autostable"; 20.0;"SFR"
559950;3.05972;44.66278;"03° 03' 35.00'' Est, 44° 39' 46.00'' Nord";"48104";"ANTIOLES";"GR 65";"48260";"NASBINALS";"Pylône autostable"; 24.0;"TDF"
559962;3.37278;44.76639;"03° 22' 22.00'' Est, 44° 45' 59.00'' Nord";"48063";;"LE MT HAUT PYLONE TDF";"48700";"FONTANS";"Pylône autostable"; 45.0;"TDF"
559976;3.94667;44.44028;"03° 56' 48.00'' Est, 44° 26' 25.00'' Nord";"48198";;"CHAPELAS ROC";"48800";"VILLEFORT";"Pylône autostable"; 21.0;"TDF"
560106;3.20972;44.42306;"03° 12' 35.00'' Est, 44° 25' 23.00'' Nord";"48034";;"ROQUEPRINCE LA TOMBE DU GÉANT";"48500";"LA CANOURGUE";"Pylône autostable"; 45.0;"TDF"
560122;3.21306;44.47000;"03° 12' 47.00'' Est, 44° 28' 12.00'' Nord";"48034";;"LOUS COURNAS";"48500";"LA CANOURGUE";"Pylône autostable"; 45.0;"TDF"
560134;3.26750;44.79444;"03° 16' 03.00'' Est, 44° 47' 40.00'' Nord";"48140";"LA VIGNE";"PROCHE D989";"48200";"SAINT-CHELY-D'APCHER";"Pylône autostable"; 25.0;"TDF"
560176;3.73639;44.46667;"03° 44' 11.00'' Est, 44° 28' 00.00'' Nord";"48093";;"LIORON";"48190";"MAS-D'ORCIERES";"Pylône autostable"; 42.0;"TDF"
560188;3.07944;44.82944;"03° 04' 46.00'' Est, 44° 49' 46.00'' Nord";"48161";;"LES MAILLOGUES";"48310";"SAINT-JUERY";"Pylône autostable"; 22.0;"TDF"
560249;3.71306;44.80361;"03° 42' 47.00'' Est, 44° 48' 13.00'' Nord";"48084";"LE CAUSSE DE MONTGROS";;"48600";"LAVAL-ATGER";"Pylône autostable"; 45.0;"TDF"
560261;3.82417;44.21889;"03° 49' 27.00'' Est, 44° 13' 08.00'' Nord";"48155";"LES MATTES";;"48370";"SAINT-GERMAIN-DE-CALBERTE";"Pylône autostable"; 43.6;"TDF"
560719;3.34389;44.45917;"03° 20' 38.00'' Est, 44° 27' 33.00'' Nord";"48039";"LES ARTS - SERRE DEL BOUYS";;"48230";"CHANAC";"Pylône autostable"; 23.0;"TDF"
567090;3.50333;44.51972;"03° 30' 12.00'' Est, 44° 31' 11.00'' Nord";"48095";;"8 ALL PIENCOURT CENTRAL TELEPHONIQUE";"48000";"MENDE";"Bâtiment"; 23.0;"ORANGE Services Fixes"
567406;3.49361;44.51028;"03° 29' 37.00'' Est, 44° 30' 37.00'' Nord";"48095";"CROIX DU MONT MIMAT";"ZA ROUTE DE CHABRITS";"48000";"MENDE";"Pylône autostable"; 30.0;"TDF"
569404;3.26333;44.51361;"03° 15' 48.00'' Est, 44° 30' 49.00'' Nord";"48138";;"SUD DE CHIRAC";"48100";"SAINT-BONNET-DE-CHIRAC";"Pylône autostable"; 34.0;"TDF"
576267;3.53306;44.37222;"03° 31' 59.00'' Est, 44° 22' 20.00'' Nord";"48075";"PARKING DES ECOLES";"AUTOCOMMUTATEUR";"48320";"ISPAGNAC";"Bâtiment"; 7.0;"ORANGE Services Fixes"
577039;3.42694;44.16222;"03° 25' 37.00'' Est, 44° 09' 44.00'' Nord";"48096";"MARJOAB";;"48150";"MEYRUEIS";"Pylône tubulaire"; 34.0;"TDF"
581955;3.27694;44.80472;"03° 16' 37.00'' Est, 44° 48' 17.00'' Nord";"48140";;"R DE LA CHICANE CENTRAL TÉLÉPHONIQUE";"48200";"SAINT-CHELY-D'APCHER";"Pylône autostable"; 28.0;"ORANGE Services Fixes"
590741;3.21111;44.19278;"03° 12' 40.00'' Est, 44° 11' 34.00'' Nord";"48131";"ROCHER DE CAPLUC";;"48150";"LE ROZIER";"Pylône autostable"; 18.0;"ORANGE"
599199;3.42222;44.61083;"03° 25' 20.00'' Est, 44° 36' 39.00'' Nord";"48189";"BARAQUE DE LA GRANGE";;"48000";"SERVIERES";"Mât"; 7.0;"ORANGE Services Fixes"
611538;3.49500;44.52167;"03° 29' 42.00'' Est, 44° 31' 18.00'' Nord";"48095";;"7 R MONSEIGNEUR LIGONNES";"48000";"MENDE";"Immeuble"; 20.0;"Particulier"
612296;3.80389;44.27444;"03° 48' 14.00'' Est, 44° 16' 28.00'' Nord";"48178";"LE MAGINOUX";"D984";"48240";"SAINT-PRIVAT-DE-VALLONGUE";"Pylône tubulaire"; 12.0;"ORANGE"
619880;3.27167;44.54056;"03° 16' 18.00'' Est, 44° 32' 26.00'' Nord";"48049";"ROUBY";"PRÈS N.9";"48100";"CHIRAC";"Bâtiment"; 13.0;"Particulier"
622802;3.70806;44.26889;"03° 42' 29.00'' Est, 44° 16' 08.00'' Nord";"48036";"LE MAGISTAVOL";"SOMMET DU MAGISTAVOL";"48400";"CASSAGNAS";"Pylône autostable"; 20.0;"ORANGE"
649354;3.80389;44.27444;"03° 48' 14.00'' Est, 44° 16' 28.00'' Nord";"48178";"LE MAGINOUS";"D 984";"48240";"SAINT-PRIVAT-DE-VALLONGUE";"Mât"; 3.0;"ORANGE"
654264;3.28806;44.71833;"03° 17' 17.00'' Est, 44° 43' 06.00'' Nord";"48009";"LE TRUC DU FABRE";;"48130";"AUMONT-AUBRAC";"Pylône autostable"; 35.0;"SFR"
656774;3.81778;44.71750;"03° 49' 04.00'' Est, 44° 43' 03.00'' Nord";"48080";;"SOMMET DE BONJOUR";"48300";"LANGOGNE";"Château d'eau - réservoir"; 16.0;"Syndicat des eaux, Adduction"
666279;3.47778;44.52833;"03° 28' 40.00'' Est, 44° 31' 42.00'' Nord";"48095";;"14 R DES CARRIÈRES";"48000";"MENDE";"Pylône autostable"; 20.0;"ORANGE"
677814;3.19556;44.41444;"03° 11' 44.00'' Est, 44° 24' 52.00'' Nord";"48181";"LA MARCOUNIÈRE";;"48500";"SAINT-SATURNIN";"Pylône tubulaire"; 12.0;"SFR"
693278;3.12000;44.81389;"03° 07' 12.00'' Est, 44° 48' 50.00'' Nord";"48064";"LA PINÈDE";"PRÈS DU RÉSERVOIR";"48310";"FOURNELS";"Pylône tubulaire"; 18.0;"ORANGE"
693280;3.49194;44.52361;"03° 29' 31.00'' Est, 44° 31' 25.00'' Nord";"48095";;"CITÉ DU DEVEZOU CHEM DE LA SAFRANIÈRE";"48000";"MENDE";"Bâtiment"; 19.0;"Copropriété, Syndic, SCI"
708434;3.89750;44.32278;"03° 53' 51.00'' Est, 44° 19' 22.00'' Nord";"48194";"LA CHABASSE";"COL DE LA BANETTE";"48220";"VIALAS";"Pylône autostable"; 23.0;"TDF"
720999;3.89833;44.22556;"03° 53' 54.00'' Est, 44° 13' 32.00'' Nord";"48173";"CASTEL NAOU";;"48160";"SAINT-MICHEL-DE-DEZE";"Pylône autostable"; 12.0;"SFR"
729835;3.57556;44.34917;"03° 34' 32.00'' Est, 44° 20' 57.00'' Nord";"48061";"ST JULIEN DU GOURG";"N 106 ROUTE DE MENDE";"48400";"FLORAC";"Pylône haubané"; 20.0;"DDE"
730098;3.24917;44.58333;"03° 14' 57.00'' Est, 44° 35' 00.00'' Nord";"48005";"PRAT BESSOU";"LES QUATRES CHEMINS  AIRE D'AUTOUROUTE A75";"48100";"ANTRENAS";"Pylône autostable"; 24.0;"Etat, Ministère"
734695;3.17111;44.32639;"03° 10' 16.00'' Est, 44° 19' 35.00'' Nord";"48125";"PUECH DEL MOULY";"LE TENSONNIEU";"48500";"LE RECOUX";"Pylône autostable"; 20.0;"SFR"
745447;3.87694;44.39333;"03° 52' 37.00'' Est, 44° 23' 36.00'' Nord";"48116";"MAS DE LA BARQUE";;"48220";"LE PONT-DE-MONTVERT";"Pylône tubulaire"; 10.1;"BOUYGUES"
752631;3.14333;44.33667;"03° 08' 36.00'' Est, 44° 20' 12.00'' Nord";"48125";"LA DEVÈZE DU RECOUX";;"48500";"LE RECOUX";"Pylône autostable"; 23.0;"Conseil Général"
753719;3.91611;44.36028;"03° 54' 58.00'' Est, 44° 21' 37.00'' Nord";"48194";;"LES BOUZEDES SERRE FAGEOLLE";"48220";"VIALAS";"Mât"; 10.0;"Etat, Ministère"
770839;3.61556;44.56333;"03° 36' 56.00'' Est, 44° 33' 48.00'' Nord";"48111";"LA RODE";"PRÉS G.R 43";"48000";"PELOUSE";"Pylône autostable"; 30.0;"ORANGE"
771328;3.60778;44.18750;"03° 36' 28.00'' Est, 44° 11' 15.00'' Nord";"48020";"DRAILLE DU MARQUAIRE";;"48400";"BASSURELS";"Pylône autostable"; 18.0;"Conseil Général"
778370;3.45056;44.57889;"03° 27' 02.00'' Est, 44° 34' 44.00'' Nord";"48127";"TRUC DE LA CAILLE";;"48700";"RIEUTORT-DE-RANDON";"Pylône autostable"; 18.0;"EDF GDF"
778434;3.27528;44.31972;"03° 16' 31.00'' Est, 44° 19' 11.00'' Nord";"48154";"LES CAYROUX";;"48500";"SAINT-GEORGES-DE-LEVEJAC";"Pylône autostable"; 21.0;"EDF GDF"
778465;3.29056;44.74000;"03° 17' 26.00'' Est, 44° 44' 24.00'' Nord";"48009";"MOUNNEYRE";"ZAC DU PECHER";"48130";"AUMONT-AUBRAC";"Pylône autostable"; 31.6;"FPS TOWERS"
785223;3.37528;44.95111;"03° 22' 31.00'' Est, 44° 57' 04.00'' Nord";"48110";"LA PÉREIRE";;"48140";"PAULHAC-EN-MARGERIDE";"Pylône autostable"; 25.0;"SFR"
789679;3.88639;44.53083;"03° 53' 11.00'' Est, 44° 31' 51.00'' Nord";"48021";"BARRAGE DE PUYLAURENT";;"48250";"LA BASTIDE-PUYLAURENT";"Bâtiment"; 10.0;"EDF GDF"
792181;3.27750;44.72333;"03° 16' 39.00'' Est, 44° 43' 24.00'' Nord";"48009";"LA JAGUÈNE";;"48130";"AUMONT-AUBRAC";"Pylône tubulaire"; 30.0;"TDF"
792190;3.23944;44.63611;"03° 14' 22.00'' Est, 44° 38' 10.00'' Nord";"48032";"VIADUC DE LA CRUEIZE";"A75/E11";"48100";"LE BUISSON";"Pylône autostable"; 50.0;"DDE"
793032;3.89806;44.22556;"03° 53' 53.00'' Est, 44° 13' 32.00'' Nord";"48170";"MONTAGNE DE MORTISSOU";"GR DE PAYS DU TOUR DU GALEIZON ST-MICHEL SIGNAL";"48160";"SAINT-MARTIN-DE-BOUBAUX";"Pylône autostable"; 18.0;"ORANGE Services Fixes"
793034;3.24944;44.65472;"03° 14' 58.00'' Est, 44° 39' 17.00'' Nord";"48142";"PUECH DE PORTE";"N.9";"48130";"SAINTE-COLOMBE-DE-PEYRE";"Pylône autostable"; 34.0;"FPS TOWERS"
793824;3.51222;44.72667;"03° 30' 44.00'' Est, 44° 43' 36.00'' Nord";"48197";"LES VERSES/LOUS PEDISSES";"CHEM DE MENDE À SAUGUES";"48700";"LA VILLEDIEU";"Pylône autostable"; 35.0;"Conseil Général"
794455;3.65528;44.51083;"03° 39' 19.00'' Est, 44° 30' 39.00'' Nord";"48014";"LES CLAUZELS";"PYLONE TDF";"48190";"BAGNOLS-LES-BAINS";"Mât métallique"; 8.9;"BOUYGUES"
795172;3.37917;44.49472;"03° 22' 45.00'' Est, 44° 29' 41.00'' Nord";"48055";;"VILLARET-BARJAC";"48230";"CULTURES";"Pylône autostable"; 21.0;"FPS TOWERS"
795565;3.93194;44.46278;"03° 55' 55.00'' Est, 44° 27' 46.00'' Nord";"48117";"MORANGIES";;"48800";"POURCHARESSES";"Bâtiment"; 16.0;"EDF GDF"
796126;3.91611;44.36028;"03° 54' 58.00'' Est, 44° 21' 37.00'' Nord";"48194";;"LES BOUZEDES SERRE FAGEOLLE";"48220";"VIALAS";"Bâtiment"; 20.0;"DDE"
798959;3.73417;44.17583;"03° 44' 03.00'' Est, 44° 10' 33.00'' Nord";"48144";"LA COSTE";;"48110";"SAINTE-CROIX-VALLEE-FRANCAISE";"Pylône autostable"; 25.0;"TDF"
799002;3.61000;44.50972;"03° 36' 36.00'' Est, 44° 30' 35.00'' Nord";"48081";"LE MASSEGUIN";"PYLONE TDF";"48000";"LANUEJOLS";"Pylône autostable"; 34.0;"TDF"
799050;3.66806;44.30361;"03° 40' 05.00'' Est, 44° 18' 13.00'' Nord";"48162";"LE BOUGES";;"48400";"SAINT-JULIEN-D'ARPAON";"Pylône autostable"; 17.0;"Conseil Général"
803872;3.98611;44.47972;"03° 59' 10.00'' Est, 44° 28' 47.00'' Nord";"48015";;"CENTRALE HYDROELECTRIQUE";"48800";"PIED-DE-BORNE";"Bâtiment"; 5.0;"EDF GDF"
807606;3.20972;44.60556;"03° 12' 35.00'' Est, 44° 36' 20.00'' Nord";"48165";;"BARAQUE DE BONNAL";"48100";"SAINT-LAURENT-DE-MURET";"Mât béton"; 7.0;"ORANGE Services Fixes"
807618;3.57806;44.24056;"03° 34' 41.00'' Est, 44° 14' 26.00'' Nord";"48193";;"R DE LA BALSINERIE D 907";"48400";"VEBRON";"Mât béton"; 7.0;"ORANGE Services Fixes"
807624;3.65667;44.24278;"03° 39' 24.00'' Est, 44° 14' 34.00'' Nord";"48019";"LE VILLAGE";"SALLE COMMUNALE POLYVALENTE D13";"48400";"BARRE-DES-CEVENNES";"Bâtiment"; 10.0;"Commune, communauté de commune"
808022;3.80861;44.21639;"03° 48' 31.00'' Est, 44° 12' 59.00'' Nord";"48155";"LE SERRE";"AUTOCOMMUTATEUR";"48370";"SAINT-GERMAIN-DE-CALBERTE";"Pylône autostable"; 10.0;"ORANGE Services Fixes"
808378;3.82417;44.25833;"03° 49' 27.00'' Est, 44° 15' 30.00'' Nord";"48136";"CROIX BOUREL";;"48240";"SAINT-ANDRE-DE-LANCIZE";"Pylône autostable"; 18.0;"TDF"
808443;3.59806;44.25833;"03° 35' 53.00'' Est, 44° 15' 30.00'' Nord";"48166";"LE BOUSQUET";"ARRETE DE CABANIS";"48400";"SAINT-LAURENT-DE-TREVES";"Pylône autostable"; 27.0;"TDF"
812304;3.72778;44.36778;"03° 43' 40.00'' Est, 44° 22' 04.00'' Nord";"48066";"ROC DU VIALA";"LE PONT DE MONT VERT 1";"48220";"FRAISSINET-DE-LOZERE";"Pylône autostable"; 33.0;"TDF"
817807;3.15806;44.61028;"03° 09' 29.00'' Est, 44° 36' 37.00'' Nord";"48165";"LE PLÔ";;"48100";"SAINT-LAURENT-DE-MURET";"Mât"; 3.0;"Aviation Civile"
818774;3.87417;44.73778;"03° 52' 27.00'' Est, 44° 44' 16.00'' Nord";"48080";"LES PLANES";"BOIS DE NIRGOULT";"48300";"LANGOGNE";"Pylône autostable"; 26.0;"FPS TOWERS"
823011;3.20944;44.43333;"03° 12' 34.00'' Est, 44° 25' 60.00'' Nord";"48034";"LES CLAUZES";"31 AV DU LOT";"48500";"LA CANOURGUE";"Mât"; 6.0;"ORANGE Services Fixes"
841907;3.20917;44.42306;"03° 12' 33.00'' Est, 44° 25' 23.00'' Nord";"48034";"LA TOMBE DU GÉANT";"LAS FOURQUES";"48500";"LA CANOURGUE";"Pylône autostable"; 21.0;"ORANGE"
852621;3.44917;44.47806;"03° 26' 57.00'' Est, 44° 28' 41.00'' Nord";"48016";"RONC DEL SARTRE";;"48000";"BALSIEGES";"Pylône autostable"; 20.0;"SFR"
857160;3.49917;44.19556;"03° 29' 57.00'' Est, 44° 11' 44.00'' Nord";"48069";"EST DU BOURG";"DÉPARTEMENTALE 996";"48150";"GATUZIERES";"Pylône autostable"; 12.0;"Particulier"
857169;3.58444;44.20667;"03° 35' 04.00'' Est, 44° 12' 24.00'' Nord";"48130";"PRAT NOUVEL";"BUTTE DE PRAT NOUVEL";"48400";"ROUSSES";"Pylône autostable"; 33.0;"TDF"
878615;3.82861;44.17250;"03° 49' 43.00'' Est, 44° 10' 21.00'' Nord";"48148";;"PIÈCE DES PAUVRES";"48330";"SAINT-ETIENNE-VALLEE-FRANCAISE";"Pylône autostable"; 16.0;"TDF"
879279;3.53806;44.44194;"03° 32' 17.00'' Est, 44° 26' 31.00'' Nord";"48147";;"DELBOUC";"48000";"SAINT-ETIENNE-DU-VALDONNEZ";"Pylône autostable"; 37.0;"Particulier"
879308;3.26917;44.79556;"03° 16' 09.00'' Est, 44° 47' 44.00'' Nord";"48140";"LA VIGNE";"PROCHE D989";"48200";"SAINT-CHELY-D'APCHER";"Pylône autostable"; 25.0;"Particulier"
892434;3.20972;44.42306;"03° 12' 35.00'' Est, 44° 25' 23.00'' Nord";"48034";;"ROQUEPRINCE LA FOURQUES";"48500";"LA CANOURGUE";"Pylône haubané"; 22.0;"DDE"
892464;3.98028;44.48111;"03° 58' 49.00'' Est, 44° 28' 52.00'' Nord";"48015";"PLANCHAMP";;"48800";"PIED-DE-BORNE";"Bâtiment"; 5.0;"EDF GDF"
892531;3.92361;44.50722;"03° 55' 25.00'' Est, 44° 30' 26.00'' Nord";"48119";;"BARRAGE LE RASCHAS";"48800";"PREVENCHERES";"Bâtiment"; 10.0;"EDF GDF"
892875;3.96472;44.53722;"03° 57' 53.00'' Est, 44° 32' 14.00'' Nord";"48015";;"ST JEAN DE CHAZORNE ROUJANE BARRAGE DE ROUJANEL";"48800";"PIED-DE-BORNE";"Bâtiment"; 10.0;"EDF GDF"
893604;3.58861;44.33056;"03° 35' 19.00'' Est, 44° 19' 50.00'' Nord";"48061";;"13, AV DU 8 MAI 1945 ERDF";"48400";"FLORAC";"Bâtiment"; 8.0;"EDF GDF"
901011;3.35583;44.68972;"03° 21' 21.00'' Est, 44° 41' 23.00'' Nord";"48076";"MOUTENCHOS";;"48130";"JAVOLS";"Pylône autostable"; 30.0;"Conseil Général"
901049;3.74556;44.60833;"03° 44' 44.00'' Est, 44° 36' 30.00'' Nord";"48045";"LE MARTINET";"PYLONE TELECOM";"48170";"CHAUDEYRAC";"Pylône autostable"; 35.0;"ORANGE Services Fixes"
901164;3.49500;44.51944;"03° 29' 42.00'' Est, 44° 31' 10.00'' Nord";"48095";"R DES CARMES";;"48000";"MENDE";"Bâtiment"; 12.0;"EDF GDF"
901605;3.29194;44.54750;"03° 17' 31.00'' Est, 44° 32' 51.00'' Nord";"48092";"ALLÉE DES SOUPIRS";;"48100";"MARVEJOLS";"Bâtiment"; 8.0;"EDF GDF"
901612;3.85333;44.73778;"03° 51' 12.00'' Est, 44° 44' 16.00'' Nord";"48080";"RTE DU GRANET";"ZI";"48300";"LANGOGNE";"Mât métallique"; 10.0;"EDF GDF"
905047;3.34528;44.62972;"03° 20' 43.00'' Est, 44° 37' 47.00'' Nord";"48124";"LES CAYRES";;"48100";"RECOULES-DE-FUMAS";"Pylône autostable"; 30.0;"Conseil Général"
905583;3.12000;44.81389;"03° 07' 12.00'' Est, 44° 48' 50.00'' Nord";"48064";"LA PINÈDE";"LE CHATEAU D'EAU";"48310";"FOURNELS";"Pylône autostable"; 42.0;"TDF"
910858;3.64444;44.23917;"03° 38' 40.00'' Est, 44° 14' 21.00'' Nord";"48019";;"LA CAN NOIRE";"48400";"BARRE-DES-CEVENNES";"Pylône autostable"; 23.0;"TDF"
913045;3.96472;44.48556;"03° 57' 53.00'' Est, 44° 29' 08.00'' Nord";"48015";"USINE HYDRO DE BEYSSAC";;"48800";"PIED-DE-BORNE";"Bâtiment"; 8.0;"EDF GDF"
913048;3.98806;44.47167;"03° 59' 17.00'' Est, 44° 28' 18.00'' Nord";"48015";"BARRAGE STE MARGURITTE";;"48800";"PIED-DE-BORNE";"Bâtiment"; 5.0;"EDF GDF"
913544;3.30806;44.50222;"03° 18' 29.00'' Est, 44° 30' 08.00'' Nord";"48107";"LA CHAM DE PALHERET";;"48100";"PALHERS";"Pylône autostable"; 22.0;"DDE"
913563;3.63556;44.82167;"03° 38' 08.00'' Est, 44° 49' 18.00'' Nord";"48184";"PHT ANCELPONT LE COURBADOU";;"48600";"SAINT-SYMPHORIEN";"Bâtiment"; 7.0;"EDF GDF"
918364;3.67306;44.54778;"03° 40' 23.00'' Est, 44° 32' 52.00'' Nord";"48003";"LE CHAUSSINEL";;"48190";"ALLENC";"Pylône autostable"; 27.0;"FPS TOWERS"
918515;3.46694;44.57583;"03° 28' 01.00'' Est, 44° 34' 33.00'' Nord";"48042";"ASPRES";"ZA LES CHABRITS SITE DU LOU PAOU";"48000";"CHASTEL-NOUVEL";"Pylône autostable"; 30.0;"TDF"
920984;3.82917;44.56000;"03° 49' 45.00'' Est, 44° 33' 36.00'' Nord";"48040";"PRAT CLAUX";"DECHARGE";"48250";"CHASSERADES";"Pylône autostable"; 27.0;"FPS TOWERS"
922467;3.75556;44.57361;"03° 45' 20.00'' Est, 44° 34' 25.00'' Nord";"48151";"SOGNO MORTO";"LA MONTADE";"48170";"SAINT-FREZAL-D'ALBUGES";"Pylône autostable"; 22.0;"FPS TOWERS"
927590;3.84917;44.72556;"03° 50' 57.00'' Est, 44° 43' 32.00'' Nord";"48080";;"27 R DES LOMBARDS";"48300";"LANGOGNE";"Bâtiment"; 11.0;"EDF GDF"
935140;3.22194;44.61417;"03° 13' 19.00'' Est, 44° 36' 51.00'' Nord";"48165";"REYNALDES";"SOLEYROS RÉSERVOIR CHANTEGRENOUILLE";"48100";"SAINT-LAURENT-DE-MURET";"Pylône autostable"; 27.0;"Conseil Général"
937344;3.72444;44.75000;"03° 43' 28.00'' Est, 44° 45' 00.00'' Nord";"48010";"MALMONT";"CHEM FORESTIER";"48600";"AUROUX";"Pylône autostable"; 45.0;"TDF"
938249;3.32222;44.60194;"03° 19' 20.00'' Est, 44° 36' 07.00'' Nord";"48168";"LOU TRUC";;"48100";"SAINT-LEGER-DE-PEYRE";"Pylône autostable"; 35.0;"Conseil Général"
938271;3.33056;44.54389;"03° 19' 50.00'' Est, 44° 32' 38.00'' Nord";"48103";;"PEJAS";"48100";"MONTRODAT";"Mât métallique"; 17.0;"TDF"
951707;3.65861;44.85222;"03° 39' 31.00'' Est, 44° 51' 08.00'' Nord";"48038";"LE SERRE";;"48600";"CHAMBON-LE-CHATEAU";"Pylône autostable"; 10.0;"Commune, communauté de commune"
952405;3.35556;44.75861;"03° 21' 20.00'' Est, 44° 45' 31.00'' Nord";"48063";;"LA BARAQUE DES BOUVIERS";"48700";"FONTANS";"Bâtiment"; 5.0;"Société Privée SA"
956746;3.85500;44.22000;"03° 51' 18.00'' Est, 44° 13' 12.00'' Nord";"48155";;"PRENTIGARDE";"48370";"SAINT-GERMAIN-DE-CALBERTE";"Pylône autostable"; 23.0;"TDF"
959288;3.75194;44.17194;"03° 45' 07.00'' Est, 44° 10' 19.00'' Nord";"48144";;"LA LIEURE D 40";"48110";"SAINTE-CROIX-VALLEE-FRANCAISE";"Pylône autostable"; 22.0;"TDF"
965783;3.31889;44.86583;"03° 19' 08.00'' Est, 44° 51' 57.00'' Nord";"48090";"VERDEZUN";;"48140";"LE MALZIEU-VILLE";"Pylône autostable"; 35.0;"Conseil Général"
965803;3.71250;44.34556;"03° 42' 45.00'' Est, 44° 20' 44.00'' Nord";"48116";;"PEYRE PLANTADO LA PIERRE PLANTÉE";"48220";"LE PONT-DE-MONTVERT";"Pylône autostable"; 15.0;"Conseil Général"
966560;3.31500;44.84306;"03° 18' 54.00'' Est, 44° 50' 35.00'' Nord";"48177";"TRUC DE MURAT";;"48200";"SAINT-PIERRE-LE-VIEUX";"Pylône autostable"; 45.0;"Conseil Général"
975663;3.37167;44.53167;"03° 22' 18.00'' Est, 44° 31' 54.00'' Nord";"48068";"LE CALVAIRE";;"48100";"GABRIAS";"Mât béton"; 9.0;"Commune, communauté de commune"
975665;3.51861;44.76333;"03° 31' 07.00'' Est, 44° 45' 48.00'' Nord";"48145";"LA BARAQUE DES BOUVIERS";;"48700";"SAINT-DENIS-EN-MARGERIDE";"Pylône haubané"; 10.0;"Société Privée SA"
994440;3.17167;44.52944;"03° 10' 18.00'' Est, 44° 31' 46.00'' Nord";"48187";"LES CLAPASSES";"TABLE D'ORIENTATION LE RADAL DE TREBATUT";"48100";"LES SALCES";"Pylône autostable"; 22.0;"FPS TOWERS"
994452;3.94278;44.41861;"03° 56' 34.00'' Est, 44° 25' 07.00'' Nord";"48135";"LOUS JOUVÈS";"LA FABRIQUE";"48800";"SAINT-ANDRE-CAPCEZE";"Pylône autostable"; 22.0;"BOUYGUES"
1023010;3.89972;44.51250;"03° 53' 59.00'' Est, 44° 30' 45.00'' Nord";"48119";"COMBET VIEL";"PYLONE TDF LE CAUSSE";"48800";"PREVENCHERES";"Pylône autostable"; 25.0;"TDF"
1024148;3.89806;44.22556;"03° 53' 53.00'' Est, 44° 13' 32.00'' Nord";"48173";"MONTAGNE DE MORTISSOU";"SAINT-MICHEL SIGNAL";"48160";"SAINT-MICHEL-DE-DEZE";"Pylône haubané"; 33.0;"Société Privée SA"
1024825;3.80778;44.64917;"03° 48' 28.00'' Est, 44° 38' 57.00'' Nord";"48048";"LOU TRAVERS";;"48300";"CHEYLARD-L'EVEQUE";"Pylône autostable"; 15.0;"TDF"
1024874;3.79583;44.47639;"03° 47' 45.00'' Est, 44° 28' 35.00'' Nord";"48053";"CAUSSE DE LA VOLTE";;"48190";"CUBIERES";"Pylône autostable"; 42.0;"TDF"
1028220;3.26806;44.79472;"03° 16' 05.00'' Est, 44° 47' 41.00'' Nord";"48140";"LA VIGNE";;"48200";"SAINT-CHELY-D'APCHER";"Pylône autostable"; 30.0;"Commune, communauté de commune"
1029411;3.85806;44.46361;"03° 51' 29.00'' Est, 44° 27' 49.00'' Nord";"48004";"LA MURE";;"48800";"ALTIER";"Bâtiment"; 7.0;"TDF"
1037506;3.43944;44.23639;"03° 26' 22.00'' Est, 44° 14' 11.00'' Nord";"48074";"CAZENEUVE";;"48150";"HURES-LA-PARADE";"Bâtiment"; 7.0;"Particulier"
1037508;3.22722;44.28417;"03° 13' 38.00'' Est, 44° 17' 03.00'' Nord";"48195";"DOLAN";"CHEMIN COMMUNAL N° 4";"48210";"LES VIGNES";"Mât"; 6.0;"ORANGE Services Fixes"
1044754;3.46778;44.57611;"03° 28' 04.00'' Est, 44° 34' 34.00'' Nord";"48042";"MONT D'ASPRES";;"48000";"CHASTEL-NOUVEL";"Pylône autostable"; 35.0;"Towercast"
1047626;3.45222;44.52000;"03° 27' 08.00'' Est, 44° 31' 12.00'' Nord";"48016";"SIGNAL DE FLAGIT";;"48000";"BALSIEGES";"Pylône autostable"; 36.0;"TDF"
1059867;3.55167;44.52250;"03° 33' 06.00'' Est, 44° 31' 21.00'' Nord";"48013";"LOU CHAOUROUSSE";"PYLONE DDE";"48000";"BADAROUX";"Pylône autostable"; 36.0;"DDE"
1059869;3.55083;44.52250;"03° 33' 03.00'' Est, 44° 31' 21.00'' Nord";"48013";"LOU CHAOUROUSSE";;"48000";"BADAROUX";"Pylône autostable"; 32.0;"TDF"
1083378;3.98111;44.48056;"03° 58' 52.00'' Est, 44° 28' 50.00'' Nord";"48015";"LE VERNET";;"48800";"PIED-DE-BORNE";"Pylône autostable"; 18.0;"Conseil Général"
1087478;3.21833;44.42500;"03° 13' 06.00'' Est, 44° 25' 30.00'' Nord";"48034";;"CHEMIN DE LA BASTIDE ZA DE LA BASTIDE";"48500";"LA CANOURGUE";"Pylône tubulaire"; 12.0;"Conseil Général"
1087950;3.28111;44.56861;"03° 16' 52.00'' Est, 44° 34' 07.00'' Nord";"48092";;"ZA SAINTE-CATHERINE";"48100";"MARVEJOLS";"Pylône tubulaire"; 12.0;"Conseil Général"
1087995;3.49778;44.53389;"03° 29' 52.00'' Est, 44° 32' 02.00'' Nord";"48095";;"ZA CAUSSE D'AUGE";"48000";"MENDE";"Pylône tubulaire"; 12.0;"Conseil Général"
1088256;3.28389;44.81167;"03° 17' 02.00'' Est, 44° 48' 42.00'' Nord";"48140";;"ZA DU MALZIEU";"48200";"SAINT-CHELY-D'APCHER";"Pylône tubulaire"; 12.0;"Conseil Général"
1088355;3.71611;44.25972;"03° 42' 58.00'' Est, 44° 15' 35.00'' Nord";"48019";"LE CRÉMADET";;"48400";"BARRE-DES-CEVENNES";"Bâtiment"; 8.0;"Particulier"
1088357;3.88472;44.53444;"03° 53' 05.00'' Est, 44° 32' 04.00'' Nord";"48021";"PUYLAURENT";"LA SAGNE VOIE COMMUNALE";"48250";"LA BASTIDE-PUYLAURENT";"Mât béton"; 8.0;"ORANGE Services Fixes"
1088597;3.15472;44.74583;"03° 09' 17.00'' Est, 44° 44' 45.00'' Nord";"48058";"PUY DE MONTIVERNOUX";"PYLÔNE DDE";"48310";"LA FAGE-MONTIVERNOUX";"Pylône autostable"; 21.0;"DDE"
1093841;3.68778;44.38556;"03° 41' 16.00'' Est, 44° 23' 08.00'' Nord";"48066";"LES CLAUSES";;"48220";"FRAISSINET-DE-LOZERE";"Mât"; 2.0;"Particulier"
1093847;3.42944;44.20333;"03° 25' 46.00'' Est, 44° 12' 12.00'' Nord";"48096";"LA CITERNE";;"48150";"MEYRUEIS";"Bâtiment"; 8.0;"Particulier"
1186069;3.44750;44.28278;"03° 26' 51.00'' Est, 44° 16' 58.00'' Nord";"48141";"LE FRAISSE";;"48210";"MAS-SAINT-CHELY";"Bâtiment"; 10.0;"Particulier"
1186071;3.43194;44.20500;"03° 25' 55.00'' Est, 44° 12' 18.00'' Nord";"48096";"LA CITERNE2";"FERME ÉQUESTRE";"48150";"MEYRUEIS";"Bâtiment"; 7.0;"Particulier"
1198000;3.94222;44.57000;"03° 56' 32.00'' Est, 44° 34' 12.00'' Nord";"48119";"LA SAGNE";"ROUTE DÉPARTEMENTALE 151";"48800";"PREVENCHERES";"Pylône tubulaire"; 9.1;"TDF"
1201091;3.74750;44.44500;"03° 44' 51.00'' Est, 44° 26' 42.00'' Nord";"48093";"MONTLOZERE";"RESERVOIR PRÈS D20";"48190";"MAS-D'ORCIERES";"Pylône autostable"; 21.0;"DDE"
1211828;3.40167;44.37139;"03° 24' 06.00'' Est, 44° 22' 17.00'' Nord";"48146";"DIGNAS";"STATION TDF LOU PUECH";"48210";"SAINTE-ENIMIE";"Pylône autostable"; 22.0;"TDF"
1213470;3.82389;44.21944;"03° 49' 26.00'' Est, 44° 13' 10.00'' Nord";"48155";"LES MATTES";"SITE ITAS TIM";"48370";"SAINT-GERMAIN-DE-CALBERTE";"Pylône autostable"; 48.0;"Itas Tim"
1254693;3.66472;44.50694;"03° 39' 53.00'' Est, 44° 30' 25.00'' Nord";"48014";;"3 RTE DE LA BESSIERE RIVE DROITE DU LOT";"48190";"BAGNOLS-LES-BAINS";"Mât"; 6.0;"Etat, Ministère"
1254697;3.57861;44.23833;"03° 34' 43.00'' Est, 44° 14' 18.00'' Nord";"48193";;"RIVE GAUCHE DU TARNON RD 907";"48400";"VEBRON";"Bâtiment"; 20.0;"Etat, Ministère"
1254699;3.73111;44.27083;"03° 43' 52.00'' Est, 44° 16' 15.00'' Nord";"48036";;"PASSERELLE METAL CD 62 RIVE DROITE DE LA MIMENTE";"48400";"CASSAGNAS";"Mât"; 9.0;"Etat, Ministère"
1254709;3.49500;44.52083;"03° 29' 42.00'' Est, 44° 31' 15.00'' Nord";"48095";;"RUE DU FAUBOURG MONTBEL PT DE LA PLANCHE RG DU LOT";"48000";"MENDE";"Mât béton"; 12.0;"Etat, Ministère"
1262041;3.45194;44.51972;"03° 27' 07.00'' Est, 44° 31' 11.00'' Nord";"48016";"SIGNAL DE FLAGIT";;"48000";"BALSIEGES";"Bâtiment"; 8.0;"TDF"
1273977;3.59056;44.33111;"03° 35' 26.00'' Est, 44° 19' 52.00'' Nord";"48061";;"QUARTIER DE LA BECEDE RIVE GAUCHE DU TARNON";"48400";"FLORAC";"Local technique"; 5.0;"Etat, Ministère"
1273979;3.43028;44.17944;"03° 25' 49.00'' Est, 44° 10' 46.00'' Nord";"48096";;"1 AV EDOUARD ALFRED MARTEL PONT RIVE DROITE LA JONTE";"48150";"MEYRUEIS";"Bâtiment"; 13.0;"Etat, Ministère"
1273981;3.62083;44.34639;"03° 37' 15.00'' Est, 44° 20' 47.00'' Nord";"48050";;"LE TRUC CHEM COTE DE LA SCIERIE RIVE DROITE DU TARN";"48400";"COCURES";"Mât"; 10.0;"Etat, Ministère"
1273983;3.49583;44.33306;"03° 29' 45.00'' Est, 44° 19' 59.00'' Nord";"48122";;"PONT METALLIQUE DE MONTBRUN RD 6 RIVE DROITE DU TARN";"48320";"QUEZAC";"Mât"; 10.0;"Etat, Ministère"
1274119;3.92667;44.46139;"03° 55' 36.00'' Est, 44° 27' 41.00'' Nord";"48117";"LE LAC CARAVANING";"LE LAC";"48800";"POURCHARESSES";"Bâtiment"; 10.0;"EDF GDF"
1274130;3.88750;44.53000;"03° 53' 15.00'' Est, 44° 31' 48.00'' Nord";"48119";"BARRAGE DU PUYLAURENT";;"48800";"PREVENCHERES";"Mât"; 4.0;"EDF GDF"
1282304;3.88250;44.35667;"03° 52' 57.00'' Est, 44° 21' 24.00'' Nord";"48194";"GOURDOUSE";;"48220";"VIALAS";"Bâtiment"; 7.0;"Particulier"
1302805;3.26306;44.51278;"03° 15' 47.00'' Est, 44° 30' 46.00'' Nord";"48138";"LES BORIES";;"48100";"SAINT-BONNET-DE-CHIRAC";"Pylône autostable"; 20.0;"SFR"
1304880;3.98611;44.47972;"03° 59' 10.00'' Est, 44° 28' 47.00'' Nord";"48015";"USINE PIED DE BORNE";"CENTRALE HYDROÉLECTRIQUE";"48800";"PIED-DE-BORNE";"Bâtiment"; 5.0;"EDF GDF"
1342549;3.94611;44.44139;"03° 56' 46.00'' Est, 44° 26' 29.00'' Nord";"48198";"CHAPELAS";;"48800";"VILLEFORT";"Pylône tubulaire"; 12.0;"Titulaire programme Radio/TV"
1374954;3.31500;44.53444;"03° 18' 54.00'' Est, 44° 32' 04.00'' Nord";"48107";"TRUC DU MIDI";;"48100";"PALHERS";"Pylône autostable"; 37.0;"Towercast"
1407750;3.34389;44.45889;"03° 20' 38.00'' Est, 44° 27' 32.00'' Nord";"48039";"LES ARTS";"SITE ITAS TIM";"48230";"CHANAC";"Pylône autostable"; 31.0;"Itas Tim"
1408871;3.07972;44.82972;"03° 04' 47.00'' Est, 44° 49' 47.00'' Nord";"48161";"LES MAILLOGUES";"SITE ITAS TIM";"48310";"SAINT-JUERY";"Pylône autostable"; 25.0;"Itas Tim"
1409836;3.54111;44.35833;"03° 32' 28.00'' Est, 44° 21' 30.00'' Nord";"48122";"LE SINGLE";"SITE ITAS TIM";"48320";"QUEZAC";"Pylône autostable"; 48.0;"Itas Tim"
1410147;3.21333;44.46972;"03° 12' 48.00'' Est, 44° 28' 11.00'' Nord";"48034";"LOUS COURNAS";;"48500";"LA CANOURGUE";"Pylône autostable"; 49.0;"Itas Tim"
1410174;3.71278;44.80306;"03° 42' 46.00'' Est, 44° 48' 11.00'' Nord";"48084";"LE CAUSSE DE MONTGROS";"SITE ITAS TIM";"48600";"LAVAL-ATGER";"Pylône autostable"; 48.0;"Itas Tim"
1411526;3.26806;44.79500;"03° 16' 05.00'' Est, 44° 47' 42.00'' Nord";"48140";"LA VIGNE";"SITE ITAS TIM";"48200";"SAINT-CHELY-D'APCHER";"Pylône autostable"; 30.0;"Itas Tim"
1411530;3.37278;44.76611;"03° 22' 22.00'' Est, 44° 45' 58.00'' Nord";"48063";"LE MONT HAUT";"SITE ITAS TIM";"48700";"FONTANS";"Pylône autostable"; 48.0;"Itas Tim"
1411560;3.33056;44.54389;"03° 19' 50.00'' Est, 44° 32' 38.00'' Nord";"48103";"PÉJAS";"SITE ITAS TIM";"48100";"MONTRODAT";"Pylône autostable"; 18.0;"Itas Tim"
1414955;3.28444;44.81389;"03° 17' 04.00'' Est, 44° 48' 50.00'' Nord";"48140";;"LES FAISSES";"48200";"SAINT-CHELY-D'APCHER";"Pylône autostable"; 30.0;"TDF"
1415911;3.61028;44.50972;"03° 36' 37.00'' Est, 44° 30' 35.00'' Nord";"48081";"CAUSSE DU MASSEGUIN";"SITE ITAS TIM";"48000";"LANUEJOLS";"Pylône autostable"; 37.0;"Itas Tim"
1416485;3.75194;44.17194;"03° 45' 07.00'' Est, 44° 10' 19.00'' Nord";"48144";;"LA LIEURE D 40";"48110";"SAINTE-CROIX-VALLEE-FRANCAISE";"Pylône autostable"; 22.0;"Itas Tim"
1434476;3.42000;44.33583;"03° 25' 12.00'' Est, 44° 20' 09.00'' Nord";"48141";"PUECH D'ALLUECH";"CHAMBLON";"48210";"MAS-SAINT-CHELY";"Pylône autostable"; 20.0;"DDE"
1434906;3.47778;44.18500;"03° 28' 40.00'' Est, 44° 11' 06.00'' Nord";"48069";"PUECH POUNCHUT";"LE CROUZET";"48150";"GATUZIERES";"Mât"; 15.0;"Etat, Ministère"
1469029;3.47528;44.52833;"03° 28' 31.00'' Est, 44° 31' 42.00'' Nord";"48095";;"ROUTE DE CHABRITS RUE DE LA GARENNE BASE DIRMC";"48000";"MENDE";"Pylône haubané"; 21.0;"Etat, Ministère"
1469031;3.47639;44.52889;"03° 28' 35.00'' Est, 44° 31' 44.00'' Nord";"48095";;"ROUTE DE CHABRITS SERVICE MOYENS SUPPORTS BASE CONSEIL GENERAL";"48000";"MENDE";"Bâtiment"; 8.5;"Conseil Général"
1469563;3.72500;44.31750;"03° 43' 30.00'' Est, 44° 19' 03.00'' Nord";"48116";"SIGNAL DE BOUGES";;"48220";"LE PONT-DE-MONTVERT";"Pylône autostable"; 16.0;"Etat, Ministère"
1475025;3.28194;44.72028;"03° 16' 55.00'' Est, 44° 43' 13.00'' Nord";"48009";;"28 ROUTE  D'AUBRAC PONTS DE CHAUSSÉ";"48130";"AUMONT-AUBRAC";"Bâtiment"; 15.0;"Conseil Régional"
1475042;3.22250;44.42667;"03° 13' 21.00'' Est, 44° 25' 36.00'' Nord";"48034";"TREMOULIS";"UNITÉ TECHNIQUE";"48500";"LA CANOURGUE";"Bâtiment"; 10.0;"Conseil Général"
1475081;3.29556;44.55611;"03° 17' 44.00'' Est, 44° 33' 22.00'' Nord";"48092";;"RUE DU STADE CENTRE  TECHNIQUE";"48100";"MARVEJOLS";"Pylône autostable"; 15.0;"Conseil Général"
1475204;3.75833;44.36000;"03° 45' 30.00'' Est, 44° 21' 36.00'' Nord";"48116";;"ROUTE DE VIALAS FOUON CHALDETTO CENTRE  TECHNIQUE";"48220";"LE PONT-DE-MONTVERT";"Bâtiment"; 10.0;"Conseil Général"
1475208;3.17194;44.40833;"03° 10' 19.00'' Est, 44° 24' 30.00'' Nord";"48017";"PUECH DE CRICOU";"MAS REQUIRAN";"48500";"BANASSAC";"Pylône autostable"; 45.0;"Etat, Ministère"
1475904;3.92500;44.44111;"03° 55' 30.00'' Est, 44° 26' 28.00'' Nord";"48198";;"RUE DU PRÉ DE LA FOIRE  UNITE ET CENTRE TECHNIQUE  CG";"48800";"VILLEFORT";"Pylône autostable"; 25.0;"Conseil Général"
1475967;3.58139;44.34333;"03° 34' 53.00'' Est, 44° 20' 36.00'' Nord";"48061";;"IMPASSE DE LA MIMENTE UNITE ET CENTRE TECHNIQUE CG ZONE ARTISANALE";"48400";"FLORAC";"Pylône autostable"; 20.0;"Conseil Général"
1476008;3.05083;44.66222;"03° 03' 03.00'' Est, 44° 39' 44.00'' Nord";"48104";;"ROUTE D'AUMONT CENTRE TECHNIQUE";"48260";"NASBINALS";"Bâtiment"; 15.0;"Conseil Général"
1476352;3.65111;44.81667;"03° 39' 04.00'' Est, 44° 49' 00.00'' Nord";"48184";"LES QUATRE ESTRADES";"CHAMS";"48600";"SAINT-SYMPHORIEN";"Pylône autostable"; 35.0;"Conseil Général"
1476359;3.33583;44.85639;"03° 20' 09.00'' Est, 44° 51' 23.00'' Nord";"48090";;"AVENUE JACQUES DE FELIGONDE CT ROUTE DE ST ALBAN";"48140";"LE MALZIEU-VILLE";"Bâtiment"; 20.0;"Conseil Général"
1476382;3.28361;44.80806;"03° 17' 01.00'' Est, 44° 48' 29.00'' Nord";"48140";;"AVENUE DU MALZIEU                  CENTRE TECHNIQUE";"48200";"SAINT-CHELY-D'APCHER";"Bâtiment"; 7.0;"Conseil Régional"
1476475;3.89806;44.22528;"03° 53' 53.00'' Est, 44° 13' 31.00'' Nord";"48170";"ST MICHEL SIGNAL";;"48160";"SAINT-MARTIN-DE-BOUBAUX";"Pylône autostable"; 20.0;"Etat, Ministère"
1476533;3.73972;44.49083;"03° 44' 23.00'' Est, 44° 29' 27.00'' Nord";"48027";;"ROUTE DU GOULET ZONE ARTISANALE D20";"48190";"LE BLEYMARD";"Bâtiment"; 15.0;"Conseil Général"
1477276;3.28972;44.81111;"03° 17' 23.00'' Est, 44° 48' 40.00'' Nord";"48140";;"ZONE ARTISANALES LES COMBELLES CEI A75 D989";"48200";"SAINT-CHELY-D'APCHER";"Bâtiment"; 22.0;"Etat, Ministère"
1479207;3.25556;44.54972;"03° 15' 20.00'' Est, 44° 32' 59.00'' Nord";"48049";"LA CROIX DES ANGLAIS";;"48100";"CHIRAC";"Pylône haubané"; 22.0;"Etat, Ministère"
1479618;3.90361;44.58750;"03° 54' 13.00'' Est, 44° 35' 15.00'' Nord";"48021";;"AVENUE DE LA NARCE CT";"48250";"LA BASTIDE-PUYLAURENT";"Pylône autostable"; 15.0;"Conseil Général"
1480602;3.98139;44.48111;"03° 58' 53.00'' Est, 44° 28' 52.00'' Nord";"48015";"VANNE DE TETE DE PIED DE BORNE";"PLANCHAMP";"48800";"PIED-DE-BORNE";"Bâtiment"; 7.0;"EDF GDF"
1480622;3.41278;44.36389;"03° 24' 46.00'' Est, 44° 21' 50.00'' Nord";"48146";;"ROUTE DE MEYRUEIS UT /CT";"48210";"SAINTE-ENIMIE";"Bâtiment"; 15.0;"Conseil Général"
1480624;3.44167;44.19361;"03° 26' 30.00'' Est, 44° 11' 37.00'' Nord";"48096";"LA MAGNANERIE";"CT ROUTE  DE FLORAC";"48150";"MEYRUEIS";"Bâtiment"; 10.0;"Conseil Général"
1480658;3.48583;44.63444;"03° 29' 09.00'' Est, 44° 38' 04.00'' Nord";"48127";;"ROUTE  DE CHARPAL CT CD 59";"48700";"RIEUTORT-DE-RANDON";"Bâtiment"; 15.0;"Conseil Général"
1480675;3.38167;44.77806;"03° 22' 54.00'' Est, 44° 46' 41.00'' Nord";"48132";;"ROUTE  DE SAINT CHELY CT";"48120";"SAINT-ALBAN-SUR-LIMAGNOLE";"Bâtiment"; 7.0;"Conseil Général"
1480681;3.12306;44.81167;"03° 07' 23.00'' Est, 44° 48' 42.00'' Nord";"48064";"LA VACHERIE";"ROUTE DE FAGE MONTIVERNOUX CT";"48310";"FOURNELS";"Bâtiment"; 15.0;"Conseil Général"
1481738;3.32583;44.80083;"03° 19' 33.00'' Est, 44° 48' 03.00'' Nord";"48140";"ESPOUZOLLES";"COMBEYRA";"48200";"SAINT-CHELY-D'APCHER";"Pylône autostable"; 20.0;"Conseil Général"
1481977;3.90722;44.25056;"03° 54' 26.00'' Est, 44° 15' 02.00'' Nord";"48051";"LE SAUNIER";"RN 106 U TECHNIQUE";"48160";"LE COLLET-DE-DEZE";"Bâtiment"; 10.0;"Conseil Général"
1481982;3.33389;44.47528;"03° 20' 02.00'' Est, 44° 28' 31.00'' Nord";"48039";"LA PLAINE";"ZONE ARTISANALE CENTRE  TECHNIQUE";"48230";"CHANAC";"Bâtiment"; 10.0;"Conseil Général"
1481992;3.73611;44.18528;"03° 44' 10.00'' Est, 44° 11' 07.00'' Nord";"48144";"LA BRUGUIÈRE";"D983 CENTRE  TECHNIQUE";"48110";"SAINTE-CROIX-VALLEE-FRANCAISE";"Bâtiment"; 10.0;"Conseil Général"
1481996;3.19306;44.43278;"03° 11' 35.00'' Est, 44° 25' 58.00'' Nord";"48017";"LA CANOURGUE";"CENTRE  TECHNIQUE";"48500";"BANASSAC";"Bâtiment"; 15.0;"Conseil Général"
1482002;3.17611;44.31167;"03° 10' 34.00'' Est, 44° 18' 42.00'' Nord";"48094";;"QUARTIER DE LA MARNE HAUTE CENTRE  TECHNIQUE";"48500";"LE MASSEGROS";"Mât métallique"; 5.0;"Conseil Général"
1482007;3.63250;44.78778;"03° 37' 57.00'' Est, 44° 47' 16.00'' Nord";"48070";;"ROUTE DE LAVAL CENTRE  TECHNIQUE";"48600";"GRANDRIEU";"Bâtiment"; 15.0;"Conseil Général"
1483139;3.87306;44.50778;"03° 52' 23.00'' Est, 44° 30' 28.00'' Nord";"48119";"MONT DAUNIS";;"48800";"PREVENCHERES";"Pylône autostable"; 21.0;"Conseil Régional"
1486952;3.88667;44.53000;"03° 53' 12.00'' Est, 44° 31' 48.00'' Nord";"48021";"PARC NATIONAL DES CÉVENNES";"COURONNEMENT BARRAGE PUYLAURENT";"48250";"LA BASTIDE-PUYLAURENT";"Bâtiment"; 3.0;"EDF GDF"
1518276;3.54444;44.65694;"03° 32' 40.00'' Est, 44° 39' 25.00'' Nord";"48057";"ESTABLES";"ESTABLES";"48700";"ESTABLES";"Pylône haubané"; 40.0;"EDF GDF"
1518390;3.40917;44.64722;"03° 24' 33.00'' Est, 44° 38' 50.00'' Nord";"48126";"EDF  LAC GAVINET";"RIBENNES LAC DU GAVINET";"48700";"RIBENNES";"Pylône tubulaire"; 8.0;"EDF GDF"
1518412;3.38361;44.70389;"03° 23' 01.00'' Est, 44° 42' 14.00'' Nord";"48188";;"TDF SERVERETTE";"48700";"SERVERETTE";"Pylône haubané"; 34.0;"TDF"
1518432;3.23639;44.64306;"03° 14' 11.00'' Est, 44° 38' 35.00'' Nord";"48032";"EDF LAC DU MOULINET";"LE BUISSON, LAC DU MOULINET";"48100";"LE BUISSON";"Bâtiment"; 6.0;"EDF GDF"
1518436;3.38556;44.70750;"03° 23' 08.00'' Est, 44° 42' 27.00'' Nord";"48188";;"RUE DE LA MOULINETTE EDF STATION MESURE";"48700";"SERVERETTE";"Bâtiment"; 3.0;"EDF GDF"
1527132;3.64083;44.20306;"03° 38' 27.00'' Est, 44° 12' 11.00'' Nord";"48115";"LE FROMENTAL";"COUGOULET";"48110";"LE POMPIDOU";"Pylône autostable"; 20.0;"TDF"
1549128;3.57278;44.79361;"03° 34' 22.00'' Est, 44° 47' 37.00'' Nord";"48174";"LE CALVAIRE";"CHEM CHON DU PASTURAL";"48600";"SAINT-PAUL-LE-FROID";"Pylône autostable"; 24.0;"ORANGE"
1564169;3.64167;44.65944;"03° 38' 30.00'' Est, 44° 39' 34.00'' Nord";"48008";"COURNADELLE";"LES CARTALADES CHEMIN RURAL";"48170";"ARZENC-DE-RANDON";"Pylône autostable"; 15.0;"Conseil Général"
1571182;3.81444;44.31194;"03° 48' 52.00'' Est, 44° 18' 43.00'' Nord";"48178";"SIGNAL DE VENTALON- LOU PRADET";;"48240";"SAINT-PRIVAT-DE-VALLONGUE";"Pylône autostable"; 20.5;"Conseil Général"
