Numéro du support;Longitude;Latitude;"Position";"Insee";"Lieu dit";"Adresse";"Code postal";"Commune";"Nature du support";Hauteur en m;"Propriétaire"
11980;3.29056;44.55694;"03° 17' 26.00'' Est, 44° 33' 25.00'' Nord";"48092";;"11 T AV THEOPHILE ROUSSEL";"48100";"MARVEJOLS";"Pylône autostable"; 25.0;"ORANGE Services Fixes"
11984;3.77444;44.14667;"03° 46' 28.00'' Est, 44° 08' 48.00'' Nord";"48097";;"ST ROMAIN DE TOUSQUE";"48110";"MOISSAC-VALLEE-FRANCAISE";"Pylône autostable"; 20.0;"ORANGE Services Fixes"
11986;3.85472;44.74444;"03° 51' 17.00'' Est, 44° 44' 40.00'' Nord";"48080";"LIGNOLAS";;"48300";"LANGOGNE";"Pylône autostable"; 16.0;"ORANGE Services Fixes"
11988;3.64306;44.78139;"03° 38' 35.00'' Est, 44° 46' 53.00'' Nord";"48070";;"LOU CHAUMAS";"48600";"GRANDRIEU";"Pylône autostable"; 30.0;"ORANGE Services Fixes"
11994;3.45389;44.66167;"03° 27' 14.00'' Est, 44° 39' 42.00'' Nord";"48127";;"RTE D'ESTABLES";"48700";"RIEUTORT-DE-RANDON";"Pylône autostable"; 12.0;"ORANGE Services Fixes"
12000;3.17139;44.32694;"03° 10' 17.00'' Est, 44° 19' 37.00'' Nord";"48094";"LE TENSIONNIEU";;"48500";"LE MASSEGROS";"Pylône autostable"; 12.0;"ORANGE Services Fixes"
12002;3.17167;44.30667;"03° 10' 18.00'' Est, 44° 18' 24.00'' Nord";"48094";;"LOT PUECH DE LAS COMBES";"48500";"LE MASSEGROS";"Bâtiment"; 6.0;"ORANGE Services Fixes"
12006;3.41361;44.36306;"03° 24' 49.00'' Est, 44° 21' 47.00'' Nord";"48146";;"LOU VIALA D 986";"48210";"SAINTE-ENIMIE";"Bâtiment"; 6.0;"ORANGE Services Fixes"
12008;3.63139;44.78222;"03° 37' 53.00'' Est, 44° 46' 56.00'' Nord";"48070";"BEAUSÉJOUR";"RUE DU COUVENT AUTOCOMMUTATEUR";"48600";"GRANDRIEU";"Pylône tubulaire"; 10.0;"ORANGE Services Fixes"
12010;3.21111;44.19250;"03° 12' 40.00'' Est, 44° 11' 33.00'' Nord";"48131";"CAPLUC";;"48150";"LE ROZIER";"Pylône autostable"; 6.0;"ORANGE Services Fixes"
12018;3.74000;44.49472;"03° 44' 24.00'' Est, 44° 29' 41.00'' Nord";"48027";;"RTE DE GOULET";"48190";"LE BLEYMARD";"Bâtiment"; 6.0;"ORANGE Services Fixes"
56588;3.19361;44.68861;"03° 11' 37.00'' Est, 44° 41' 19.00'' Nord";"48087";"SOULEYROLS";;"48100";"MALBOUZON";"Pylône autostable"; 15.0;"Titulaire programme Radio/TV"
60619;3.49361;44.51028;"03° 29' 37.00'' Est, 44° 30' 37.00'' Nord";"48095";"MONT MIMAT";"RLP EAUX VIVES LOZERE - MENDE";"48000";"MENDE";"Mât béton"; 17.0;"Titulaire programme Radio/TV"
60625;3.22222;44.61361;"03° 13' 20.00'' Est, 44° 36' 49.00'' Nord";"48165";"CHANTEGRENOUILLE";;"48100";"SAINT-LAURENT-DE-MURET";"Pylône autostable"; 15.0;"Titulaire programme Radio/TV"
60627;3.53361;44.41472;"03° 32' 01.00'' Est, 44° 24' 53.00'' Nord";"48075";"MONTMIRAT";;"48320";"ISPAGNAC";"Pylône autostable"; 30.0;"Titulaire programme Radio/TV"
60635;3.86778;44.73667;"03° 52' 04.00'' Est, 44° 44' 12.00'' Nord";"48080";"COTE DE LABRE";"BOIS DU NIRGOULT";"48300";"LANGOGNE";"Pylône autostable"; 20.0;"Titulaire programme Radio/TV"
63877;3.89556;44.33111;"03° 53' 44.00'' Est, 44° 19' 52.00'' Nord";"48194";;"RTE DU PORT DE MONTVERT";"48220";"VIALAS";"Pylône autostable"; 12.0;"ORANGE Services Fixes"
97598;3.66750;44.61750;"03° 40' 03.00'' Est, 44° 37' 03.00'' Nord";"48008";"CHON BLON";"L'HABITARELLE";"48170";"ARZENC-DE-RANDON";"Pylône autostable"; 30.0;"ORANGE"
114685;3.75944;44.53833;"03° 45' 34.00'' Est, 44° 32' 18.00'' Nord";"48027";"LE GOULET";;"48170";"LE BLEYMARD";"Pylône autostable"; 30.0;"Titulaire programme Radio/TV"
114689;3.18750;44.84000;"03° 11' 15.00'' Est, 44° 50' 24.00'' Nord";"48064";;"FENESTRE";"48310";"FOURNELS";"Pylône autostable"; 12.0;"Titulaire programme Radio/TV"
114691;3.16833;44.54222;"03° 10' 06.00'' Est, 44° 32' 32.00'' Nord";"48187";"LA CROIX DU LOUP";;"48100";"LES SALCES";"Pylône autostable"; 15.0;"Titulaire programme Radio/TV"
116800;3.85583;44.72750;"03° 51' 21.00'' Est, 44° 43' 39.00'' Nord";"48080";;"R DES CAPUCINS CENTRAL TÉLÉPHONIQUE";"48300";"LANGOGNE";"Bâtiment"; 13.0;"ORANGE Services Fixes"
116880;3.87111;44.22361;"03° 52' 16.00'' Est, 44° 13' 25.00'' Nord";"48155";"LE PENDEDIS";;"48370";"SAINT-GERMAIN-DE-CALBERTE";"Bâtiment"; 6.0;"ORANGE Services Fixes"
126659;3.74167;44.26889;"03° 44' 30.00'' Est, 44° 16' 08.00'' Nord";"48036";"LE CROUZAS";"D 62";"48400";"CASSAGNAS";"Bâtiment"; 6.0;"ORANGE Services Fixes"
130173;3.22667;44.27778;"03° 13' 36.00'' Est, 44° 16' 40.00'' Nord";"48094";"LE VILLAGE";"D995";"48210";"LE MASSEGROS";"Bâtiment"; 7.0;"ORANGE Services Fixes"
133592;3.28861;44.72333;"03° 17' 19.00'' Est, 44° 43' 24.00'' Nord";"48009";"R DE LA PAILLADE";"AUTOCOMMUTATEUR";"48130";"AUMONT-AUBRAC";"Bâtiment"; 8.0;"ORANGE Services Fixes"
146867;3.56861;44.33000;"03° 34' 07.00'' Est, 44° 19' 48.00'' Nord";"48061";"COL DE LA PIERRE PLATE";"D16";"48400";"FLORAC";"Mât"; 7.0;"ORANGE Services Fixes"
161279;3.65750;44.23889;"03° 39' 27.00'' Est, 44° 14' 20.00'' Nord";"48019";;"BARRE DES CEVENNES";"48400";"BARRE-DES-CEVENNES";"Support non décrit"; 10.0;
173163;3.85944;44.73639;"03° 51' 34.00'' Est, 44° 44' 11.00'' Nord";"48080";;"AMONT PONT RIVE DROITE";"48300";"LANGOGNE";"Support non décrit"; 10.0;
173167;3.71444;44.81472;"03° 42' 52.00'' Est, 44° 48' 53.00'' Nord";"48139";;"RTE DE ST BONNET DE MONTAURO";"48600";"SAINT-BONNET-DE-MONTAUROUX";"Support non décrit"; 10.0;
193616;3.17000;44.32583;"03° 10' 12.00'' Est, 44° 19' 33.00'' Nord";"48094";"LE TENSONNIEU";"RESERVOIR";"48500";"LE MASSEGROS";"Château d'eau - réservoir"; 12.0;"Commune, communauté de commune"
269047;3.19028;44.83944;"03° 11' 25.00'' Est, 44° 50' 22.00'' Nord";"48190";"FENESTRES";;"48310";"TERMES";"Bâtiment"; 7.0;"Association"
269053;3.18778;44.83944;"03° 11' 16.00'' Est, 44° 50' 22.00'' Nord";"48190";"FENESTRES";"LE ROCHER";"48310";"TERMES";"Pylône autostable"; 3.0;"Commune, communauté de commune"
302590;3.88389;44.53500;"03° 53' 02.00'' Est, 44° 32' 06.00'' Nord";"48021";;"CABINE RADIO DU BARRAGE DE PUYLAURENT CHEM D'ACCÈS AU BARRAGE";"48250";"LA BASTIDE-PUYLAURENT";"Pylône autostable"; 12.0;"EDF ou GDF"
306753;3.46083;44.26278;"03° 27' 39.00'' Est, 44° 15' 46.00'' Nord";"48074";"NIVOLIERS";;"48150";"HURES-LA-PARADE";"Mât"; 8.0;"ORANGE Services Fixes"
326489;3.04833;44.66139;"03° 02' 54.00'' Est, 44° 39' 41.00'' Nord";"48104";;"PL DU FOIRAIL AUTOCOMMUTATEUR";"48260";"NASBINALS";"Bâtiment"; 6.0;"ORANGE Services Fixes"
332525;3.75111;44.20389;"03° 45' 04.00'' Est, 44° 12' 14.00'' Nord";"48171";"FABREGUE";"D.28 - RESERVOIR DE FABREGUE";"48110";"SAINT-MARTIN-DE-LANSUSCLE";"Mât métallique"; 6.0;"ORANGE Services Fixes"
334525;3.92056;44.20167;"03° 55' 14.00'' Est, 44° 12' 06.00'' Nord";"48170";"VC N° 1 DU PENDEDIS";"LE BOURG AUTOCOMMUTATEUR";"48160";"SAINT-MARTIN-DE-BOUBAUX";"Bâtiment"; 6.0;"ORANGE Services Fixes"
338836;3.92639;44.24667;"03° 55' 35.00'' Est, 44° 14' 48.00'' Nord";"48051";"LA BASTIDE";"QUARTIER MAISON DE RETRAITE AVENUE DE LA GARE AUTOCOMMUTATEUR";"48160";"LE COLLET-DE-DEZE";"Bâtiment"; 8.0;"ORANGE Services Fixes"
340893;3.85944;44.47361;"03° 51' 34.00'' Est, 44° 28' 25.00'' Nord";"48004";"ROUTE DE MENDE";"D901";"48800";"ALTIER";"Pylône autostable"; 9.0;"ORANGE Services Fixes"
340897;3.85417;44.47278;"03° 51' 15.00'' Est, 44° 28' 22.00'' Nord";"48004";;"LA PISE";"48800";"ALTIER";"Pylône autostable"; 6.0;"ORANGE Services Fixes"
389976;3.37083;44.22778;"03° 22' 15.00'' Est, 44° 13' 40.00'' Nord";"48074";"L'ARPAJOUX";"INTERSECTION D63/D986";"48150";"HURES-LA-PARADE";"Pylône tubulaire"; 10.0;"ORANGE Services Fixes"
403248;3.31889;44.30139;"03° 19' 08.00'' Est, 44° 18' 05.00'' Nord";"48088";"LE VILLAGE";"GITE ÉTAPE LE PRADET D907 B";"48210";"LA MALENE";"Bâtiment"; 5.0;"ORANGE Services Fixes"
428345;3.98694;44.47083;"03° 59' 13.00'' Est, 44° 28' 15.00'' Nord";"48015";"GREFOULINE";"AUTOCOMMUTATEUR";"48800";"PIED-DE-BORNE";"Pylône autostable"; 10.0;"ORANGE Services Fixes"
428347;3.98611;44.47861;"03° 59' 10.00'' Est, 44° 28' 43.00'' Nord";"48015";"ROUTE DES VANS";;"48800";"PIED-DE-BORNE";"Bâtiment"; 6.0;"EDF ou GDF"
441448;3.35806;44.35639;"03° 21' 29.00'' Est, 44° 21' 23.00'' Nord";"48085";"LOU BOUOS";"LAS PIGNÈDES D998";"48500";"LAVAL-DU-TARN";"Pylône autostable"; 31.0;"HIVORY"
445682;3.43194;44.17972;"03° 25' 55.00'' Est, 44° 10' 47.00'' Nord";"48096";"ANDRE CHANSON";;"48150";"MEYRUEIS";"Pylône autostable"; 11.0;"ORANGE Services Fixes"
445937;3.43083;44.18583;"03° 25' 51.00'' Est, 44° 11' 09.00'' Nord";"48096";"LA PAUPARELLE";"PYLONE TELECOMM.";"48150";"MEYRUEIS";"Pylône autostable"; 26.0;"ORANGE"
449487;3.94667;44.44056;"03° 56' 48.00'' Est, 44° 26' 26.00'' Nord";"48198";"CHAPELAS";;"48800";"VILLEFORT";"Pylône autostable"; 12.0;"ORANGE Services Fixes"
465604;3.85806;44.46361;"03° 51' 29.00'' Est, 44° 27' 49.00'' Nord";"48004";"LA MURE";;"48800";"ALTIER";"Pylône autostable"; 33.5;"TDF"
467709;3.57139;44.32722;"03° 34' 17.00'' Est, 44° 19' 38.00'' Nord";"48061";"ROCHER DE PRADAL";;"48400";"FLORAC";"Pylône autostable"; 24.0;"TDF"
469033;3.33056;44.54389;"03° 19' 50.00'' Est, 44° 32' 38.00'' Nord";"48103";"LA CROZE";"CHEM RURAL";"48100";"MONTRODAT";"Pylône autostable"; 12.0;"ORANGE"
470626;3.28528;44.78139;"03° 17' 07.00'' Est, 44° 46' 53.00'' Nord";"48025";"LES CHAYSSADES";"PRÈS N9";"48200";"LES BESSONS";"Pylône autostable"; 35.0;"ORANGE"
472143;3.45556;44.52167;"03° 27' 20.00'' Est, 44° 31' 18.00'' Nord";"48016";"SIGNAL DE FLAGIT";;"48000";"BALSIEGES";"Pylône autostable"; 30.0;"HIVORY"
497254;3.32167;44.29389;"03° 19' 18.00'' Est, 44° 17' 38.00'' Nord";"48088";"CUERFACHE";"PYLONE TDF";"48210";"LA MALENE";"Pylône autostable"; 16.1;"TDF"
497431;3.54167;44.35861;"03° 32' 30.00'' Est, 44° 21' 31.00'' Nord";"48146";"LE SINGLE";;"48320";"SAINTE-ENIMIE";"Pylône autostable"; 48.5;"TDF"
498971;3.25833;44.85833;"03° 15' 30.00'' Est, 44° 51' 30.00'' Nord";"48002";"ROCHER BLANC";;"48200";"ALBARET-SAINTE-MARIE";"Pylône autostable"; 50.0;"DDE"
500289;3.84222;44.16639;"03° 50' 32.00'' Est, 44° 09' 59.00'' Nord";"48148";"ALLÉE DES TILLEULS";;"48330";"SAINT-ETIENNE-VALLEE-FRANCAISE";"Bâtiment"; 5.0;"ORANGE Services Fixes"
500291;3.85167;44.16833;"03° 51' 06.00'' Est, 44° 10' 06.00'' Nord";"48148";"MIÈGE SOLLE";;"48330";"SAINT-ETIENNE-VALLEE-FRANCAISE";"Pylône autostable"; 22.0;"ORANGE Services Fixes"
501845;3.45250;44.51972;"03° 27' 09.00'' Est, 44° 31' 11.00'' Nord";"48016";"SIGNAL DE FLAGIT";;"48000";"BALSIEGES";"Pylône autostable"; 15.0;"Titulaire programme Radio/TV"
506365;3.28417;44.54833;"03° 17' 03.00'' Est, 44° 32' 54.00'' Nord";"48092";;"PRÉFONTAINES";"48100";"MARVEJOLS";"Pylône autostable"; 25.0;"TDF"
506451;3.31556;44.53417;"03° 18' 56.00'' Est, 44° 32' 03.00'' Nord";"48107";"TRUC DU MIDI";"RÉÉMETTEUR TDF DE MARVEJOLS";"48100";"PALHERS";"Pylône autostable"; 45.0;"TDF"
508149;3.40000;44.51167;"03° 23' 60.00'' Est, 44° 30' 42.00'' Nord";"48018";"CENARET";;"48000";"BARJAC";"Pylône autostable"; 43.0;"TDF"
509027;3.51528;44.52250;"03° 30' 55.00'' Est, 44° 31' 21.00'' Nord";"48095";;"8 R DE FONTANILLES";"48000";"MENDE";"Immeuble"; 30.0;"Société HLM"
513561;3.53222;44.64222;"03° 31' 56.00'' Est, 44° 38' 32.00'' Nord";"48127";"TRUC DE FORTUNIO";;"48700";"RIEUTORT-DE-RANDON";"Tour hertzienne"; 109.0;"TDF"
515628;3.45222;44.51972;"03° 27' 08.00'' Est, 44° 31' 11.00'' Nord";"48016";"SIGNAL DE FLAGIT";;"48000";"BALSIEGES";"Pylône autostable"; 30.0;"ORANGE"
515642;3.54083;44.44528;"03° 32' 27.00'' Est, 44° 26' 43.00'' Nord";"48147";;"DELBOUC";"48000";"SAINT-ETIENNE-DU-VALDONNEZ";"Pylône autostable"; 37.0;"TDF"
518651;3.11167;44.84750;"03° 06' 42.00'' Est, 44° 50' 51.00'' Nord";"48007";;"CHABRIER";"48310";"ARZENC-D'APCHER";"Bâtiment"; 5.0;"Particulier"
524621;3.57139;44.32722;"03° 34' 17.00'' Est, 44° 19' 38.00'' Nord";"48061";"LE PRADAL";"PYLONE 2";"48400";"FLORAC";"Pylône autostable"; 10.0;"TDF"
534098;3.08611;44.75222;"03° 05' 10.00'' Est, 44° 45' 08.00'' Nord";"48031";"PUECH DE BRION";;"48310";"BRION";"Pylône autostable"; 24.0;"Conseil Départemental"
543782;3.89806;44.22583;"03° 53' 53.00'' Est, 44° 13' 33.00'' Nord";"48173";"ST-MICHEL SIGNAL";"MONTAGNE DE MORTISSOU PYLÔNE TDF";"48160";"SAINT-MICHEL-DE-DEZE";"Pylône autostable"; 20.0;"TDF"
543907;3.31889;44.86583;"03° 19' 08.00'' Est, 44° 51' 57.00'' Nord";"48090";;"VERDEZUN";"48140";"LE MALZIEU-VILLE";"Pylône autostable"; 23.0;"TDF"
545765;3.57167;44.32722;"03° 34' 18.00'' Est, 44° 19' 38.00'' Nord";"48061";"LE PRADAL";;"48400";"FLORAC";"Pylône autostable"; 22.0;"Towercast"
546235;3.19028;44.44944;"03° 11' 25.00'' Est, 44° 26' 58.00'' Nord";"48017";;"LA CAZETTE";"48500";"BANASSAC";"Pylône autostable"; 45.0;"TDF"
546308;3.46417;44.47083;"03° 27' 51.00'' Est, 44° 28' 15.00'' Nord";"48137";;"CHAUMAZELLE";"48000";"SAINT-BAUZILE";"Pylône autostable"; 35.0;"TDF"
549241;3.87083;44.73417;"03° 52' 15.00'' Est, 44° 44' 03.00'' Nord";"48080";"GERMANÈS";;"48300";"LANGOGNE";"Pylône autostable"; 19.0;"Towercast"
553602;3.58000;44.30889;"03° 34' 48.00'' Est, 44° 18' 32.00'' Nord";"48061";;"LA BASTIDE";"48400";"FLORAC";"Pylône haubané"; 31.0;"DDE"
559950;3.05972;44.66278;"03° 03' 35.00'' Est, 44° 39' 46.00'' Nord";"48104";"ANTIOLES";"GR 65";"48260";"NASBINALS";"Pylône autostable"; 24.0;"TDF"
559962;3.37278;44.76639;"03° 22' 22.00'' Est, 44° 45' 59.00'' Nord";"48063";;"LE MT HAUT PYLONE TDF";"48700";"FONTANS";"Pylône autostable"; 45.0;"TDF"
559976;3.94667;44.44028;"03° 56' 48.00'' Est, 44° 26' 25.00'' Nord";"48198";;"CHAPELAS ROC";"48800";"VILLEFORT";"Pylône autostable"; 21.0;"TDF"
560106;3.20972;44.42306;"03° 12' 35.00'' Est, 44° 25' 23.00'' Nord";"48034";;"ROQUEPRINCE LA TOMBE DU GÉANT";"48500";"LA CANOURGUE";"Pylône autostable"; 45.0;"TDF"
560122;3.21278;44.47000;"03° 12' 46.00'' Est, 44° 28' 12.00'' Nord";"48034";"LOUS COURNAS";;"48500";"LA CANOURGUE";"Pylône autostable"; 45.0;"TDF"
560134;3.26750;44.79444;"03° 16' 03.00'' Est, 44° 47' 40.00'' Nord";"48140";"LA VIGNE";"PROCHE D989";"48200";"SAINT-CHELY-D'APCHER";"Pylône autostable"; 25.0;"TDF"
560176;3.73639;44.46667;"03° 44' 11.00'' Est, 44° 28' 00.00'' Nord";"48027";;"LIORON";"48190";"LE BLEYMARD";"Pylône autostable"; 42.0;"TDF"
560188;3.07944;44.82944;"03° 04' 46.00'' Est, 44° 49' 46.00'' Nord";"48161";;"LES MAILLOGUES";"48310";"SAINT-JUERY";"Pylône autostable"; 22.0;"TDF"
560249;3.71306;44.80361;"03° 42' 47.00'' Est, 44° 48' 13.00'' Nord";"48139";"LE CAUSSE DE MONTGROS";;"48600";"SAINT-BONNET-DE-MONTAUROUX";"Pylône autostable"; 45.0;"TDF"
560261;3.82417;44.21889;"03° 49' 27.00'' Est, 44° 13' 08.00'' Nord";"48155";"LES MATTES";;"48370";"SAINT-GERMAIN-DE-CALBERTE";"Pylône autostable"; 43.6;"TDF"
560719;3.34389;44.45917;"03° 20' 38.00'' Est, 44° 27' 33.00'' Nord";"48039";"LES ARTS";"SERRE DEL BOUYS";"48230";"CHANAC";"Pylône autostable"; 23.0;"TDF"
567090;3.50333;44.51972;"03° 30' 12.00'' Est, 44° 31' 11.00'' Nord";"48095";;"8 ALL PIENCOURT CENTRAL TELEPHONIQUE";"48000";"MENDE";"Bâtiment"; 24.2;"ORANGE Services Fixes"
567406;3.49361;44.51028;"03° 29' 37.00'' Est, 44° 30' 37.00'' Nord";"48095";"CROIX DU MONT MIMAT";"ZA ROUTE DE CHABRITS";"48000";"MENDE";"Pylône autostable"; 30.0;"TDF"
569404;3.26333;44.51361;"03° 15' 48.00'' Est, 44° 30' 49.00'' Nord";"48138";"LE MONASTIER";"CHE DES BORIES";"48100";"SAINT-BONNET-DE-CHIRAC";"Pylône autostable"; 34.0;"TDF"
576267;3.53306;44.37222;"03° 31' 59.00'' Est, 44° 22' 20.00'' Nord";"48075";"PARKING DES ECOLES";"AUTOCOMMUTATEUR";"48320";"ISPAGNAC";"Bâtiment"; 7.0;"ORANGE Services Fixes"
577039;3.42694;44.16222;"03° 25' 37.00'' Est, 44° 09' 44.00'' Nord";"48096";"MARJOAB";"AOUGLANOU";"48150";"MEYRUEIS";"Pylône tubulaire"; 34.0;"TDF"
581955;3.27694;44.80472;"03° 16' 37.00'' Est, 44° 48' 17.00'' Nord";"48140";;"R DE LA CHICANE CENTRAL TÉLÉPHONIQUE";"48200";"SAINT-CHELY-D'APCHER";"Pylône autostable"; 28.0;"ORANGE Services Fixes"
590741;3.21111;44.19278;"03° 12' 40.00'' Est, 44° 11' 34.00'' Nord";"48131";"ROCHER DE CAPLUC";;"48150";"LE ROZIER";"Pylône autostable"; 18.0;"ORANGE"
599199;3.42222;44.61111;"03° 25' 20.00'' Est, 44° 36' 40.00'' Nord";"48127";"BARAQUE DE LA GRANGE";;"48000";"RIEUTORT-DE-RANDON";"Mât"; 7.0;"ORANGE Services Fixes"
612296;3.80389;44.27444;"03° 48' 14.00'' Est, 44° 16' 28.00'' Nord";"48178";"LE MAGINOUX";"D984";"48240";"SAINT-PRIVAT-DE-VALLONGUE";"Pylône tubulaire"; 12.0;"ORANGE"
649354;3.80389;44.27444;"03° 48' 14.00'' Est, 44° 16' 28.00'' Nord";"48178";"LE MAGINOUS";"D 984";"48240";"SAINT-PRIVAT-DE-VALLONGUE";"Pylône tubulaire"; 12.0;"ORANGE"
666279;3.47778;44.52833;"03° 28' 40.00'' Est, 44° 31' 42.00'' Nord";"48095";;"14 R DES CARRIÈRES";"48000";"MENDE";"Pylône autostable"; 20.0;"ORANGE"
693280;3.49194;44.52361;"03° 29' 31.00'' Est, 44° 31' 25.00'' Nord";"48095";;"CITÉ DU DEVEZOU CHEM DE LA SAFRANIÈRE";"48000";"MENDE";"Bâtiment"; 19.0;"Copropriété, Syndic, SCI"
708434;3.89750;44.32278;"03° 53' 51.00'' Est, 44° 19' 22.00'' Nord";"48194";"LA CHABASSE";"COL DE LA BANETTE";"48220";"VIALAS";"Pylône autostable"; 23.0;"TDF"
729835;3.57556;44.34917;"03° 34' 32.00'' Est, 44° 20' 57.00'' Nord";"48061";"ST JULIEN DU GOURG";"N 106 ROUTE DE MENDE";"48400";"FLORAC";"Pylône autostable"; 20.0;"DDE"
730098;3.24917;44.58333;"03° 14' 57.00'' Est, 44° 35' 00.00'' Nord";"48005";"PRAT BESSOU";"LES QUATRES CHEMINS  AIRE D'AUTOUROUTE A75";"48100";"ANTRENAS";"Pylône autostable"; 24.0;"Etat, Ministère"
734695;3.17111;44.32639;"03° 10' 16.00'' Est, 44° 19' 35.00'' Nord";"48094";"PUECH DEL MOULY";"LE TENSONNIEU";"48500";"LE MASSEGROS";"Pylône autostable"; 20.0;"HIVORY"
752631;3.14333;44.33667;"03° 08' 36.00'' Est, 44° 20' 12.00'' Nord";"48094";"LA DEVÈZE DU RECOUX";;"48500";"LE MASSEGROS";"Pylône autostable"; 23.0;"HIVORY"
778370;3.45056;44.57889;"03° 27' 02.00'' Est, 44° 34' 44.00'' Nord";"48127";"TRUC DE LA CAILLE";;"48700";"RIEUTORT-DE-RANDON";"Pylône autostable"; 18.0;"EDF ou GDF"
778434;3.27528;44.31972;"03° 16' 31.00'' Est, 44° 19' 11.00'' Nord";"48094";"LES CAYROUX";;"48500";"LE MASSEGROS";"Pylône autostable"; 21.0;"EDF ou GDF"
785223;3.37528;44.95111;"03° 22' 31.00'' Est, 44° 57' 04.00'' Nord";"48110";"LA PÉREIRE";;"48140";"PAULHAC-EN-MARGERIDE";"Pylône autostable"; 25.0;"HIVORY"
789679;3.88639;44.53083;"03° 53' 11.00'' Est, 44° 31' 51.00'' Nord";"48021";"BARRAGE DE PUYLAURENT";;"48250";"LA BASTIDE-PUYLAURENT";"Bâtiment"; 10.0;"EDF ou GDF"
792181;3.27750;44.72333;"03° 16' 39.00'' Est, 44° 43' 24.00'' Nord";"48009";"LA JAGUÈNE";"LES HUTTES";"48130";"AUMONT-AUBRAC";"Pylône tubulaire"; 30.0;"TDF"
792190;3.23972;44.63611;"03° 14' 23.00'' Est, 44° 38' 10.00'' Nord";"48032";"VIADUC DE LA CRUEIZE";"ÉCHANGEUR N°37 DU BUISSON A75/E11";"48100";"LE BUISSON";"Pylône autostable"; 50.0;"DDE"
793032;3.89806;44.22556;"03° 53' 53.00'' Est, 44° 13' 32.00'' Nord";"48170";"MONTAGNE DE MORTISSOU";"GR DE PAYS DU TOUR DU GALEIZON ST-MICHEL SIGNAL";"48160";"SAINT-MARTIN-DE-BOUBAUX";"Pylône autostable"; 18.0;"ORANGE Services Fixes"
793034;3.24944;44.65472;"03° 14' 58.00'' Est, 44° 39' 17.00'' Nord";"48009";"PUECH DE PORTE";"N.9";"48130";"AUMONT-AUBRAC";"Pylône autostable"; 34.0;"ATC FRANCE"
793824;3.51222;44.72667;"03° 30' 44.00'' Est, 44° 43' 36.00'' Nord";"48127";"LES VERSES/LOUS PEDISSES";"CHEM DE MENDE À SAUGUES";"48700";"RIEUTORT-DE-RANDON";"Pylône autostable"; 35.0;"Conseil Départemental"
794455;3.65528;44.51083;"03° 39' 19.00'' Est, 44° 30' 39.00'' Nord";"48027";"LES CLAUZELS";;"48190";"LE BLEYMARD";"Pylône autostable"; 5.0;"Commune, communauté de commune"
795565;3.93194;44.46278;"03° 55' 55.00'' Est, 44° 27' 46.00'' Nord";"48117";"MORANGIES";;"48800";"POURCHARESSES";"Bâtiment"; 16.0;"EDF ou GDF"
799002;3.61000;44.50972;"03° 36' 36.00'' Est, 44° 30' 35.00'' Nord";"48081";"LE MASSEGUIN";"PYLONE TDF";"48000";"LANUEJOLS";"Pylône autostable"; 34.0;"TDF"
799050;3.66806;44.30361;"03° 40' 05.00'' Est, 44° 18' 13.00'' Nord";"48166";"LE BOUGES";;"48400";"SAINT-LAURENT-DE-TREVES";"Pylône autostable"; 17.0;"Conseil Départemental"
807606;3.20972;44.60556;"03° 12' 35.00'' Est, 44° 36' 20.00'' Nord";"48165";;"BARAQUE DE BONNAL";"48100";"SAINT-LAURENT-DE-MURET";"Mât béton"; 7.0;"ORANGE Services Fixes"
807624;3.65667;44.24278;"03° 39' 24.00'' Est, 44° 14' 34.00'' Nord";"48019";"LE VILLAGE";"SALLE COMMUNALE POLYVALENTE D13";"48400";"BARRE-DES-CEVENNES";"Bâtiment"; 10.0;"Commune, communauté de commune"
808022;3.80861;44.21639;"03° 48' 31.00'' Est, 44° 12' 59.00'' Nord";"48155";"LE SERRE";"AUTOCOMMUTATEUR";"48370";"SAINT-GERMAIN-DE-CALBERTE";"Pylône autostable"; 10.0;"ORANGE Services Fixes"
808378;3.82417;44.25833;"03° 49' 27.00'' Est, 44° 15' 30.00'' Nord";"48136";"CROIX BOUREL";;"48240";"SAINT-ANDRE-DE-LANCIZE";"Pylône autostable"; 18.0;"TDF"
808443;3.59806;44.25833;"03° 35' 53.00'' Est, 44° 15' 30.00'' Nord";"48166";"LE BOUSQUET";"ARRETE DE CABANIS";"48400";"SAINT-LAURENT-DE-TREVES";"Pylône autostable"; 27.0;"TDF"
812304;3.72778;44.36778;"03° 43' 40.00'' Est, 44° 22' 04.00'' Nord";"48116";"ROC DU VIALA";"LE PONT DE MONT VERT 1";"48220";"LE PONT-DE-MONTVERT";"Pylône autostable"; 33.0;"TDF"
817807;3.15806;44.61028;"03° 09' 29.00'' Est, 44° 36' 37.00'' Nord";"48165";"LE PLÔ";;"48100";"SAINT-LAURENT-DE-MURET";"Mât"; 3.0;"Aviation Civile"
818774;3.87417;44.73778;"03° 52' 27.00'' Est, 44° 44' 16.00'' Nord";"48080";"LES PLANES";"BOIS DE NIRGOULT";"48300";"LANGOGNE";"Pylône autostable"; 26.0;"ATC FRANCE"
841907;3.20917;44.42306;"03° 12' 33.00'' Est, 44° 25' 23.00'' Nord";"48034";"LA TOMBE DU GÉANT";"LAS FOURQUES";"48500";"LA CANOURGUE";"Pylône autostable"; 21.0;"ORANGE"
878615;3.82861;44.17250;"03° 49' 43.00'' Est, 44° 10' 21.00'' Nord";"48148";;"PIÈCE DES PAUVRES";"48330";"SAINT-ETIENNE-VALLEE-FRANCAISE";"Pylône autostable"; 16.0;"TDF"
892464;3.98028;44.48111;"03° 58' 49.00'' Est, 44° 28' 52.00'' Nord";"48015";"PLANCHAMP";;"48800";"PIED-DE-BORNE";"Bâtiment"; 5.0;"EDF ou GDF"
892531;3.92361;44.50722;"03° 55' 25.00'' Est, 44° 30' 26.00'' Nord";"48119";;"BARRAGE LE RASCHAS";"48800";"PREVENCHERES";"Bâtiment"; 10.0;"EDF ou GDF"
892875;3.96472;44.53722;"03° 57' 53.00'' Est, 44° 32' 14.00'' Nord";"48015";;"ST JEAN DE CHAZORNE ROUJANE BARRAGE DE ROUJANEL";"48800";"PIED-DE-BORNE";"Bâtiment"; 10.0;"EDF ou GDF"
893604;3.58861;44.33056;"03° 35' 19.00'' Est, 44° 19' 50.00'' Nord";"48061";;"13, AV DU 8 MAI 1945 ERDF";"48400";"FLORAC";"Bâtiment"; 8.0;"EDF ou GDF"
901011;3.35583;44.68972;"03° 21' 21.00'' Est, 44° 41' 23.00'' Nord";"48009";"MOUTENCHOS";;"48130";"AUMONT-AUBRAC";"Pylône autostable"; 30.0;"Conseil Départemental"
901049;3.74528;44.60833;"03° 44' 43.00'' Est, 44° 36' 30.00'' Nord";"48045";"LE MARTINET";;"48170";"CHAUDEYRAC";"Pylône autostable"; 36.0;"TDF"
901164;3.49500;44.51944;"03° 29' 42.00'' Est, 44° 31' 10.00'' Nord";"48095";"R DES CARMES";;"48000";"MENDE";"Bâtiment"; 12.0;"EDF ou GDF"
901605;3.29194;44.54750;"03° 17' 31.00'' Est, 44° 32' 51.00'' Nord";"48092";"ALLÉE DES SOUPIRS";;"48100";"MARVEJOLS";"Bâtiment"; 8.0;"EDF ou GDF"
905047;3.34528;44.62972;"03° 20' 43.00'' Est, 44° 37' 47.00'' Nord";"48124";"LES CAYRES";;"48100";"RECOULES-DE-FUMAS";"Pylône autostable"; 30.0;"Conseil Départemental"
910858;3.64444;44.23917;"03° 38' 40.00'' Est, 44° 14' 21.00'' Nord";"48019";;"LA CAN NOIRE";"48400";"BARRE-DES-CEVENNES";"Pylône autostable"; 23.0;"TDF"
913045;3.96472;44.48556;"03° 57' 53.00'' Est, 44° 29' 08.00'' Nord";"48015";"USINE HYDRO DE BEYSSAC";;"48800";"PIED-DE-BORNE";"Bâtiment"; 8.0;"EDF ou GDF"
913048;3.98806;44.47167;"03° 59' 17.00'' Est, 44° 28' 18.00'' Nord";"48015";"BARRAGE STE MARGURITTE";;"48800";"PIED-DE-BORNE";"Bâtiment"; 5.0;"EDF ou GDF"
913544;3.30806;44.50222;"03° 18' 29.00'' Est, 44° 30' 08.00'' Nord";"48107";"LA CHAM DE PALHERET";;"48100";"PALHERS";"Pylône autostable"; 22.0;"DDE"
913563;3.63556;44.82167;"03° 38' 08.00'' Est, 44° 49' 18.00'' Nord";"48038";"PHT ANCELPONT LE COURBADOU";;"48600";"CHAMBON-LE-CHATEAU";"Bâtiment"; 7.0;"EDF ou GDF"
918515;3.46694;44.57583;"03° 28' 01.00'' Est, 44° 34' 33.00'' Nord";"48042";"ASPRES";"ZA LES CHABRITS SITE DU LOU PAOU";"48000";"CHASTEL-NOUVEL";"Pylône autostable"; 30.0;"TDF"
937344;3.72444;44.75000;"03° 43' 28.00'' Est, 44° 45' 00.00'' Nord";"48010";"MALMONT";"CHEM FORESTIER";"48600";"AUROUX";"Pylône autostable"; 45.0;"TDF"
938249;3.32222;44.60194;"03° 19' 20.00'' Est, 44° 36' 07.00'' Nord";"48168";"LOU TRUC";;"48100";"SAINT-LEGER-DE-PEYRE";"Pylône autostable"; 35.0;"Conseil Départemental"
938271;3.33056;44.54389;"03° 19' 50.00'' Est, 44° 32' 38.00'' Nord";"48103";;"PEJAS";"48100";"MONTRODAT";"Mât métallique"; 17.0;"TDF"
951707;3.65861;44.85222;"03° 39' 31.00'' Est, 44° 51' 08.00'' Nord";"48038";"LE SERRE";;"48600";"CHAMBON-LE-CHATEAU";"Pylône autostable"; 10.0;"Commune, communauté de commune"
956746;3.85500;44.22000;"03° 51' 18.00'' Est, 44° 13' 12.00'' Nord";"48155";;"PRENTIGARDE";"48370";"SAINT-GERMAIN-DE-CALBERTE";"Pylône autostable"; 23.0;"TDF"
959288;3.75194;44.17194;"03° 45' 07.00'' Est, 44° 10' 19.00'' Nord";"48144";;"LA LIEURE D 40";"48110";"SAINTE-CROIX-VALLEE-FRANCAISE";"Pylône autostable"; 22.0;"TDF"
965783;3.31889;44.86583;"03° 19' 08.00'' Est, 44° 51' 57.00'' Nord";"48090";"VERDEZUN";"LA PORTE DES FÉES";"48140";"LE MALZIEU-VILLE";"Pylône autostable"; 35.0;"Conseil Départemental"
966560;3.31500;44.84306;"03° 18' 54.00'' Est, 44° 50' 35.00'' Nord";"48177";"TRUC DE MURAT";;"48200";"SAINT-PIERRE-LE-VIEUX";"Pylône autostable"; 45.0;"Conseil Départemental"
975663;3.37167;44.53167;"03° 22' 18.00'' Est, 44° 31' 54.00'' Nord";"48068";"LE CALVAIRE";;"48100";"GABRIAS";"Mât béton"; 9.0;"Commune, communauté de commune"
975665;3.51861;44.76333;"03° 31' 07.00'' Est, 44° 45' 48.00'' Nord";"48145";"LA BARAQUE DES BOUVIERS";;"48700";"SAINT-DENIS-EN-MARGERIDE";"Pylône haubané"; 10.0;"Société Privée SA"
1024148;3.89806;44.22556;"03° 53' 53.00'' Est, 44° 13' 32.00'' Nord";"48173";"MONTAGNE DE MORTISSOU";"SAINT-MICHEL SIGNAL";"48160";"SAINT-MICHEL-DE-DEZE";"Pylône haubané"; 33.0;"Société Privée SA"
1028220;3.26806;44.79472;"03° 16' 05.00'' Est, 44° 47' 41.00'' Nord";"48140";"LA VIGNE";;"48200";"SAINT-CHELY-D'APCHER";"Pylône autostable"; 30.0;"Commune, communauté de commune"
1037506;3.43944;44.23639;"03° 26' 22.00'' Est, 44° 14' 11.00'' Nord";"48074";"CAZENEUVE";;"48150";"HURES-LA-PARADE";"Bâtiment"; 7.0;"Particulier"
1037508;3.22722;44.28417;"03° 13' 38.00'' Est, 44° 17' 03.00'' Nord";"48094";"DOLAN";"CHEMIN COMMUNAL N° 4";"48210";"LE MASSEGROS";"Mât"; 6.0;"ORANGE Services Fixes"
1044754;3.46778;44.57611;"03° 28' 04.00'' Est, 44° 34' 34.00'' Nord";"48042";"MONT D'ASPRES";;"48000";"CHASTEL-NOUVEL";"Pylône autostable"; 35.0;"Towercast"
1047626;3.45222;44.52000;"03° 27' 08.00'' Est, 44° 31' 12.00'' Nord";"48016";"SIGNAL DE FLAGIT";;"48000";"BALSIEGES";"Pylône autostable"; 41.0;"ORANGE"
1059867;3.55167;44.52250;"03° 33' 06.00'' Est, 44° 31' 21.00'' Nord";"48013";"LOU CHAOUROUSSE";"PYLONE DDE";"48000";"BADAROUX";"Pylône autostable"; 35.0;"DDE"
1059869;3.55083;44.52250;"03° 33' 03.00'' Est, 44° 31' 21.00'' Nord";"48013";"LE CAUSSE";"LOU CHAOUSSE";"48000";"BADAROUX";"Pylône autostable"; 33.0;"TDF"
1083378;3.98111;44.48056;"03° 58' 52.00'' Est, 44° 28' 50.00'' Nord";"48015";"LE VERNET";;"48800";"PIED-DE-BORNE";"Pylône autostable"; 18.0;"HIVORY"
1088355;3.71611;44.25972;"03° 42' 58.00'' Est, 44° 15' 35.00'' Nord";"48019";"LE CRÉMADET";;"48400";"BARRE-DES-CEVENNES";"Bâtiment"; 8.0;"Particulier"
1088357;3.88472;44.53444;"03° 53' 05.00'' Est, 44° 32' 04.00'' Nord";"48021";"PUYLAURENT";"LA SAGNE VOIE COMMUNALE";"48250";"LA BASTIDE-PUYLAURENT";"Mât béton"; 8.0;"ORANGE Services Fixes"
1088597;3.15472;44.74583;"03° 09' 17.00'' Est, 44° 44' 45.00'' Nord";"48058";"PUY DE MONTIVERNOUX";"PYLÔNE DDE";"48310";"LA FAGE-MONTIVERNOUX";"Pylône autostable"; 19.0;"DDE"
1093841;3.68778;44.38556;"03° 41' 16.00'' Est, 44° 23' 08.00'' Nord";"48116";"LES CLAUSES";;"48220";"LE PONT-DE-MONTVERT";"Mât"; 2.0;"Particulier"
1093847;3.42944;44.20333;"03° 25' 46.00'' Est, 44° 12' 12.00'' Nord";"48096";"LA CITERNE";;"48150";"MEYRUEIS";"Bâtiment"; 8.0;"Particulier"
1186069;3.44750;44.28278;"03° 26' 51.00'' Est, 44° 16' 58.00'' Nord";"48141";"LE FRAISSE";;"48210";"MAS-SAINT-CHELY";"Bâtiment"; 10.0;"Particulier"
1186071;3.43194;44.20500;"03° 25' 55.00'' Est, 44° 12' 18.00'' Nord";"48096";"LA CITERNE2";"FERME ÉQUESTRE";"48150";"MEYRUEIS";"Bâtiment"; 7.0;"Particulier"
1201091;3.74750;44.44500;"03° 44' 51.00'' Est, 44° 26' 42.00'' Nord";"48027";;"RTE DES CHOMEURS MONTLOZERE RESERVOIR PRÈS D20";"48190";"LE BLEYMARD";"Pylône autostable"; 21.0;"DDE"
1211828;3.40167;44.37139;"03° 24' 06.00'' Est, 44° 22' 17.00'' Nord";"48146";"DIGNAS";"STATION TDF LOU PUECH";"48210";"SAINTE-ENIMIE";"Pylône autostable"; 22.0;"TDF"
1254693;3.66472;44.50694;"03° 39' 53.00'' Est, 44° 30' 25.00'' Nord";"48027";;"3 RTE DE LA BESSIERE RIVE DROITE DU LOT";"48190";"LE BLEYMARD";"Mât"; 6.0;"Etat, Ministère"
1254697;3.57861;44.23833;"03° 34' 43.00'' Est, 44° 14' 18.00'' Nord";"48193";;"RIVE GAUCHE DU TARNON RD 907";"48400";"VEBRON";"Bâtiment"; 20.0;"Etat, Ministère"
1254699;3.73111;44.27083;"03° 43' 52.00'' Est, 44° 16' 15.00'' Nord";"48036";;"PASSERELLE METAL CD 62 RIVE DROITE DE LA MIMENTE";"48400";"CASSAGNAS";"Mât"; 9.0;"Etat, Ministère"
1254709;3.49500;44.52083;"03° 29' 42.00'' Est, 44° 31' 15.00'' Nord";"48095";;"RUE DU FAUBOURG MONTBEL PT DE LA PLANCHE RG DU LOT";"48000";"MENDE";"Mât béton"; 12.0;"Etat, Ministère"
1273977;3.59056;44.33111;"03° 35' 26.00'' Est, 44° 19' 52.00'' Nord";"48061";;"QUARTIER DE LA BECEDE RIVE GAUCHE DU TARNON";"48400";"FLORAC";"Local technique"; 5.0;"Etat, Ministère"
1273979;3.42833;44.18000;"03° 25' 42.00'' Est, 44° 10' 48.00'' Nord";"48096";;"6 RUE DU PONT VIEUX PONT RIVE DROITE LA JONTE";"48150";"MEYRUEIS";"Bâtiment"; 13.0;"Etat, Ministère"
1273981;3.62083;44.34639;"03° 37' 15.00'' Est, 44° 20' 47.00'' Nord";"48050";;"LE TRUC CHEM COTE DE LA SCIERIE RIVE DROITE DU TARN";"48400";"COCURES";"Mât"; 10.0;"Etat, Ministère"
1273983;3.49583;44.33306;"03° 29' 45.00'' Est, 44° 19' 59.00'' Nord";"48146";;"PONT METALLIQUE DE MONTBRUN RD 6 RIVE DROITE DU TARN";"48320";"SAINTE-ENIMIE";"Mât"; 10.0;"Etat, Ministère"
1274119;3.92667;44.46139;"03° 55' 36.00'' Est, 44° 27' 41.00'' Nord";"48117";"LE LAC CARAVANING";"LE LAC";"48800";"POURCHARESSES";"Bâtiment"; 10.0;"EDF ou GDF"
1274130;3.88750;44.53000;"03° 53' 15.00'' Est, 44° 31' 48.00'' Nord";"48119";"BARRAGE DU PUYLAURENT";;"48800";"PREVENCHERES";"Mât"; 4.0;"EDF ou GDF"
1302805;3.26306;44.51333;"03° 15' 47.00'' Est, 44° 30' 48.00'' Nord";"48138";"LES BORIES";;"48100";"SAINT-BONNET-DE-CHIRAC";"Pylône autostable"; 20.0;"HIVORY"
1342549;3.94611;44.44139;"03° 56' 46.00'' Est, 44° 26' 29.00'' Nord";"48198";"CHAPELAS";;"48800";"VILLEFORT";"Pylône tubulaire"; 12.0;"Titulaire programme Radio/TV"
1374954;3.31500;44.53444;"03° 18' 54.00'' Est, 44° 32' 04.00'' Nord";"48107";"TRUC DU MIDI";;"48100";"PALHERS";"Pylône autostable"; 37.0;"Towercast"
1408871;3.07972;44.82972;"03° 04' 47.00'' Est, 44° 49' 47.00'' Nord";"48161";"LES MAILLOGUES";"SITE ITAS TIM";"48310";"SAINT-JUERY";"Pylône autostable"; 25.0;"TDF"
1409836;3.54111;44.35833;"03° 32' 28.00'' Est, 44° 21' 30.00'' Nord";"48146";"LE SINGLE";"SITE ITAS TIM";"48320";"SAINTE-ENIMIE";"Pylône autostable"; 48.0;"TDF"
1410174;3.71278;44.80306;"03° 42' 46.00'' Est, 44° 48' 11.00'' Nord";"48139";"LE CAUSSE DE MONTGROS";"SITE ITAS TIM";"48600";"SAINT-BONNET-DE-MONTAUROUX";"Pylône autostable"; 48.0;"TDF"
1411526;3.26806;44.79500;"03° 16' 05.00'' Est, 44° 47' 42.00'' Nord";"48140";"LA VIGNE";"SITE ITAS TIM";"48200";"SAINT-CHELY-D'APCHER";"Pylône autostable"; 30.0;"TDF"
1411530;3.37278;44.76611;"03° 22' 22.00'' Est, 44° 45' 58.00'' Nord";"48063";"LE MONT HAUT";"SITE ITAS TIM";"48700";"FONTANS";"Pylône autostable"; 48.0;"TDF"
1414955;3.28444;44.81389;"03° 17' 04.00'' Est, 44° 48' 50.00'' Nord";"48140";;"LES FAISSES";"48200";"SAINT-CHELY-D'APCHER";"Pylône autostable"; 30.0;"TDF"
1434476;3.42028;44.33583;"03° 25' 13.00'' Est, 44° 20' 09.00'' Nord";"48141";"PUECH D'ALLUECH";"CHAMBLON";"48210";"MAS-SAINT-CHELY";"Pylône autostable"; 17.0;"DDE"
1434906;3.47806;44.18528;"03° 28' 41.00'' Est, 44° 11' 07.00'' Nord";"48096";"PUECH POUNCHUT";"LE CROUZET";"48150";"MEYRUEIS";"Pylône autostable"; 17.0;"Conseil Départemental"
1469029;3.47528;44.52833;"03° 28' 31.00'' Est, 44° 31' 42.00'' Nord";"48095";;"ROUTE DE CHABRITS RUE DE LA GARENNE BASE DIRMC";"48000";"MENDE";"Bâtiment"; 23.0;"DDE"
1469031;3.47639;44.52889;"03° 28' 35.00'' Est, 44° 31' 44.00'' Nord";"48095";;"ROUTE DE CHABRITS SERVICE MOYENS SUPPORTS BASE CONSEIL GENERAL";"48000";"MENDE";"Bâtiment"; 8.5;"Conseil Départemental"
1475208;3.17194;44.40861;"03° 10' 19.00'' Est, 44° 24' 31.00'' Nord";"48017";"PUECH DE CRICOU";"MAS REQUIRAN";"48500";"BANASSAC";"Pylône autostable"; 45.0;"DDE"
1476352;3.65111;44.81667;"03° 39' 04.00'' Est, 44° 49' 00.00'' Nord";"48038";"LES QUATRE ESTRADES";"CHAMS";"48600";"CHAMBON-LE-CHATEAU";"Pylône autostable"; 36.0;"Conseil Départemental"
1476475;3.89778;44.22528;"03° 53' 52.00'' Est, 44° 13' 31.00'' Nord";"48170";"SIGNAL DE ST MICHEL";"RELAIS DE PENDIDIS";"48160";"SAINT-MARTIN-DE-BOUBAUX";"Pylône autostable"; 23.0;"DDE"
1477276;3.28972;44.81111;"03° 17' 23.00'' Est, 44° 48' 40.00'' Nord";"48140";;"ZONE ARTISANALES LES COMBELLES CEI A75 D989";"48200";"SAINT-CHELY-D'APCHER";"Bâtiment"; 22.0;"DDE"
1480602;3.98139;44.48111;"03° 58' 53.00'' Est, 44° 28' 52.00'' Nord";"48015";"VANNE DE TETE DE PIED DE BORNE";"PLANCHAMP";"48800";"PIED-DE-BORNE";"Bâtiment"; 7.0;"EDF ou GDF"
1483139;3.87278;44.50778;"03° 52' 22.00'' Est, 44° 30' 28.00'' Nord";"48119";"MONT DAUNIS";;"48800";"PREVENCHERES";"Pylône autostable"; 22.0;"DDE"
1518276;3.54444;44.65694;"03° 32' 40.00'' Est, 44° 39' 25.00'' Nord";"48127";"ESTABLES";"ESTABLES";"48700";"RIEUTORT-DE-RANDON";"Pylône haubané"; 40.0;"EDF ou GDF"
1518390;3.40917;44.64722;"03° 24' 33.00'' Est, 44° 38' 50.00'' Nord";"48126";"EDF  LAC GAVINET";"RIBENNES LAC DU GAVINET";"48700";"RIBENNES";"Pylône tubulaire"; 8.0;"EDF ou GDF"
1518432;3.23639;44.64306;"03° 14' 11.00'' Est, 44° 38' 35.00'' Nord";"48032";"EDF LAC DU MOULINET";"LE BUISSON, LAC DU MOULINET";"48100";"LE BUISSON";"Bâtiment"; 6.0;"EDF ou GDF"
1527132;3.64083;44.20306;"03° 38' 27.00'' Est, 44° 12' 11.00'' Nord";"48115";"LE FROMENTAL";"COUGOULET CORNICHE DES CÉVENNES";"48110";"LE POMPIDOU";"Pylône autostable"; 20.0;"TDF"
1549128;3.57278;44.79361;"03° 34' 22.00'' Est, 44° 47' 37.00'' Nord";"48174";"LE CALVAIRE";"CHEM CHON DU PASTURAL";"48600";"SAINT-PAUL-LE-FROID";"Pylône autostable"; 24.0;"Conseil Départemental"
1571182;3.81444;44.31194;"03° 48' 52.00'' Est, 44° 18' 43.00'' Nord";"48178";"SIGNAL DE VENTALON";"LOU PRADET";"48240";"SAINT-PRIVAT-DE-VALLONGUE";"Pylône autostable"; 20.5;"Conseil Départemental"
1595366;3.26694;44.79472;"03° 16' 01.00'' Est, 44° 47' 41.00'' Nord";"48140";"LA VIGNOLE";;"48200";"SAINT-CHELY-D'APCHER";"Pylône haubané"; 28.0;"Commune, communauté de commune"
1598732;3.18806;44.77556;"03° 11' 17.00'' Est, 44° 46' 32.00'' Nord";"48058";"TRUC DE L'HOMME";;"48310";"LA FAGE-MONTIVERNOUX";"Mât"; 8.0;"ORANGE Services Fixes"
1599524;3.73972;44.36417;"03° 44' 23.00'' Est, 44° 21' 51.00'' Nord";"48116";"LA MOLINE";;"48220";"LE PONT-DE-MONTVERT";"Mât"; 12.0;"ORANGE"
1600031;3.15972;44.77056;"03° 09' 35.00'' Est, 44° 46' 14.00'' Nord";"48058";"LE POUGET";"LA MEZADONE";"48310";"LA FAGE-MONTIVERNOUX";"Pylône autostable"; 20.0;"Conseil Départemental"
1600563;3.81778;44.71750;"03° 49' 04.00'' Est, 44° 43' 03.00'' Nord";"48080";"SOMMET DE BONJOUR";"TER ÉCHANGEUR";"48300";"LANGOGNE";"Château d'eau - réservoir"; 18.0;"Syndicat des eaux, Adduction"
1608845;3.38556;44.70444;"03° 23' 08.00'' Est, 44° 42' 16.00'' Nord";"48188";"STATION LIMNIMÉTRIQUE";"RUE BASSE TERRAIN DE PÉTANQUE";"48700";"SERVERETTE";"Bâtiment"; 3.0;"EDF ou GDF"
1611026;3.31583;44.53417;"03° 18' 57.00'' Est, 44° 32' 03.00'' Nord";"48107";"TRUC DU MIDI - ORANGE";"RÉÉMETTEUR TDF DE MARVEJOLS";"48100";"PALHERS";"Pylône haubané"; 25.0;"EDF ou GDF"
1635960;3.29056;44.74000;"03° 17' 26.00'' Est, 44° 44' 24.00'' Nord";"48009";"MOUNNEYRE";"ZAC DU PECHER ZAC";"48130";"AUMONT-AUBRAC";"Pylône autostable"; 31.6;"ATC FRANCE"
1643203;3.53528;44.21361;"03° 32' 07.00'' Est, 44° 12' 49.00'' Nord";"48065";"LA LITIÈRE";;"48400";"FRAISSINET-DE-FOURQUES";"Pylône autostable"; 20.0;"HIVORY"
1648952;3.76889;44.14972;"03° 46' 08.00'' Est, 44° 08' 59.00'' Nord";"48097";"LOU SERRE";"ST ROMAN DE TOUSQUE CORNICHE DES CEVENNES";"48110";"MOISSAC-VALLEE-FRANCAISE";"Pylône autostable"; 20.0;"SFR"
1650696;3.25778;44.62778;"03° 15' 28.00'' Est, 44° 37' 40.00'' Nord";"48032";"LA BROUSSE";;"48100";"LE BUISSON";"Pylône autostable"; 22.0;"BOUYGUES"
1652624;3.62444;44.69667;"03° 37' 28.00'' Est, 44° 41' 48.00'' Nord";"48182";"CROIX DE L'HÔPITAL";"LE SERRE CHAM MEIJO";"48170";"SAINT-SAUVEUR-DE-GINESTOUX";"Pylône autostable"; 30.0;"Conseil Départemental"
1653682;3.16583;44.67278;"03° 09' 57.00'' Est, 44° 40' 22.00'' Nord";"48087";"AUMONT-AUBRAC";"ROUTE DE MALBOUZON PROCHE D 73";"48100";"MALBOUZON";"Pylône autostable"; 24.0;"ORANGE"
1661777;3.12000;44.81389;"03° 07' 12.00'' Est, 44° 48' 50.00'' Nord";"48064";"LA PINÈDE";"PRÈS DU RÉSERVOIR";"48310";"FOURNELS";"Pylône tubulaire"; 18.0;"ORANGE Services Fixes"
1661931;3.78417;44.67500;"03° 47' 03.00'' Est, 44° 40' 30.00'' Nord";"48129";"VILLE VIEILLE";"LA SOUCHÈRE";"48300";"ROCLES";"Pylône autostable"; 15.0;"Société Privée SA"
1692024;3.32167;44.29389;"03° 19' 18.00'' Est, 44° 17' 38.00'' Nord";"48088";"CUERFACHE";;"48210";"LA MALENE";"Pylône autostable"; 12.0;"ORANGE"
1692813;3.89806;44.22556;"03° 53' 53.00'' Est, 44° 13' 32.00'' Nord";"48173";"CASTEL NAOU";;"48160";"SAINT-MICHEL-DE-DEZE";"Pylône autostable"; 13.1;"HIVORY"
1702887;3.89861;44.22528;"03° 53' 55.00'' Est, 44° 13' 31.00'' Nord";"48170";"CASTEL NAOU";"SITE ITAS TIM";"48160";"SAINT-MARTIN-DE-BOUBAUX";"Pylône autostable"; 24.0;"TDF"
1703803;3.82389;44.21944;"03° 49' 26.00'' Est, 44° 13' 10.00'' Nord";"48155";"LES MATTES";"SITE ITAS TIM";"48370";"SAINT-GERMAIN-DE-CALBERTE";"Pylône autostable"; 48.0;"TDF"
1705545;3.75528;44.21333;"03° 45' 19.00'' Est, 44° 12' 48.00'' Nord";"48171";"SERRE DES CELETS";;"48110";"SAINT-MARTIN-DE-LANSUSCLE";"Pylône autostable"; 20.0;"Conseil Départemental"
1712545;3.58722;44.32194;"03° 35' 14.00'' Est, 44° 19' 19.00'' Nord";"48061";"RAVINE DE LA CROIX BLANCHE";"RD N°16";"48400";"FLORAC";"Château d'eau - réservoir"; 10.2;"Syndicat des eaux, Adduction"
1712939;3.13389;44.86972;"03° 08' 02.00'' Est, 44° 52' 11.00'' Nord";"48001";"POUMCLADE";"D65";"48310";"ALBARET-LE-COMTAL";"Pylône autostable"; 37.0;"ORANGE"
1714473;3.94639;44.44111;"03° 56' 47.00'' Est, 44° 26' 28.00'' Nord";"48198";"CHAPELAS ROC";"PYLÔNE ITAS TIM";"48800";"VILLEFORT";"Pylône autostable"; 24.0;"TDF"
1715622;3.49722;44.52028;"03° 29' 50.00'' Est, 44° 31' 13.00'' Nord";"48095";;"7B PASSAGE DU CHANOÎNE FÉLIX REMISE";"48000";"MENDE";"Bâtiment"; 9.5;"Société Privée SA"
1723868;3.75083;44.67056;"03° 45' 03.00'' Est, 44° 40' 14.00'' Nord";"48045";"LES COMBES";"VOIE COMMUNALE N° 11 DES COMBES";"48170";"CHAUDEYRAC";"Pylône autostable"; 33.0;"ORANGE"
1727067;3.49417;44.51056;"03° 29' 39.00'' Est, 44° 30' 38.00'' Nord";"48095";"CRÊTE DU MONT MIMAT";"LA LAVADE";"48000";"MENDE";"Pylône autostable"; 27.0;"Towercast"
1730287;3.71250;44.34556;"03° 42' 45.00'' Est, 44° 20' 44.00'' Nord";"48116";"LA PIERRE PLANTEE MENHIR";"PEYRE PLANTADO";"48220";"LE PONT-DE-MONTVERT";"Pylône autostable"; 17.0;"Conseil Départemental"
1735403;3.21528;44.27083;"03° 12' 55.00'' Est, 44° 16' 15.00'' Nord";"48094";"DESALIEGES";"PYLÔNE TÉLÉVISION COMMUNAL";"48500";"LE MASSEGROS";"Pylône autostable"; 12.0;"Commune, communauté de commune"
1745782;3.60778;44.18778;"03° 36' 28.00'' Est, 44° 11' 16.00'' Nord";"48020";;"DRAILLE DU MARQUAIRE";"48400";"BASSURELS";"Pylône autostable"; 18.0;"Conseil Départemental"
1745820;3.58444;44.20667;"03° 35' 04.00'' Est, 44° 12' 24.00'' Nord";"48130";"PRAT NOUVEL";"BUTTE DE PRAT NOUVEL";"48400";"ROUSSES";"Pylône autostable"; 33.0;"TDF"
1749449;3.64444;44.23944;"03° 38' 40.00'' Est, 44° 14' 22.00'' Nord";"48019";"LA CAN NOIRE";"SITE ITAS TIM";"48400";"BARRE-DES-CEVENNES";"Pylône autostable"; 31.0;"TDF"
1749543;3.34389;44.45889;"03° 20' 38.00'' Est, 44° 27' 32.00'' Nord";"48039";"LES ARTS";"SITE ITAS TIM";"48230";"CHANAC";"Pylône autostable"; 30.0;"TDF"
1751981;3.19528;44.41444;"03° 11' 43.00'' Est, 44° 24' 52.00'' Nord";"48181";"LA MARCOUNIÈRE";;"48500";"SAINT-SATURNIN";"Pylône tubulaire"; 12.5;"HIVORY"
1752710;3.33056;44.54389;"03° 19' 50.00'' Est, 44° 32' 38.00'' Nord";"48103";"PÉJAS";"SITE ITAS TIM";"48100";"MONTRODAT";"Pylône autostable"; 18.0;"TDF"
1753440;3.05944;44.66250;"03° 03' 34.00'' Est, 44° 39' 45.00'' Nord";"48104";"ANTIOLES";"SITE ITAS TIM";"48260";"NASBINALS";"Pylône autostable"; 30.0;"TDF"
1755263;3.27722;44.72306;"03° 16' 38.00'' Est, 44° 43' 23.00'' Nord";"48009";"LA JAGUENNE LES HUTTES";"SITE ITAS TIM";"48130";"AUMONT-AUBRAC";"Pylône autostable"; 37.0;"TDF"
1756265;3.75194;44.17194;"03° 45' 07.00'' Est, 44° 10' 19.00'' Nord";"48144";"LES MUSES";"SITE ITAS TIM";"48110";"SAINTE-CROIX-VALLEE-FRANCAISE";"Pylône autostable"; 24.0;"TDF"
1756274;3.87694;44.39333;"03° 52' 37.00'' Est, 44° 23' 36.00'' Nord";"48116";;"MAS DE LA BARQUE";"48220";"LE PONT-DE-MONTVERT";"Pylône tubulaire"; 10.3;"BOUYGUES"
1756279;3.21333;44.46972;"03° 12' 48.00'' Est, 44° 28' 11.00'' Nord";"48034";"LOUS COURNAS";"SITE ITAS TIM";"48500";"LA CANOURGUE";"Pylône autostable"; 49.0;"TDF"
1759146;3.80778;44.64917;"03° 48' 28.00'' Est, 44° 38' 57.00'' Nord";"48048";;"LOU TRAVERS";"48300";"CHEYLARD-L'EVEQUE";"Pylône autostable"; 17.0;"TDF"
1759198;3.28806;44.71889;"03° 17' 17.00'' Est, 44° 43' 08.00'' Nord";"48009";"LE TRUC DU FABRE";;"48130";"AUMONT-AUBRAC";"Pylône autostable"; 38.0;"HIVORY"
1759265;3.73389;44.17583;"03° 44' 02.00'' Est, 44° 10' 33.00'' Nord";"48067";"LA COSTE";"STATION TDF";"48110";"GABRIAC";"Pylône autostable"; 25.0;"TDF"
1763417;3.90000;44.51250;"03° 53' 60.00'' Est, 44° 30' 45.00'' Nord";"48119";"COMBET VIEL";"PYLONE TDF LE CAUSSE";"48800";"PREVENCHERES";"Pylône autostable"; 25.0;"TDF"
1778818;3.65556;44.51111;"03° 39' 20.00'' Est, 44° 30' 40.00'' Nord";"48027";"LES CLAUZELS";;"48190";"LE BLEYMARD";"Pylône autostable"; 8.9;"BOUYGUES"
1779396;3.79583;44.47639;"03° 47' 45.00'' Est, 44° 28' 35.00'' Nord";"48053";;"CAUSSE DE LA VOLTE";"48190";"CUBIERES";"Pylône autostable"; 42.8;"TDF"
1781580;3.85806;44.46361;"03° 51' 29.00'' Est, 44° 27' 49.00'' Nord";"48004";"LA MURE";;"48800";"ALTIER";"Bâtiment"; 7.0;"TDF"
1781594;3.37889;44.49472;"03° 22' 44.00'' Est, 44° 29' 41.00'' Nord";"48055";"MURET";"MAS COMBE BELET RD 808";"48230";"CULTURES";"Pylône autostable"; 20.4;"ATC FRANCE"
1784281;3.44917;44.47806;"03° 26' 57.00'' Est, 44° 28' 41.00'' Nord";"48016";"RONC DEL SARTRE";;"48000";"BALSIEGES";"Pylône autostable"; 22.6;"HIVORY"
1787096;3.70083;44.70778;"03° 42' 03.00'' Est, 44° 42' 28.00'' Nord";"48160";"FAGETTE BASSE";"D.34 LE TRIBE DÉCHETTERIE";"48170";"SAINT-JEAN-LA-FOUILLOUSE";"Pylône autostable"; 33.0;"Conseil Départemental"
1787508;3.65556;44.85167;"03° 39' 20.00'' Est, 44° 51' 06.00'' Nord";"48038";"LE SERRE";"CHON DE PERDRIX CHEM COMMUNAL";"48600";"CHAMBON-LE-CHATEAU";"Pylône autostable"; 20.0;"Conseil Départemental"
1787553;3.16861;44.80722;"03° 10' 07.00'' Est, 44° 48' 26.00'' Nord";"48190";"LAS BARNASSES";;"48310";"TERMES";"Pylône autostable"; 27.0;"Conseil Départemental"
1787567;3.60000;44.72667;"03° 36' 00.00'' Est, 44° 43' 36.00'' Nord";"48108";"LOU MOUROU";"DEVANT LE LIEU";"48600";"LA PANOUSE";"Pylône autostable"; 18.0;"Conseil Départemental"
1789079;3.49917;44.19556;"03° 29' 57.00'' Est, 44° 11' 44.00'' Nord";"48069";"PIED DEL FOUR";"DÉPARTEMENTALE 996";"48150";"GATUZIERES";"Pylône autostable"; 12.0;"HIVORY"
1792770;3.35944;44.48639;"03° 21' 34.00'' Est, 44° 29' 11.00'' Nord";"48056";"TOUTES AURES";;"48230";"ESCLANEDES";"Pylône autostable"; 22.6;"SFR"
1795573;3.82917;44.56000;"03° 49' 45.00'' Est, 44° 33' 36.00'' Nord";"48027";"PRAT CLAUX";"DÉCHARGE";"48250";"LE BLEYMARD";"Pylône autostable"; 27.0;"ATC FRANCE"
1797549;3.22222;44.61361;"03° 13' 20.00'' Est, 44° 36' 49.00'' Nord";"48165";"REYNALDES";"SOLEYROS RÉSERVOIR CHANTEGRENOUILLE";"48100";"SAINT-LAURENT-DE-MURET";"Pylône autostable"; 27.0;"Conseil Départemental"
1819132;3.94222;44.57000;"03° 56' 32.00'' Est, 44° 34' 12.00'' Nord";"48119";"LA SAGNE";"ROUTE DÉPARTEMENTALE 151";"48800";"PREVENCHERES";"Mât béton"; 9.6;"TDF"
1819352;3.25806;44.85861;"03° 15' 29.00'' Est, 44° 51' 31.00'' Nord";"48002";"ROCHER BLANC";"LA GARDE";"48200";"ALBARET-SAINTE-MARIE";"Pylône autostable"; 27.5;"IFW-FREE"
1820008;3.75528;44.57361;"03° 45' 19.00'' Est, 44° 34' 25.00'' Nord";"48151";"LA MONTADE";"CHEMIN DES BOUIOUS";"48170";"SAINT-FREZAL-D'ALBUGES";"Pylône autostable"; 20.0;"ATC FRANCE"
1820042;3.17167;44.52944;"03° 10' 18.00'' Est, 44° 31' 46.00'' Nord";"48187";"LOUS CLAPASSES";;"48100";"LES SALCES";"Pylône autostable"; 20.0;"BOUYGUES"
1820051;3.67306;44.54778;"03° 40' 23.00'' Est, 44° 32' 52.00'' Nord";"48003";"LOU CHAUFSINEL";;"48190";"ALLENC";"Pylône autostable"; 27.0;"ATC FRANCE"
1820535;3.46972;44.78528;"03° 28' 11.00'' Est, 44° 47' 07.00'' Nord";"48149";"TRUC DE CARABOUSSE";"CHEM DE TERRE";"48120";"SAINTE-EULALIE";"Pylône autostable"; 21.0;"Conseil Départemental"
1834383;3.94278;44.41889;"03° 56' 34.00'' Est, 44° 25' 08.00'' Nord";"48135";"LA REIDARIE";;"48800";"SAINT-ANDRE-CAPCEZE";"Pylône autostable"; 22.0;"BOUYGUES"
1835211;3.82694;44.74778;"03° 49' 37.00'' Est, 44° 44' 52.00'' Nord";"48080";;"BARRAGE DE NAUSSAC";"48300";"LANGOGNE";"Bâtiment"; 4.0;"Société Privée SA"
1835213;3.82917;44.74972;"03° 49' 45.00'' Est, 44° 44' 59.00'' Nord";"48080";"MONT MILAN EST";"S3 ROUTE DEPARTEMENTALE 26";"48300";"LANGOGNE";"Mât"; 4.0;"Société Privée SA"
1835215;3.71306;44.80361;"03° 42' 47.00'' Est, 44° 48' 13.00'' Nord";"48139";;"LA CAUSSE DE MONTGROS";"48600";"SAINT-BONNET-DE-MONTAUROUX";"Pylône autostable"; 25.0;"Société Privée SA"
1841713;3.64167;44.65944;"03° 38' 30.00'' Est, 44° 39' 34.00'' Nord";"48008";"GOURNADELLE";"LES CARTALADES CHEMIN RURAL";"48170";"ARZENC-DE-RANDON";"Pylône autostable"; 17.0;"Conseil Départemental"
1841726;3.75361;44.71944;"03° 45' 13.00'' Est, 44° 43' 10.00'' Nord";"48041";"HAUTS DE VILLEVIEILLETTE";;"48300";"CHASTANIER";"Pylône autostable"; 16.0;"Conseil Départemental"
1854757;3.84861;44.74056;"03° 50' 55.00'' Est, 44° 44' 26.00'' Nord";"48080";"ZA DE LANGOGNE";"RTE DE PIGNOL";"48300";"LANGOGNE";"Mât"; 4.0;"Société Privée SA"
1885441;3.94722;44.43972;"03° 56' 50.00'' Est, 44° 26' 23.00'' Nord";"48198";"CHAPELAS";;"48800";"VILLEFORT";"Pylône haubané"; 27.5;"IFW-FREE"
1888262;3.61556;44.56333;"03° 36' 56.00'' Est, 44° 33' 48.00'' Nord";"48111";"LA RODE";"PRÈS G.R. 43";"48000";"PELOUSE";"Pylône autostable"; 30.0;"ORANGE"
1889711;3.19556;44.41444;"03° 11' 44.00'' Est, 44° 24' 52.00'' Nord";"48181";"LA MARCONNIÈRE";"CHEMIN DE TERRE SUR LES CRÊTES SITE SFR";"48500";"SAINT-SATURNIN";"Mât métallique"; 5.0;"ORANGE"
1922282;3.24889;44.58250;"03° 14' 56.00'' Est, 44° 34' 57.00'' Nord";"48005";"FABREGUES";;"48100";"ANTRENAS";"Pylône autostable"; 22.5;"IFW-FREE"
1930439;3.50583;44.53833;"03° 30' 21.00'' Est, 44° 32' 18.00'' Nord";"48095";;"15 RUE DE LA DRAINE ZAC CAUSSE D'AUGE";"48000";"MENDE";"Pylône tubulaire"; 20.0;"ORANGE"
1944524;3.57167;44.32750;"03° 34' 18.00'' Est, 44° 19' 39.00'' Nord";"48061";"ROCHER DE PRADAL";;"48400";"FLORAC";"Pylône haubané"; 28.0;"TDF"
1955191;3.27167;44.54056;"03° 16' 18.00'' Est, 44° 32' 26.00'' Nord";"48099";"ROUBY";"PRÈS N.9";"48100";"LE MONASTIER-PIN-MORIES";"Bâtiment"; 13.0;"Particulier"
1955306;3.29694;44.55306;"03° 17' 49.00'' Est, 44° 33' 11.00'' Nord";"48092";"LE RANQUET";"CHEMIN DE COSTE DRECHE";"48100";"MARVEJOLS";"Pylône tubulaire"; 14.0;"ORANGE"
1985076;3.92417;44.44000;"03° 55' 27.00'' Est, 44° 26' 24.00'' Nord";"48198";;"PRE DE LA FOIRE";"48800";"VILLEFORT";"Pylône tubulaire"; 11.3;"IFW-FREE"
1987693;3.59333;44.32778;"03° 35' 36.00'' Est, 44° 19' 40.00'' Nord";"48061";;"RUE SIPPLE SERT";"48400";"FLORAC";"Immeuble"; 15.2;"Commune, communauté de commune"
1999979;3.84639;44.74167;"03° 50' 47.00'' Est, 44° 44' 30.00'' Nord";"48080";;"ROUTE DE PIGNOL ZI CEI";"48300";"LANGOGNE";"Bâtiment"; 12.0;"DDE"
2016745;3.67306;44.63278;"03° 40' 23.00'' Est, 44° 37' 58.00'' Nord";"48008";;"LE PLO DE L HABITARELLE CEI ARZENC DE RANDON";"48170";"ARZENC-DE-RANDON";"Pylône autostable"; 25.0;"Conseil Départemental"
2016751;3.85333;44.72389;"03° 51' 12.00'' Est, 44° 43' 26.00'' Nord";"48080";;"RUE DU PONTET UNITE TECHNIQUE PLACE DE LA REPUBLIQUE";"48300";"LANGOGNE";"Bâtiment"; 12.0;"Conseil Départemental"
2016759;3.85500;44.73528;"03° 51' 18.00'' Est, 44° 44' 07.00'' Nord";"48080";;"13 RUE DES ABATTOIRS CENTRE TECHNIQUE";"48300";"LANGOGNE";"Bâtiment"; 10.0;"Conseil Départemental"
2016763;3.47611;44.52861;"03° 28' 34.00'' Est, 44° 31' 43.00'' Nord";"48095";;"5 RUE DE LA GARENNE ATELIER PARC TECHNIQ DRTB";"48000";"MENDE";"Bâtiment"; 20.0;"Conseil Départemental"
2016767;3.41278;44.36389;"03° 24' 46.00'' Est, 44° 21' 50.00'' Nord";"48146";;"ROUTE DE MEYRUEIS D986 CTRE TECHNIQUE STE ENIMIE";"48210";"SAINTE-ENIMIE";"Bâtiment"; 9.0;"Conseil Départemental"
2016771;3.80639;44.21611;"03° 48' 23.00'' Est, 44° 12' 58.00'' Nord";"48155";;"ROUTE DE SAINT JEAN DU GARD D984 STATION SERVICE CTRE TECHN";"48370";"SAINT-GERMAIN-DE-CALBERTE";"Bâtiment"; 9.0;"Conseil Départemental"
2016777;3.49806;44.51694;"03° 29' 53.00'' Est, 44° 31' 01.00'' Nord";"48095";;"5 RUE LEON BOYER HOTEL PLAGNES DRTB";"48000";"MENDE";"Bâtiment"; 18.0;"Conseil Départemental"
2016783;3.33500;44.47444;"03° 20' 06.00'' Est, 44° 28' 28.00'' Nord";"48039";;"ROUTE DE MARJOULET ZA DES PLAINES UNITE TECHN";"48230";"CHANAC";"Mât métallique"; 5.0;"Conseil Départemental"
2016785;3.33444;44.47528;"03° 20' 04.00'' Est, 44° 28' 31.00'' Nord";"48039";;"ALLEE DES ARTISANS ZA DES PLAINES CTRE TECHN";"48230";"CHANAC";"Bâtiment"; 12.0;"Conseil Départemental"
2016795;3.34167;44.86472;"03° 20' 30.00'' Est, 44° 51' 53.00'' Nord";"48090";"LA BRUGERETTE";"ROUTE DE SAUGUES D989 CTRE TECHNIQUE";"48140";"LE MALZIEU-VILLE";"Bâtiment"; 9.0;"Conseil Départemental"
2017116;3.90361;44.58778;"03° 54' 13.00'' Est, 44° 35' 16.00'' Nord";"48021";;"CHEMIN DE LA NARCE CENTRE TECHNIQQUE";"48250";"LA BASTIDE-PUYLAURENT";"Pylône autostable"; 22.0;"Conseil Départemental"
2017120;3.28194;44.72028;"03° 16' 55.00'' Est, 44° 43' 13.00'' Nord";"48009";;"28 ROUTE  D'AUBRAC CENTRE TECHNIQUE AUMONT";"48130";"AUMONT-AUBRAC";"Bâtiment"; 14.0;"Conseil Départemental"
2017131;3.19306;44.43250;"03° 11' 35.00'' Est, 44° 25' 57.00'' Nord";"48017";;"QUARTIER DE PISSALEBRE LA CANOURGUE";"48500";"BANASSAC";"Bâtiment"; 10.0;"Conseil Départemental"
2017135;3.73972;44.49083;"03° 44' 23.00'' Est, 44° 29' 27.00'' Nord";"48027";;"ROUTE DU GOULET ZONE ARTISANALE D20 CENTRE TECHNIQUE";"48190";"LE BLEYMARD";"Bâtiment"; 15.0;"Conseil Départemental"
2017139;3.20972;44.42306;"03° 12' 35.00'' Est, 44° 25' 23.00'' Nord";"48034";"LAS FOURQUES ROQUEPRINS";"LES FOURQUES ROQUEPRINS";"48500";"LA CANOURGUE";"Pylône autostable"; 22.0;"DDE"
2017147;3.90722;44.25028;"03° 54' 26.00'' Est, 44° 15' 01.00'' Nord";"48051";"LE SAUNIER";"RN 106 CENTRE TECHNIQUE";"48160";"LE COLLET-DE-DEZE";"Bâtiment"; 10.0;"Conseil Départemental"
2017168;3.58083;44.34333;"03° 34' 51.00'' Est, 44° 20' 36.00'' Nord";"48061";;"IMPASSE DE LA MIMENTE ZA DE ST JULIEN DU GOURG";"48400";"FLORAC";"Pylône autostable"; 23.0;"Conseil Départemental"
2017175;3.12250;44.81306;"03° 07' 21.00'' Est, 44° 48' 47.00'' Nord";"48064";"LA VACHERIE";"ROUTE DE FAGE MONTIVERNOUX D53 CENTRE TECHNIQUE";"48310";"FOURNELS";"Bâtiment"; 13.0;"Conseil Départemental"
2017179;3.63250;44.78750;"03° 37' 57.00'' Est, 44° 47' 15.00'' Nord";"48070";;"ROUTE DU PUY D5 CENTRE  TECHNIQUE";"48600";"GRANDRIEU";"Bâtiment"; 12.0;"Conseil Départemental"
2017186;3.29528;44.55611;"03° 17' 43.00'' Est, 44° 33' 22.00'' Nord";"48092";;"9 RUE DU STADE CENTRE  TECHNIQUE";"48100";"MARVEJOLS";"Bâtiment"; 18.0;"Conseil Départemental"
2017197;3.17611;44.31139;"03° 10' 34.00'' Est, 44° 18' 41.00'' Nord";"48094";;"QUARTIER DE LA MARNE HAUTE CENTRE  TECHNIQUE";"48500";"LE MASSEGROS";"Mât métallique"; 4.0;"Conseil Départemental"
2017201;3.44167;44.19389;"03° 26' 30.00'' Est, 44° 11' 38.00'' Nord";"48096";"LA MAGNANERIE";"ROUTE  DE FLORAC D 996 ZA CAMBON";"48150";"MEYRUEIS";"Bâtiment"; 10.0;"Conseil Départemental"
2017216;3.05083;44.66222;"03° 03' 03.00'' Est, 44° 39' 44.00'' Nord";"48104";;"ROUTE DE MALBOUZON CENTRE TECHNIQUE LA DEZEVETTE";"48260";"NASBINALS";"Bâtiment"; 12.0;"Conseil Départemental"
2017226;3.75833;44.36000;"03° 45' 30.00'' Est, 44° 21' 36.00'' Nord";"48116";;"ROUTE DE VIALAS FONDCHALDETTE CENTRE TECHN";"48220";"LE PONT-DE-MONTVERT";"Bâtiment"; 10.0;"Conseil Départemental"
2017234;3.48556;44.63444;"03° 29' 08.00'' Est, 44° 38' 04.00'' Nord";"48127";;"ROUTE  DE CHARPAL LE VIALERET";"48700";"RIEUTORT-DE-RANDON";"Bâtiment"; 11.0;"Conseil Départemental"
2017239;3.38167;44.77806;"03° 22' 54.00'' Est, 44° 46' 41.00'' Nord";"48132";;"AVENUE DE SAINT CHELY D'APCHER D987 CT LA BAYSSE";"48120";"SAINT-ALBAN-SUR-LIMAGNOLE";"Bâtiment"; 11.0;"Conseil Départemental"
2017246;3.28333;44.80861;"03° 16' 60.00'' Est, 44° 48' 31.00'' Nord";"48140";;"1 RUE DE L'INITIATIVE       CENTRE ET UNITÉ TECHNIQUE";"48200";"SAINT-CHELY-D'APCHER";"Bâtiment"; 9.0;"Conseil Départemental"
2017252;3.32583;44.80083;"03° 19' 33.00'' Est, 44° 48' 03.00'' Nord";"48140";"ESPOUZOLLES";"COMBEYRA ESPOUZOLLES";"48200";"SAINT-CHELY-D'APCHER";"Pylône autostable"; 20.0;"Conseil Départemental"
2017266;3.24889;44.64944;"03° 14' 56.00'' Est, 44° 38' 58.00'' Nord";"48009";"COL DES ISSARTETS";"ECHANGEUR D53/ A75 COL DES ISSARTETS";"48130";"AUMONT-AUBRAC";"Pylône autostable"; 32.0;"DDE"
2017274;3.73611;44.18528;"03° 44' 10.00'' Est, 44° 11' 07.00'' Nord";"48144";"LA BRUGUIÈRE";"D983 CENTRE  TECHNIQUE";"48110";"SAINTE-CROIX-VALLEE-FRANCAISE";"Bâtiment"; 9.0;"Conseil Départemental"
2017289;3.92528;44.44111;"03° 55' 31.00'' Est, 44° 26' 28.00'' Nord";"48198";;"RUE DU PRÉ DE LA FOIRE CENTRE TECHNIQUE";"48800";"VILLEFORT";"Pylône autostable"; 24.0;"Conseil Départemental"
2018692;3.52694;44.50750;"03° 31' 37.00'' Est, 44° 30' 27.00'' Nord";"48095";;"AÉRODROME DE BRENDE BRENOUX";"48000";"MENDE";"Pylône autostable"; 20.0;"ORANGE"
2021311;3.72500;44.31722;"03° 43' 30.00'' Est, 44° 19' 02.00'' Nord";"48116";"SIGNAL DE BOUGES";;"48220";"LE PONT-DE-MONTVERT";"Pylône autostable"; 17.0;"DDE"
2034878;3.34444;44.45889;"03° 20' 40.00'' Est, 44° 27' 32.00'' Nord";"48039";"SERRE DEL BOUYS";;"48230";"CHANAC";"Pylône autostable"; 30.0;"TDF"
2042456;3.13556;44.70056;"03° 08' 08.00'' Est, 44° 42' 02.00'' Nord";"48087";"LE VILLAGE";"ECOLE RUE DE LA VIOLLE D987";"48270";"MALBOUZON";"Bâtiment"; 12.0;"Commune, communauté de commune"
2052271;3.40194;44.37139;"03° 24' 07.00'' Est, 44° 22' 17.00'' Nord";"48146";"LOU PUECH";"DIGNAS";"48210";"SAINTE-ENIMIE";"Pylône autostable"; 18.0;"ORANGE"
2067089;3.38222;44.75000;"03° 22' 56.00'' Est, 44° 45' 00.00'' Nord";"48063";"LOU TRUC";"RÉSERVOIR DE BERGOUGNOUX";"48700";"FONTANS";"Pylône autostable"; 30.0;"ORANGE"
2067093;3.37250;44.77750;"03° 22' 21.00'' Est, 44° 46' 39.00'' Nord";"48132";"GALIER";"PRÉS D987";"48120";"SAINT-ALBAN-SUR-LIMAGNOLE";"Pylône autostable"; 21.0;"ORANGE"
2093180;3.48056;44.51583;"03° 28' 50.00'' Est, 44° 30' 57.00'' Nord";"48095";;"AVE DE RAMILLES HYPER U ZAC DE RAMILLES";"48000";"MENDE";"Immeuble"; 10.0;"Société Privée SA"
2096352;3.56028;44.43472;"03° 33' 37.00'' Est, 44° 26' 05.00'' Nord";"48147";"LE MONTET";"DEMARRAGE ARP MED";"48000";"SAINT-ETIENNE-DU-VALDONNEZ";"Pylône autostable"; 27.0;"BOUYGUES"
2096839;3.13417;44.37806;"03° 08' 03.00'' Est, 44° 22' 41.00'' Nord";"48191";;"LONGVIALA";"48500";"LA TIEULE";"Pylône autostable"; 32.7;"IFW-FREE"
2138585;3.48139;44.52500;"03° 28' 53.00'' Est, 44° 31' 30.00'' Nord";"48095";;"48 AV DU 11 NOVEMBRE BUREAU IBS";"48000";"MENDE";"Immeuble"; 13.0;"Société Privée SA"
2162215;3.20917;44.42278;"03° 12' 33.00'' Est, 44° 25' 22.00'' Nord";"48034";"LAS FOURQUES ROQUEPRINCE";;"48500";"LA CANOURGUE";"Pylône autostable"; 23.0;"Towercast"
2163877;3.25278;44.49611;"03° 15' 10.00'' Est, 44° 29' 46.00'' Nord";"48138";"LA ROUVIÈRE";"VERS N.9";"48100";"SAINT-BONNET-DE-CHIRAC";"Pylône autostable"; 38.0;"ORANGE"
2168750;3.47861;44.80139;"03° 28' 43.00'' Est, 44° 48' 05.00'' Nord";"48149";"MALPERTUS";"RÉSERVE DES BISONS D'EUROPE DE LA MARGERIDE";"48120";"SAINTE-EULALIE";"Pylône autostable"; 30.0;"ORANGE"
2174056;3.69000;44.53000;"03° 41' 24.00'' Est, 44° 31' 48.00'' Nord";"48003";"LOU CLO DE LA LOUVIEIRE SUD";"ANCIENNE VOIE COMMUNALE N° 8";"48190";"ALLENC";"Pylône autostable"; 24.0;"ORANGE"
2175368;3.35194;44.24056;"03° 21' 07.00'' Est, 44° 14' 26.00'' Nord";"48074";"LAS BROUELLAS";;"48150";"HURES-LA-PARADE";"Pylône autostable"; 24.0;"ORANGE"
2179578;3.45778;44.29389;"03° 27' 28.00'' Est, 44° 17' 38.00'' Nord";"48074";;"AERODROME CHANET VOL A VOILE D16 - NIVOLIERS";"48150";"HURES-LA-PARADE";"Pylône autostable"; 43.0;"IFW-FREE"
2180050;3.60917;44.34944;"03° 36' 33.00'' Est, 44° 20' 58.00'' Nord";"48050";"RAVIN DES BANDUFFES";;"48400";"COCURES";"Pylône autostable"; 24.0;"TDF"
2181240;3.68472;44.49056;"03° 41' 05.00'' Est, 44° 29' 26.00'' Nord";"48027";;"LE ROUSTIL";"48190";"LE BLEYMARD";"Pylône autostable"; 33.3;"TDF"
2189854;3.12444;44.55417;"03° 07' 28.00'' Est, 44° 33' 15.00'' Nord";"48073";"BONNECOMBE";"D52";"48340";"LES HERMAUX";"Pylône autostable"; 43.0;"IFW-FREE"
2193657;3.38361;44.70389;"03° 23' 01.00'' Est, 44° 42' 14.00'' Nord";"48188";;"TDF SERVERETTE";"48700";"SERVERETTE";"Pylône autostable"; 34.0;"TDF"
2199213;3.50139;44.56222;"03° 30' 05.00'' Est, 44° 33' 44.00'' Nord";"48042";"BARRAQUE";"RN 106 D806";"48000";"CHASTEL-NOUVEL";"Bâtiment"; 15.0;"ORANGE Services Fixes"
2201321;3.28750;44.64833;"03° 17' 15.00'' Est, 44° 38' 54.00'' Nord";"48009";"ROC DE PEYRE";;"48130";"AUMONT-AUBRAC";"Mât"; 4.0;"ORANGE"
2214808;3.42806;44.47806;"03° 25' 41.00'' Est, 44° 28' 41.00'' Nord";"48016";"LA CROUZETTE";"RÉSERVOIR DE BRAMONAS";"48000";"BALSIEGES";"Pylône autostable"; 15.0;"ORANGE"
2217193;3.26694;44.91528;"03° 16' 01.00'' Est, 44° 54' 55.00'' Nord";"48046";"REGARDES";"VC N°4 DE NOZEIROLLES À JULIANGES";"48140";"CHAULHAC";"Pylône autostable"; 24.0;"ORANGE"
2222858;3.27361;44.48028;"03° 16' 25.00'' Est, 44° 28' 49.00'' Nord";"48185";"CHAUSSINEL";"ROUTE DU MONTET";"48230";"LES SALELLES";"Pylône autostable"; 12.0;"ORANGE"
2224534;3.70806;44.26889;"03° 42' 29.00'' Est, 44° 16' 08.00'' Nord";"48036";"LE MAGISTAVOL";"SOMMET DU MAGISTAVOL";"48400";"CASSAGNAS";"Pylône autostable"; 20.0;"ORANGE"
2227725;3.29083;44.39000;"03° 17' 27.00'' Est, 44° 23' 24.00'' Nord";"48034";"LE PAVILLON";;"48500";"LA CANOURGUE";"Pylône autostable"; 35.0;"TDF"
2228075;3.88167;44.54972;"03° 52' 54.00'' Est, 44° 32' 59.00'' Nord";"48021";"LAS BROS";;"48250";"LA BASTIDE-PUYLAURENT";"Pylône autostable"; 33.0;"BOUYGUES"
2228257;3.36972;44.88556;"03° 22' 11.00'' Est, 44° 53' 08.00'' Nord";"48089";"COUFFOURS BAS";;"48140";"LE MALZIEU-FORAIN";"Pylône autostable"; 33.3;"TDF"
2240042;3.21639;44.39222;"03° 12' 59.00'' Est, 44° 23' 32.00'' Nord";"48034";"LOU LEGALA";"GR 6";"48500";"LA CANOURGUE";"Pylône autostable"; 31.0;"ORANGE"
2241608;3.54361;44.30750;"03° 32' 37.00'' Est, 44° 18' 27.00'' Nord";"48146";"LA MERCOIRE";"R.D N°16 DE FLORAC A SEVERAC";"48210";"SAINTE-ENIMIE";"Pylône autostable"; 45.0;"SFR"
2242116;3.09667;44.51111;"03° 05' 48.00'' Est, 44° 30' 40.00'' Nord";"48192";"LOU RADEAU";;"48340";"TRELANS";"Pylône autostable"; 36.3;"BOUYGUES"
2259971;3.23056;44.30083;"03° 13' 50.00'' Est, 44° 18' 03.00'' Nord";"48094";"MONTCAN";"PROCHE DE LA D46";"48500";"LE MASSEGROS";"Pylône autostable"; 20.3;"IFW-FREE"
2262425;3.24583;44.88972;"03° 14' 45.00'' Est, 44° 53' 23.00'' Nord";"48002";"LAUBINET";"VOIE COMMUNALE N°4";"48200";"ALBARET-SAINTE-MARIE";"Pylône autostable"; 24.0;"ORANGE"
2263847;3.29861;44.42722;"03° 17' 55.00'' Est, 44° 25' 38.00'' Nord";"48034";"BOUOS GROND";"LES CROUZETS";"48500";"LA CANOURGUE";"Pylône autostable"; 15.0;"ORANGE"
2268142;3.47528;44.32833;"03° 28' 31.00'' Est, 44° 19' 42.00'' Nord";"48146";"LES ISSARTS";;"48210";"SAINTE-ENIMIE";"Pylône autostable"; 24.0;"SFR"
2276369;3.90000;44.51250;"03° 53' 60.00'' Est, 44° 30' 45.00'' Nord";"48119";"LE CAUSSE";"CHALCHEIROU";"48800";"PREVENCHERES";"Pylône autostable"; 20.0;"TDF"
2281629;3.98611;44.47972;"03° 59' 10.00'' Est, 44° 28' 47.00'' Nord";"48015";"USINE PIED DE BORNE";"CENTRALE HYDROÉLECTRIQUE";"48800";"PIED-DE-BORNE";"Bâtiment"; 5.0;"EDF ou GDF"
2293803;3.46750;44.57444;"03° 28' 03.00'' Est, 44° 34' 28.00'' Nord";"48042";"MT D'ASPRES";;"48000";"CHASTEL-NOUVEL";"Pylône autostable"; 36.0;"Towercast"
2305990;3.30667;44.43250;"03° 18' 24.00'' Est, 44° 25' 57.00'' Nord";"48039";"LE BOUILLERON";;"48230";"CHANAC";"Pylône autostable"; 38.3;"IFW-FREE"
2312905;3.26139;44.33167;"03° 15' 41.00'' Est, 44° 19' 54.00'' Nord";"48094";"PUECH FRECH";;"48500";"LE MASSEGROS";"Pylône autostable"; 44.9;"IFW-FREE"
2312907;3.39889;44.57778;"03° 23' 56.00'' Est, 44° 34' 40.00'' Nord";"48127";"LA COSTO";"MONTS DE RANDON";"48000";"RIEUTORT-DE-RANDON";"Pylône autostable"; 33.3;"IFW-FREE"
2318492;3.78083;44.41944;"03° 46' 51.00'' Est, 44° 25' 10.00'' Nord";"48116";"COL DE FINIELS";"ANCIENNE VOIE ROMAINE CHEMIN FERRE DRAILLE DU LANGUEDOC";"48220";"LE PONT-DE-MONTVERT";"Pylône autostable"; 39.2;"BOUYGUES"
2329554;3.27694;44.30722;"03° 16' 37.00'' Est, 44° 18' 26.00'' Nord";"48094";"CROUZATUS";"A 500 METRES DE LA D907";"48500";"LE MASSEGROS";"Pylône autostable"; 20.9;"IFW-FREE"
2348287;3.78111;44.59944;"03° 46' 52.00'' Est, 44° 35' 58.00'' Nord";"48151";"NARCILLES";"CHEMIN FORESTIER PROCHE D71";"48170";"SAINT-FREZAL-D'ALBUGES";"Pylône autostable"; 32.8;"Etat, Ministère"
2364879;3.73778;44.46583;"03° 44' 16.00'' Est, 44° 27' 57.00'' Nord";"48027";"LIORON MAS D'ORCIÈRES";;"48190";"LE BLEYMARD";"Pylône autostable"; 32.0;"Towercast"
2378829;3.70667;44.38639;"03° 42' 24.00'' Est, 44° 23' 11.00'' Nord";"48116";"LA NASSE";"ROUTE DE PALHASSA";"48220";"LE PONT-DE-MONTVERT";"Pylône autostable"; 6.0;"PHOENIX FRANCE INFRASTRUCTURES"
2378831;3.76194;44.39417;"03° 45' 43.00'' Est, 44° 23' 39.00'' Nord";"48116";"LAS SARETTES";"CHEMIN RURAL PRES ROUTE DE MONTGROS";"48220";"LE PONT-DE-MONTVERT";"Pylône autostable"; 12.0;"PHOENIX FRANCE INFRASTRUCTURES"
2385811;3.74611;44.40917;"03° 44' 46.00'' Est, 44° 24' 33.00'' Nord";"48116";"LOU FOUSSAL";"CHEMIN RURAL PRES DE L' EBOULIS BASALTIQUE LE COMBARAS";"48220";"LE PONT-DE-MONTVERT";"Pylône autostable"; 12.0;"Particulier"
2405901;3.82694;44.44444;"03° 49' 37.00'' Est, 44° 26' 40.00'' Nord";"48004";"SERRE DE LAS LATTES";"CHEMIN RURAL";"48800";"ALTIER";"Pylône autostable"; 30.0;"TDF"
2412483;3.48111;44.62889;"03° 28' 52.00'' Est, 44° 37' 44.00'' Nord";"48127";"PUECH PRIVAT";"RUE DE SALASSOUS";"48700";"RIEUTORT-DE-RANDON";"Pylône autostable"; 33.3;"IFW-FREE"
2432146;3.84667;44.72583;"03° 50' 48.00'' Est, 44° 43' 33.00'' Nord";"48080";"LES LOMBARDS";"RÉSERVOIR";"48300";"LANGOGNE";"Château d'eau - réservoir"; 12.0;"Commune, communauté de commune"
2437843;3.25556;44.54972;"03° 15' 20.00'' Est, 44° 32' 59.00'' Nord";"48099";"LA CROIX DES ANGLAIS";"ROUTE DES ANGLAIS";"48100";"LE MONASTIER-PIN-MORIES";"Pylône autostable"; 21.0;"DDE"
2442280;3.60333;44.66417;"03° 36' 12.00'' Est, 44° 39' 51.00'' Nord";"48008";"LAS FAYSSES";;"48170";"ARZENC-DE-RANDON";"Pylône autostable"; 24.0;"ORANGE"
