Numéro du support;Longitude;Latitude;"Position";"Insee";"Lieu dit";"Adresse";"Code postal";"Commune";"Nature du support";Hauteur en m;"Propriétaire"
12112;-1.01722;47.36111;"01° 01' 02.00'' Ouest, 47° 21' 40.00'' Nord";"49276";;"R DE LA BELLIERE CENTRAL TÉLÉPHONIQUE";"49410";"SAINT-FLORENT-LE-VIEIL";"Pylône autostable"; 10.0;"ORANGE Services Fixes"
12138;-1.32028;47.31306;"01° 19' 13.00'' Ouest, 47° 18' 47.00'' Nord";"49360";;"RUE D'ANJOU CENTRAL TÉLÉPHONIQUE";"49270";"LA VARENNE";"Pylône tubulaire"; 13.0;"ORANGE Services Fixes"
12160;-0.11889;47.40389;"00° 07' 08.00'' Ouest, 47° 24' 14.00'' Nord";"49180";;"PK 24 A85";"49160";"LONGUE-JUMELLES";"Pylône tubulaire"; 18.0;"Sociétés d'Autoroutes"
12162;-0.06167;47.34222;"00° 03' 42.00'' Ouest, 47° 20' 32.00'' Nord";"49030";;"PK 32,6 A 85";"49160";"BLOU";"Support non décrit";;
22999;-0.53722;47.47056;"00° 32' 14.00'' Ouest, 47° 28' 14.00'' Nord";"49007";;"3 R DE LA RAME STUDIO MARKETING SCAN-TV10";"49100";"ANGERS";"Bâtiment"; 50.0;"Copropriété, Syndic, SCI"
32631;-0.34139;47.17917;"00° 20' 29.00'' Ouest, 47° 10' 45.00'' Nord";"49104";"LE CLOS DES BATES";;"49700";"CONCOURSON-SUR-LAYON";"Pylône autostable"; 45.0;"SFR"
32633;-1.11250;47.11417;"01° 06' 45.00'' Ouest, 47° 06' 51.00'' Nord";"49285";"LA BÛCHERIE";;"49230";"SAINT-GERMAIN-SUR-MOINE";"Pylône autostable"; 48.0;"SFR"
32637;-1.02111;47.18139;"01° 01' 16.00'' Ouest, 47° 10' 53.00'' Nord";"49072";;"R DES VRENNES CHÂTEAU D'EAU LA VIGNARDIÈRE";"49600";"LA CHAPELLE-DU-GENET";"Château d'eau - réservoir"; 45.0;"Commune, communauté de commune"
32735;-0.09750;47.48667;"00° 05' 51.00'' Ouest, 47° 29' 12.00'' Nord";"49116";;"LE BOIS MORIN";"49150";"CUON";"Pylône autostable"; 35.0;"SFR"
32749;-0.07417;47.36528;"00° 04' 27.00'' Ouest, 47° 21' 55.00'' Nord";"49030";;"LES RAVAUX";"49160";"BLOU";"Pylône autostable"; 35.0;"SFR"
32755;-1.01250;47.20389;"01° 00' 45.00'' Ouest, 47° 12' 14.00'' Nord";"49023";"LES HAUTES ROCHES";;"49600";"BEAUPREAU";"Pylône autostable"; 40.0;"SFR"
64542;-0.90333;47.00583;"00° 54' 12.00'' Ouest, 47° 00' 21.00'' Nord";"49099";"P.S. LE PUY-ST-BONNET";;"49300";"CHOLET";"Pylône autostable"; 40.0;"Sociétés d'Autoroutes"
64546;-0.54083;47.39778;"00° 32' 27.00'' Ouest, 47° 23' 52.00'' Nord";"49223";"CHÂTEAU D'EAU";;"49610";"MURS-ERIGNE";"Pylône autostable"; 30.0;
64815;-0.57639;47.36222;"00° 34' 35.00'' Ouest, 47° 21' 44.00'' Nord";"49222";"SOUVIGNÉ";"A87";"49610";"MOZE-SUR-LOUET";"Mât béton"; 14.0;"Sociétés d'Autoroutes"
64817;-0.78500;47.17778;"00° 47' 06.00'' Ouest, 47° 10' 40.00'' Nord";"49281";;"ACCÈS DE SERVICE OUEST (RD 349)";"49120";"SAINT-GEORGES-DES-GARDES";"Pylône autostable"; 20.0;"Sociétés d'Autoroutes"
64888;-0.82806;47.10861;"00° 49' 41.00'' Ouest, 47° 06' 31.00'' Nord";"49355";"P.S. LA GADELLERIE";;"49340";"TREMENTINES";"Pylône autostable"; 14.0;"Sociétés d'Autoroutes"
79626;-1.09278;47.66000;"01° 05' 34.00'' Ouest, 47° 39' 36.00'' Nord";"49354";"GENÊT D'ESPAGNE";"CD LANDES DE LA BATAILLE";"49520";"LE TREMBLAY";"Tour hertzienne"; 77.0;"TDF"
97616;-0.71972;47.55722;"00° 43' 11.00'' Ouest, 47° 33' 26.00'' Nord";"49200";"LE PAS DE CHAT";;"49770";"LA MEMBROLLE-SUR-LONGUENEE";"Pylône autostable"; 45.0;
97652;-0.91528;47.43000;"00° 54' 55.00'' Ouest, 47° 25' 48.00'' Nord";"49068";"LA MALNOUE";"CHEM RURAL PRÈS D.51";"49123";"CHAMPTOCE-SUR-LOIRE";"Pylône autostable"; 35.0;"ORANGE"
97728;0.00667;47.52528;"00° 00' 24.00'' Est, 47° 31' 31.00'' Nord";"49173";"LE SAULE VERT";;"49490";"LASSE";"Pylône autostable"; 31.0;"ORANGE"
97730;-0.58833;47.29167;"00° 35' 18.00'' Ouest, 47° 17' 30.00'' Nord";"49256";"LES BOLÈVES";"Z.A. LA ROCHE";"49750";"RABLAY-SUR-LAYON";"Pylône autostable"; 33.0;"ORANGE"
97786;-0.35556;47.46556;"00° 21' 20.00'' Ouest, 47° 27' 56.00'' Nord";"49106";;"CHEM RURAL DIT ALLÉE EST DES ROUTOIRS";"49630";"CORNE";"Pylône autostable"; 36.0;"ORANGE"
117031;-0.80306;47.57167;"00° 48' 11.00'' Ouest, 47° 34' 18.00'' Nord";"49043";"PETIT COURBET";;"49220";"BRAIN-SUR-LONGUENEE";"Pylône autostable"; 42.0;"ORANGE Services Fixes"
117077;-0.10667;47.54611;"00° 06' 24.00'' Ouest, 47° 32' 46.00'' Nord";"49018";;"AV DE PARIS CENTRAL TÉLÉPHONIQUE";"49150";"BAUGE";"Bâtiment"; 87.0;
117168;-0.43222;47.22833;"00° 25' 56.00'' Ouest, 47° 13' 42.00'' Nord";"49191";"MAUVAISE CASSE";"R DU LAYON";"49540";"MARTIGNE-BRIAND";"Bâtiment"; 6.0;"ORANGE Services Fixes"
161213;-0.56250;47.46944;"00° 33' 45.00'' Ouest, 47° 28' 10.00'' Nord";"49007";;"TREMIE BASSE CHAINE";"49100";"ANGERS";"Support non décrit"; 10.0;
161215;-0.55361;47.47750;"00° 33' 13.00'' Ouest, 47° 28' 39.00'' Nord";"49007";;"TREMIE HAUTE CHAINE";"49100";"ANGERS";"Support non décrit"; 5.0;
161219;-0.55806;47.47222;"00° 33' 29.00'' Ouest, 47° 28' 20.00'' Nord";"49007";;"TREMIE VERDUN QUAI LIGNY";"49100";"ANGERS";"Support non décrit"; 7.0;
161221;-0.55611;47.47389;"00° 33' 22.00'' Ouest, 47° 28' 26.00'' Nord";"49007";;"TREMIE MOLIERE QUAI BAZIN";"49100";"ANGERS";"Support non décrit"; 12.0;
161223;-0.61750;47.46944;"00° 37' 03.00'' Ouest, 47° 28' 10.00'' Nord";"49007";;"PMV1    NID DE PIE  N 23";"49100";"ANGERS";"Support non décrit"; 7.0;
161225;-0.58417;47.46778;"00° 35' 03.00'' Ouest, 47° 28' 04.00'' Nord";"49007";;"PMV2  LAC DE MAINE  N 23";"49100";"ANGERS";"Support non décrit"; 7.0;
161229;-0.55000;47.48111;"00° 33' 00.00'' Ouest, 47° 28' 52.00'' Nord";"49007";;"PMV 4  VOIES SUR BERGES  N23";"49100";"ANGERS";"Support non décrit"; 7.0;
167936;-0.84250;47.30028;"00° 50' 33.00'' Ouest, 47° 18' 01.00'' Nord";"49268";;"BEL AIR";"49120";"SAINTE-CHRISTINE";"Support non décrit"; 10.0;
167938;-0.82972;47.30944;"00° 49' 47.00'' Ouest, 47° 18' 34.00'' Nord";"49039";;"LES ALOUETTES";"49290";"BOURGNEUF-EN-MAUGES";"Support non décrit"; 10.0;
167940;-0.78667;47.32556;"00° 47' 12.00'' Ouest, 47° 19' 32.00'' Nord";"49295";;"LA RIRAIE";"49290";"SAINT-LAURENT-DE-LA-PLAINE";"Support non décrit"; 10.0;
167942;-0.76139;47.30222;"00° 45' 41.00'' Ouest, 47° 18' 08.00'' Nord";"49169";;"LE MOULIN";"49120";"LA JUMELLIERE";"Support non décrit"; 10.0;
167944;-0.75972;47.31111;"00° 45' 35.00'' Ouest, 47° 18' 40.00'' Nord";"49082";;"LA GAGNERIE";"49290";"CHAUDEFONDS-SUR-LAYON";"Support non décrit"; 10.0;
167946;-0.81639;47.29944;"00° 48' 59.00'' Ouest, 47° 17' 58.00'' Nord";"49295";;"LA LANCONNIERE";"49290";"SAINT-LAURENT-DE-LA-PLAINE";"Support non décrit"; 10.0;
167948;-0.71556;47.29861;"00° 42' 56.00'' Ouest, 47° 17' 55.00'' Nord";"49169";;"VAL OLLIVE";"49120";"LA JUMELLIERE";"Support non décrit"; 10.0;
167958;-0.82083;47.32722;"00° 49' 15.00'' Ouest, 47° 19' 38.00'' Nord";"49295";;"LA BRUNETIERE";"49290";"SAINT-LAURENT-DE-LA-PLAINE";"Support non décrit"; 10.0;
167960;-0.89722;47.06806;"00° 53' 50.00'' Ouest, 47° 04' 05.00'' Nord";"49099";;"LA MENAGERIE";"49300";"CHOLET";"Support non décrit"; 10.0;
167962;-0.79389;47.31556;"00° 47' 38.00'' Ouest, 47° 18' 56.00'' Nord";"49295";;"RTE DE ST LAMBERT DU LATTAY";"49290";"SAINT-LAURENT-DE-LA-PLAINE";"Support non décrit"; 10.0;
167964;-0.74528;47.40472;"00° 44' 43.00'' Ouest, 47° 24' 17.00'' Nord";"49283";;"LES LANDES";"49170";"SAINT-GEORGES-SUR-LOIRE";"Support non décrit"; 10.0;
167968;-0.79194;47.33444;"00° 47' 31.00'' Ouest, 47° 20' 04.00'' Nord";"49063";;"LES VANNEAUX";"49290";"CHALONNES-SUR-LOIRE";"Support non décrit"; 10.0;
167972;-0.82083;47.34611;"00° 49' 15.00'' Ouest, 47° 20' 46.00'' Nord";"49244";;"LES TURPINIERES";"49620";"LA POMMERAYE";"Support non décrit"; 10.0;
167974;-0.82444;47.28778;"00° 49' 28.00'' Ouest, 47° 17' 16.00'' Nord";"49268";;"LA BOULAIE";"49120";"SAINTE-CHRISTINE";"Support non décrit"; 10.0;
167986;-0.78028;47.30111;"00° 46' 49.00'' Ouest, 47° 18' 04.00'' Nord";"49295";;"LA ROULONNIERE";"49290";"SAINT-LAURENT-DE-LA-PLAINE";"Support non décrit"; 10.0;
167988;-0.78222;47.30389;"00° 46' 56.00'' Ouest, 47° 18' 14.00'' Nord";"49295";;"BELLE EPINE";"49290";"SAINT-LAURENT-DE-LA-PLAINE";"Support non décrit"; 10.0;
193662;-0.50750;47.50194;"00° 30' 27.00'' Ouest, 47° 30' 07.00'' Nord";"49129";;"BD DE L INDUSTRIE";"49000";"ECOUFLANT";"Support non décrit"; 39.0;
193668;-0.77306;47.30750;"00° 46' 23.00'' Ouest, 47° 18' 27.00'' Nord";"49295";;"LA BOHARDIERE";"49290";"SAINT-LAURENT-DE-LA-PLAINE";"Support non décrit"; 30.0;
193712;-0.31778;47.41111;"00° 19' 04.00'' Ouest, 47° 24' 40.00'' Nord";"49307";;"78 R DU ROI RENE";"49250";"SAINT-MATHURIN-SUR-LOIRE";"Support non décrit"; 20.0;
193730;-0.55611;47.48306;"00° 33' 22.00'' Ouest, 47° 28' 59.00'' Nord";"49007";;"4 R LARREY IMM CRD";"49100";"ANGERS";"Support non décrit"; 30.0;
211580;-0.41833;47.73750;"00° 25' 06.00'' Ouest, 47° 44' 15.00'' Nord";"49220";;"RST MORANNES PK 273.220";"49640";"MORANNES";"Mât"; 22.0;"SNCF Réseau"
211584;-0.43639;47.68528;"00° 26' 11.00'' Ouest, 47° 41' 07.00'' Nord";"49119";;"RST LE PORAGE PK 279.350";"49640";"DAUMERAY";"Mât"; 9.0;"SNCF Réseau"
211586;-0.45889;47.64389;"00° 27' 32.00'' Ouest, 47° 38' 38.00'' Nord";"49132";;"RST ETRICHE PK 284.550";"49330";"ETRICHE";"Mât"; 15.0;"SNCF Réseau"
211590;-0.48139;47.59000;"00° 28' 53.00'' Ouest, 47° 35' 24.00'' Nord";"49347";;"RST VERIGNE PK 290.820";"49125";"TIERCE";"Mât"; 10.0;"SNCF Réseau"
211594;-0.48778;47.54500;"00° 29' 16.00'' Ouest, 47° 32' 42.00'' Nord";"49377";;"RST ST SYLVAIN BRIOLLAY PK 296.070";"49140";"VILLEVEQUE";"Mât"; 15.0;"SNCF Réseau"
211598;-0.52194;47.49194;"00° 31' 19.00'' Ouest, 47° 29' 31.00'' Nord";"49007";;"RST ECOUFLANT PK 302.750";"49100";"ANGERS";"Mât"; 12.0;"SNCF Réseau"
211602;-0.53528;47.46583;"00° 32' 07.00'' Ouest, 47° 27' 57.00'' Nord";"49007";;"RST MAITRE ECOLE PK 341.300";"49100";"ANGERS";"Mât"; 15.0;"SNCF Réseau"
211606;0.01250;47.25778;"00° 00' 45.00'' Est, 47° 15' 28.00'' Nord";"49361";;"RST VARENNES / LOIRE PN 228 PK 292.550";"49730";"VARENNES-SUR-LOIRE";"Mât"; 21.0;"SNCF Réseau"
211610;-0.07556;47.27056;"00° 04' 32.00'' Ouest, 47° 16' 14.00'' Nord";"49328";;"RST SAUMUR PK 299.200";"49400";"SAUMUR";"Mât"; 15.0;"SNCF Réseau"
211614;-0.19333;47.34611;"00° 11' 36.00'' Ouest, 47° 20' 46.00'' Nord";"49272";;"RST ST CLEMENT DES LEVEES PN 248 PK 311.750";"49350";"SAINT-CLEMENT-DES-LEVEES";"Mât"; 15.0;"SNCF Réseau"
211620;-0.21944;47.36306;"00° 13' 10.00'' Ouest, 47° 21' 47.00'' Nord";"49261";;"RST LES ROSIERS PK 314.300";"49350";"LES ROSIERS-SUR-LOIRE";"Mât"; 22.0;"SNCF Réseau"
211624;-0.40028;47.43417;"00° 24' 01.00'' Ouest, 47° 26' 03.00'' Nord";"49032";;"RST LA BOHALLE PK 330.550";"49800";"LA BOHALLE";"Mât"; 22.0;"SNCF Réseau"
211627;-0.43194;47.44250;"00° 25' 55.00'' Ouest, 47° 26' 33.00'' Nord";"49042";;"RST NARCE PK 333.060";"49800";"BRAIN-SUR-L'AUTHION";"Mât"; 18.0;"SNCF Réseau"
211630;-0.57667;47.44778;"00° 34' 36.00'' Ouest, 47° 26' 52.00'' Nord";"49007";;"RST ANGERS POSTE R PK 345.180";"49100";"ANGERS";"Mât"; 17.0;"SNCF Réseau"
211632;-0.61194;47.42361;"00° 36' 43.00'' Ouest, 47° 25' 25.00'' Nord";"49035";;"RST BOUCHEMAINE PK 349.500";"49080";"BOUCHEMAINE";"Mât"; 10.0;"SNCF Réseau"
211634;-0.62722;47.39833;"00° 37' 38.00'' Ouest, 47° 23' 54.00'' Nord";"49329";;"RST EPIRE PK 352.930";"49170";"SAVENNIERES";"Mât"; 15.0;"SNCF Réseau"
211637;-0.69111;47.37139;"00° 41' 28.00'' Ouest, 47° 22' 17.00'' Nord";"49247";;"RST LA POSSONNIERE PK 358.400";"49170";"LA POSSONNIERE";"Mât"; 15.0;"SNCF Réseau"
211640;-0.81333;47.40278;"00° 48' 48.00'' Ouest, 47° 24' 10.00'' Nord";"49284";;"RST LA CROIX PK 368.570";"49170";"SAINT-GERMAIN-DES-PRES";"Mât"; 15.0;"SNCF Réseau"
211642;-0.82778;47.40722;"00° 49' 40.00'' Ouest, 47° 24' 26.00'' Nord";"49284";;"RST ST GERMAIN DES PRES PK 369.690";"49170";"SAINT-GERMAIN-DES-PRES";"Mât"; 15.0;"SNCF Réseau"
211644;-0.92139;47.40444;"00° 55' 17.00'' Ouest, 47° 24' 16.00'' Nord";"49160";;"RST INGRANDES PK 376.910";"49123";"INGRANDES";"Mât"; 10.0;"SNCF Réseau"
241823;-0.23472;47.55444;"00° 14' 05.00'' Ouest, 47° 33' 16.00'' Nord";"49163";"LE CLOS FERRIER";;"49140";"JARZE";"Château d'eau - réservoir"; 27.2;"Syndicat des eaux, Adduction"
244970;-0.55417;47.46861;"00° 33' 15.00'' Ouest, 47° 28' 07.00'' Nord";"49007";;"14 R DU MUSEE";"49100";"ANGERS";"Bâtiment"; 5.0;
282639;-0.49611;47.52583;"00° 29' 46.00'' Ouest, 47° 31' 33.00'' Nord";"49323";;"LA MOUSSARDERIE";"49480";"SAINT-SYLVAIN-D'ANJOU";"Pylône autostable"; 18.0;
291882;-0.54639;47.48500;"00° 32' 47.00'' Ouest, 47° 29' 06.00'' Nord";"49007";;"4 R RICHARD LENOIR";"49100";"ANGERS";"Pylône autostable"; 25.0;"SFR"
302601;-0.50361;47.48750;"00° 30' 13.00'' Ouest, 47° 29' 15.00'' Nord";"49267";"LES CLAVERIES";"CHU";"49124";"SAINT-BARTHELEMY-D'ANJOU";"Bâtiment"; 25.0;"Etablissement de soins"
302609;-0.55722;47.48139;"00° 33' 26.00'' Ouest, 47° 28' 53.00'' Nord";"49007";;"49033 - 4 R LARREY";"49100";"ANGERS";"Bâtiment"; 43.0;"Etablissement de soins"
314567;-0.52667;47.46917;"00° 31' 36.00'' Ouest, 47° 28' 09.00'' Nord";"49007";;"2 R GUILLAUME LEKEU";"49100";"ANGERS";"Pylône tubulaire"; 25.0;"SFR"
315861;-0.82417;47.02250;"00° 49' 27.00'' Ouest, 47° 01' 21.00'' Nord";"49343";;"LA MORTEIGNIERE BARRAGE LE VERDON";"49280";"LA TESSOUALLE";"Mât"; 4.0;
315863;-0.85250;47.03472;"00° 51' 09.00'' Ouest, 47° 02' 05.00'' Nord";"49099";"LA NOMBRETIERE";"AUTORTE A87 KM 53,7";"49300";"CHOLET";"Local technique"; 2.0;
315865;-0.87167;47.02000;"00° 52' 18.00'' Ouest, 47° 01' 12.00'' Nord";"49099";;"LA BARRE AUTORTE A87 KM 55,9";"49300";"CHOLET";"Local technique"; 2.0;
315867;-0.83972;47.04500;"00° 50' 23.00'' Ouest, 47° 02' 42.00'' Nord";"49099";;"LA GARDE AUTORTE A87 KM 52,2";"49300";"CHOLET";"Local technique"; 2.0;
315869;-0.86833;47.02278;"00° 52' 06.00'' Ouest, 47° 01' 22.00'' Nord";"49099";;"LA FREMONIERE AUTORTE A87 KM 55,5";"49300";"CHOLET";"Local technique"; 2.0;
315875;-0.60222;47.33028;"00° 36' 08.00'' Ouest, 47° 19' 49.00'' Nord";"49022";;"LA PETITE NOUE GARE DE PEAGE BEAULIEU";"49750";"BEAULIEU-SUR-LAYON";"Local technique"; 7.0;
315883;-0.34250;47.53917;"00° 20' 33.00'' Ouest, 47° 32' 21.00'' Nord";"49110";;"LES FORGES GARE DE PEAGE CORZE";"49140";"CORZE";"Bâtiment"; 7.0;
316217;-0.82694;47.11194;"00° 49' 37.00'' Ouest, 47° 06' 43.00'' Nord";"49355";;"LA  PETITE VERNIERE AUTORTE A87 KM 44,5";"49340";"TREMENTINES";"Local technique"; 7.0;
333263;-0.52167;47.47889;"00° 31' 18.00'' Ouest, 47° 28' 44.00'' Nord";"49007";;"18 BD  GASTON BIRGÉ";"49100";"ANGERS";"Pylône autostable"; 21.0;"SFR"
333386;-0.04944;47.58972;"00° 02' 58.00'' Ouest, 47° 35' 23.00'' Nord";"49380";;"LA ROBERDIERE";"49150";"VAULANDRY";"Bâtiment"; 20.0;
334252;-1.06667;47.01333;"01° 03' 60.00'' Ouest, 47° 00' 48.00'' Nord";"49179";"GALLARD";"IMP DE GALLARD USINE TEXTILE MULLIEZ FRÈRES";"49710";"LE LONGERON";"Bâtiment"; 30.0;
336563;-0.29861;47.19028;"00° 17' 55.00'' Ouest, 47° 11' 25.00'' Nord";"49125";;"103 R DE CHOLET LES MINIERES";"49700";"DOUE-LA-FONTAINE";"Bâtiment"; 6.0;
338040;-0.53000;47.47889;"00° 31' 48.00'' Ouest, 47° 28' 44.00'' Nord";"49007";;"23 AV DU GÉNÉRAL FOY";"49100";"ANGERS";"Immeuble"; 19.0;"Particulier"
338333;-1.11917;47.28500;"01° 07' 09.00'' Ouest, 47° 17' 06.00'' Nord";"49145";;"R DES SPORTS STADE DU FUILET";"49270";"LE FUILET";"Pylône autostable"; 30.0;"Société Privée SA"
338335;-1.02417;47.25861;"01° 01' 27.00'' Ouest, 47° 15' 31.00'' Nord";"49313";;"R DES LANDES ZI DE BELLEVUE";"49110";"SAINT-PIERRE-MONTLIMART";"Pylône autostable"; 30.0;"Société Privée SA"
339099;-1.01056;47.61083;"01° 00' 38.00'' Ouest, 47° 36' 39.00'' Nord";"49008";"CLOTEAU VIVIER";"LES ESSARTS";"49440";"ANGRIE";"Pylône autostable"; 20.0;"Société Privée SA"
339101;-1.02944;47.56639;"01° 01' 46.00'' Ouest, 47° 33' 59.00'' Nord";"49054";;"ZI LA RAMEE";"49440";"CANDE";"Pylône autostable"; 10.0;"Société Privée SA"
339105;-0.78750;47.12667;"00° 47' 15.00'' Ouest, 47° 07' 36.00'' Nord";"49355";;"R DU CHATEAU D'EAU";"49340";"TREMENTINES";"Château d'eau - réservoir"; 18.0;"Syndicat des eaux, Adduction"
339113;-0.09750;47.48667;"00° 05' 51.00'' Ouest, 47° 29' 12.00'' Nord";"49116";"BOIS MORIN";;"49150";"CUON";"Pylône autostable"; 10.0;"Société Privée SA"
339119;0.11722;47.50556;"00° 07' 02.00'' Est, 47° 30' 20.00'' Nord";"49228";"LES QUARTS";"AV DE LA GARE ROUTE DE BREUIL";"49490";"NOYANT";"Silo"; 30.0;"Société Privée SA"
339420;-1.16056;47.74722;"01° 09' 38.00'' Ouest, 47° 44' 50.00'' Nord";"49248";"LA PIDAIE";"USINE TRIOPLAST";"49420";"POUANCE";"Bâtiment"; 36.0;"Société Privée SA"
344329;-0.46806;47.61472;"00° 28' 05.00'' Ouest, 47° 36' 53.00'' Nord";"49347";;"1 PL DE LA MAIRIE";"49125";"TIERCE";"Immeuble"; 18.0;"Copropriété, Syndic, SCI"
347006;-0.49361;47.49500;"00° 29' 37.00'' Ouest, 47° 29' 42.00'' Nord";"49323";;"ZAC DE BON PUITS";"49480";"SAINT-SYLVAIN-D'ANJOU";"Pylône tubulaire"; 33.0;"SFR"
347458;-0.54583;47.46250;"00° 32' 45.00'' Ouest, 47° 27' 45.00'' Nord";"49007";;"3 PL ANDRÉ LEROY UNIVERSITÉ CATHOLIQUE DE L'OUEST";"49100";"ANGERS";"Bâtiment"; 43.0;"Etat, Ministère"
348454;-0.94000;47.02917;"00° 56' 24.00'' Ouest, 47° 01' 45.00'' Nord";"49269";;"Z.A DU PARC";"49280";"SAINT-CHRISTOPHE-DU-BOIS";"Pylône autostable"; 30.0;"SFR"
420431;-0.86583;47.05639;"00° 51' 57.00'' Ouest, 47° 03' 23.00'' Nord";"49099";;"5 R DU LIEUTENANT COLONEL DE MALLERAY IMM D'HABITATIONS";"49300";"CHOLET";"Immeuble"; 40.5;"Société HLM"
429307;-0.85083;47.06417;"00° 51' 03.00'' Ouest, 47° 03' 51.00'' Nord";"49099";;"5, R GUSTAVE EIFFEL";"49300";"CHOLET";"Pylône autostable"; 20.0;"SFR"
429949;-0.54444;47.45722;"00° 32' 40.00'' Ouest, 47° 27' 26.00'' Nord";"49007";;"16 & 18 AV LATTRE DE TASSIGNY";"49000";"ANGERS";"Immeuble"; 19.2;
433451;-1.06806;47.14444;"01° 04' 05.00'' Ouest, 47° 08' 40.00'' Nord";"49375";;"49, R DE VENDÉE GROUPE SALMON ACCÈS SITE ORANGE PAR RUE ST JOSEPH";"49450";"VILLEDIEU-LA-BLOUERE";"Bâtiment"; 13.0;
435114;0.05667;47.23222;"00° 03' 24.00'' Est, 47° 13' 56.00'' Nord";"49361";"CHAVIGNY";"R DU BAS CHAVIGNY TERRAIN DE SPORT";"49730";"VARENNES-SUR-LOIRE";"Pylône tubulaire"; 32.0;"ORANGE"
435897;-0.62278;47.46528;"00° 37' 22.00'' Ouest, 47° 27' 55.00'' Nord";"49020";;"1 R DU PAVILLON ZI D' ANGERS- BEAUCOUZE";"49070";"BEAUCOUZE";"Pylône autostable"; 44.9;"FPS TOWERS"
436098;-0.04694;47.32667;"00° 02' 49.00'' Ouest, 47° 19' 36.00'' Nord";"49378";"LA GAGNERIE";"CANTON DES DEUX SOEURS VOIE COMMUNALE N°13 DIT DES SAUDIÈRES";"49680";"VIVY";"Pylône autostable"; 51.0;"FPS TOWERS"
437393;-0.50083;47.44611;"00° 30' 03.00'' Ouest, 47° 26' 46.00'' Nord";"49353";;"R DU 14 JUILLET 1789 CITÉ DU PETIT BOIS - TOUR T";"49800";"TRELAZE";"Immeuble"; 44.0;"Société HLM"
439610;-0.79333;47.50194;"00° 47' 36.00'' Ouest, 47° 30' 07.00'' Nord";"49026";"PONT BESNARD";"CHATEAU D'EAU D 963";"49370";"BECON-LES-GRANITS";"Château d'eau - réservoir"; 48.0;"Syndicat des eaux, Adduction"
439946;-0.20861;47.21139;"00° 12' 31.00'' Ouest, 47° 12' 41.00'' Nord";"49100";"PIEMONT";;"49700";"CIZAY-LA-MADELEINE";"Château d'eau - réservoir"; 60.0;"Syndicat des eaux, Adduction"
442640;-0.91250;47.32333;"00° 54' 45.00'' Ouest, 47° 19' 24.00'' Nord";"49244";"LE PETIT CHÊNAMBAULT";"LES CERISIERS CHEM RURAL N°4";"49620";"LA POMMERAYE";"Pylône autostable"; 62.0;"TDF"
442644;-0.47028;47.40194;"00° 28' 13.00'' Ouest, 47° 24' 07.00'' Nord";"49167";;"CHEM DU BOIS GUILLOU TERRAIN DE SPORTS DES GARENNES";"49610";"JUIGNE-SUR-LOIRE";"Pylône tubulaire"; 40.0;"SFR"
442706;-0.89972;47.04306;"00° 53' 59.00'' Ouest, 47° 02' 35.00'' Nord";"49099";;"2 R MARENGO";"49300";"CHOLET";"Immeuble"; 26.0;"Société Privée SA"
445791;-0.51722;47.50222;"00° 31' 02.00'' Ouest, 47° 30' 08.00'' Nord";"49129";;"BLV DE L'INDUSTRIE ZI";"49000";"ECOUFLANT";"Pylône autostable"; 45.0;"SFR"
445817;-0.57028;47.44028;"00° 34' 13.00'' Ouest, 47° 26' 25.00'' Nord";"49278";;"94 CHEM DU HUTREAU CHÂT. D'EAU DE FRÉMUR";"49130";"SAINTE-GEMMES-SUR-LOIRE";"Château d'eau - réservoir"; 55.0;"Commune, communauté de commune"
450613;-0.77500;47.34750;"00° 46' 30.00'' Ouest, 47° 20' 51.00'' Nord";"49063";"TENNIS";"LES COURTILS";"49290";"CHALONNES-SUR-LOIRE";"Château d'eau - réservoir"; 27.0;"Syndicat des eaux, Adduction"
450617;0.08417;47.34083;"00° 05' 03.00'' Est, 47° 20' 27.00'' Nord";"49045";"PIÈCE DE LA VICAIRE";"D155";"49390";"LA BREILLE-LES-PINS";"Pylône autostable"; 43.0;"Conseil Général"
450625;-0.84139;47.06722;"00° 50' 29.00'' Ouest, 47° 04' 02.00'' Nord";"49099";"LA BLANCHARDIÈRE";"ROUTE DE TOULEMONDE D158";"49300";"CHOLET";"Château d'eau - réservoir"; 45.0;"Syndicat des eaux, Adduction"
450668;-1.27528;47.32611;"01° 16' 31.00'' Ouest, 47° 19' 34.00'' Nord";"49069";"LA BRELAUDIERE";"RD 935 CHÂTEAU D'EAU";"49270";"CHAMPTOCEAUX";"Château d'eau - réservoir"; 47.0;"Syndicat des eaux, Adduction"
450690;-0.13833;47.12639;"00° 08' 18.00'' Ouest, 47° 07' 35.00'' Nord";"49215";"LA GRANDE CHAMPAGNE";"R DE L'EUROPE";"49260";"MONTREUIL-BELLAY";"Château d'eau - réservoir"; 62.0;"Syndicat des eaux, Adduction"
450739;0.00972;47.51472;"00° 00' 35.00'' Est, 47° 30' 53.00'' Nord";"49173";"D139";"ROUTE DE MOULIHERNE";"49490";"LASSE";"Immeuble"; 36.0;"Société Privée SA"
450978;-1.11139;47.17611;"01° 06' 41.00'' Ouest, 47° 10' 34.00'' Nord";"49151";"CHÂTEAU D'EAU";"D67 HEURTÉBICHE";"49600";"GESTE";"Château d'eau - réservoir"; 45.0;"Syndicat des eaux, Adduction"
451117;-0.23833;47.32889;"00° 14' 18.00'' Ouest, 47° 19' 44.00'' Nord";"49149";"BOIS GUÉRINEAU";"D69 ZI LES SABOTIERS";"49350";"GENNES";"Pylône autostable"; 25.0;"Commune, communauté de commune"
451177;-0.88000;47.05556;"00° 52' 48.00'' Ouest, 47° 03' 20.00'' Nord";"49099";;"1 AV MAUDET";"49300";"CHOLET";"Immeuble"; 43.4;"Société HLM"
451327;-0.51472;47.26056;"00° 30' 53.00'' Ouest, 47° 15' 38.00'' Nord";"49345";"GRUETTE";"RTE DU MOULIN DU PONT";"49380";"THOUARCE";"Château d'eau - réservoir"; 26.0;"Syndicat des eaux, Adduction"
452348;-0.50583;47.43528;"00° 30' 21.00'' Ouest, 47° 26' 07.00'' Nord";"49246";;"RTE DE SORGES ZONE DU MOULIN MARCILLE";"49130";"LES PONTS-DE-CE";"Pylône autostable"; 45.0;"SFR"
452959;-0.89667;47.06528;"00° 53' 48.00'' Ouest, 47° 03' 55.00'' Nord";"49099";;"4 R ST-CORENTIN IMM BRETAGNE";"49300";"CHOLET";"Immeuble"; 35.0;"Société HLM"
452975;-0.05556;47.24722;"00° 03' 20.00'' Ouest, 47° 14' 50.00'' Nord";"49328";;"RTE DE CHAMPIGNY LE PETIT PUY";"49400";"SAUMUR";"Château d'eau - réservoir"; 41.0;"Syndicat des eaux, Adduction"
452981;-0.08111;47.25944;"00° 04' 52.00'' Ouest, 47° 15' 34.00'' Nord";"49328";;"23 B  R BEAUPAIRE SALLE DES SPORTS ROBERT AMY";"49400";"SAUMUR";"Bâtiment"; 23.0;"Association"
453694;-1.16972;47.74750;"01° 10' 11.00'' Ouest, 47° 44' 51.00'' Nord";"49248";;"LES HOMMEAUX";"49420";"POUANCE";"Pylône autostable"; 49.0;"TDF"
454022;-0.75333;47.40361;"00° 45' 12.00'' Ouest, 47° 24' 13.00'' Nord";"49283";"D311";"LA GROJARDIÈRE";"49170";"SAINT-GEORGES-SUR-LOIRE";"Château d'eau - réservoir"; 56.0;"Syndicat des eaux, Adduction"
459703;-0.64389;47.45222;"00° 38' 38.00'' Ouest, 47° 27' 08.00'' Nord";"49020";"LE VIEL BOIS DE GUINEZERT";;"49070";"BEAUCOUZE";"Pylône autostable"; 95.0;"TDF"
462505;-0.93528;47.05472;"00° 56' 07.00'' Ouest, 47° 03' 17.00'' Nord";"49332";"LA MÉNARDIÈRE";"9 R DES ARTISANS LE PETIT CHAMP DE L'ETANG";"49280";"LA SEGUINIERE";"Pylône tubulaire"; 35.0;"TDF"
462557;-0.86222;47.05500;"00° 51' 44.00'' Ouest, 47° 03' 18.00'' Nord";"49099";;"3 R VASCO GAMMA";"49300";"CHOLET";"Immeuble"; 33.5;"Société HLM"
466016;-0.72028;47.47444;"00° 43' 13.00'' Ouest, 47° 28' 28.00'' Nord";"49298";;"LA BASSE TOUCHE AUX ANES";"49170";"SAINT-LEGER-DES-BOIS";"Pylône autostable"; 30.0;"ORANGE"
466843;-0.83556;47.72722;"00° 50' 08.00'' Ouest, 47° 43' 38.00'' Nord";"49136";"D180";"BEAU SOLEIL";"49500";"LA FERRIERE-DE-FLEE";"Pylône autostable"; 43.0;"Conseil Général"
467772;-0.25167;47.18972;"00° 15' 06.00'' Ouest, 47° 11' 23.00'' Nord";"49125";"LES HAUTES VARENNES";"RTE DE LA LANDE ELEVÉE";"49700";"DOUE-LA-FONTAINE";"Pylône tubulaire"; 25.0;"ORANGE"
467790;-0.28694;47.19417;"00° 17' 13.00'' Ouest, 47° 11' 39.00'' Nord";"49125";"LES MOULINS";"R DE ROHÉ - D.69 CHÂTEAU D'EAU";"49700";"DOUE-LA-FONTAINE";"Château d'eau - réservoir"; 51.0;"Commune, communauté de commune"
470711;-0.61778;47.43750;"00° 37' 04.00'' Ouest, 47° 26' 15.00'' Nord";"49035";"LES CHAUFFEAUX";"ZI DES BRUNELLERIES";"49080";"BOUCHEMAINE";"Pylône autostable"; 75.0;"Towercast"
471665;-0.56667;47.47444;"00° 34' 00.00'' Ouest, 47° 28' 28.00'' Nord";"49007";;"88, R ST NICOLAS";"49000";"ANGERS";"Immeuble"; 34.0;"Copropriété, Syndic, SCI"
472150;-0.36389;47.35583;"00° 21' 50.00'' Ouest, 47° 21' 21.00'' Nord";"49115";"BOULAINE";"CHANTEMESLE VOIE COMMUNALE";"49320";"COUTURES";"Pylône autostable"; 50.0;"ORANGE"
476319;-0.08528;47.29556;"00° 05' 07.00'' Ouest, 47° 17' 44.00'' Nord";"49328";"LES PATURES";"R ARTHUR CAILLEAU";"49400";"SAUMUR";"Pylône tubulaire"; 30.0;"ORANGE"
479825;-0.46944;47.51944;"00° 28' 10.00'' Ouest, 47° 31' 10.00'' Nord";"49323";;"R MARECHAL LECLERC EGLISE";"49480";"SAINT-SYLVAIN-D'ANJOU";"Monument religieux"; 49.5;"Commune, communauté de commune"
484595;-0.51472;47.48806;"00° 30' 53.00'' Ouest, 47° 29' 17.00'' Nord";"49007";;"R ALFRED DE MUSSET R DU COLONEL LÉON FAYE - ENSEMBLE D'IMMS";"49000";"ANGERS";"Immeuble"; 27.0;"Société HLM"
484653;-0.07306;47.26917;"00° 04' 23.00'' Ouest, 47° 16' 09.00'' Nord";"49328";;"2 B , AV. DAVID D'ANGERS GARE SNCF";"49400";"SAUMUR";"Pylône autostable"; 37.0;"SNCF Réseau"
486134;-0.80472;47.03694;"00° 48' 17.00'' Ouest, 47° 02' 13.00'' Nord";"49192";"LE PETIT CHAMP";"V COMMUNALE LE CHIRON";"49360";"MAULEVRIER";"Pylône autostable"; 40.0;"TDF"
486532;-0.52722;47.43806;"00° 31' 38.00'' Ouest, 47° 26' 17.00'' Nord";"49246";;"72 AV DU 8 MAI 1945";"49130";"LES PONTS-DE-CE";"Immeuble"; 30.0;"Société HLM"
492084;-0.31583;47.41389;"00° 18' 57.00'' Ouest, 47° 24' 50.00'' Nord";"49307";"LA VILAINE";"RUE DE LA VILAINE / RUE DE LA PAIX";"49250";"SAINT-MATHURIN-SUR-LOIRE";"Pylône autostable"; 35.0;"FPS TOWERS"
492662;-1.01139;47.09667;"01° 00' 41.00'' Ouest, 47° 05' 48.00'' Nord";"49264";;"5 V COMMUNALE N°5";"49450";"SAINT-ANDRE-DE-LA-MARCHE";"Pylône autostable"; 33.5;"FPS TOWERS"
493268;-0.54750;47.45167;"00° 32' 51.00'' Ouest, 47° 27' 06.00'' Nord";"49007";;"65 BD BÉDIER";"49000";"ANGERS";"Immeuble"; 33.0;"Société HLM"
494010;-0.67389;47.50972;"00° 40' 26.00'' Ouest, 47° 30' 35.00'' Nord";"49196";"LE PRESSOIR";"MOULIN DE LA COUDRE DÉPARTEMENTAL 105";"49770";"LA MEIGNANNE";"Pylône autostable"; 34.1;"TDF"
494622;-0.59056;47.50528;"00° 35' 26.00'' Ouest, 47° 30' 19.00'' Nord";"49015";;"ESPLANADE HOTEL DE VILLE";"49240";"AVRILLE";"Bâtiment"; 10.0;"Particulier"
498829;-0.84194;47.00972;"00° 50' 31.00'' Ouest, 47° 00' 35.00'' Nord";"49343";"LE CHAMPS DE PIERRE";"CHEM RURAL PRÈS D200";"49280";"LA TESSOUALLE";"Pylône autostable"; 42.0;"TDF"
499252;-0.53639;47.46750;"00° 32' 11.00'' Ouest, 47° 28' 03.00'' Nord";"49007";;"114 R LOUIS GAIN";"49000";"ANGERS";"Immeuble"; 53.0;"Société HLM"
502890;-0.85083;47.06889;"00° 51' 03.00'' Ouest, 47° 04' 08.00'' Nord";"49099";;"7 BD DU POITOU ZI";"49300";"CHOLET";"Pylône autostable"; 32.5;"TDF"
506258;-0.91667;47.31917;"00° 55' 00.00'' Ouest, 47° 19' 09.00'' Nord";"49244";"LA FRIBAUDIERE";;"49620";"LA POMMERAYE";"Château d'eau - réservoir"; 62.6;"Syndicat des eaux, Adduction"
506336;-0.55972;47.36861;"00° 33' 35.00'' Ouest, 47° 22' 07.00'' Nord";"49222";"PERRAY CHAUD";"RN.160";"49610";"MOZE-SUR-LOUET";"Château d'eau - réservoir"; 40.0;"Syndicat des eaux, Adduction"
506467;-0.54667;47.46250;"00° 32' 48.00'' Ouest, 47° 27' 45.00'' Nord";"49007";;"PL ANDRÉ LEROY 2 R VOLNEY UNIVERSITÉ CATHOLIQUE";"49000";"ANGERS";"Bâtiment"; 32.0;"Société Privée SA"
507746;-0.87278;47.68361;"00° 52' 22.00'' Ouest, 47° 41' 01.00'' Nord";"49331";;"16 R JULES FERRY";"49500";"SEGRE";"Pylône autostable"; 31.0;"ORANGE Services Fixes"
509484;-0.86417;47.41472;"00° 51' 51.00'' Ouest, 47° 24' 53.00'' Nord";"49068";;"CHEM DU CLOS ROUILLE CHÂTEAU D'EAU";"49123";"CHAMPTOCE-SUR-LOIRE";"Château d'eau - réservoir"; 23.0;"Commune, communauté de commune"
510140;-0.64667;47.33611;"00° 38' 48.00'' Ouest, 47° 20' 10.00'' Nord";"49259";"BELLEVUE";"D.125 - CHEM RURAL";"49190";"ROCHEFORT-SUR-LOIRE";"Pylône haubané"; 103.0;"TDF"
512912;-1.10806;47.11917;"01° 06' 29.00'' Ouest, 47° 07' 09.00'' Nord";"49285";"RD 147";"ZI DU PETIT LAPIN";"49230";"SAINT-GERMAIN-SUR-MOINE";"Pylône autostable"; 37.0;"TDF"
513257;-0.86056;47.38861;"00° 51' 38.00'' Ouest, 47° 23' 19.00'' Nord";"49212";;"PL DE L'ÉGLISE";"49570";"MONTJEAN-SUR-LOIRE";"Monument religieux"; 39.0;"Commune, communauté de commune"
514264;-0.74667;47.14778;"00° 44' 48.00'' Ouest, 47° 08' 52.00'' Nord";"49281";"LA LIZARDIERE";"D 265";"49120";"SAINT-GEORGES-DES-GARDES";"Tour hertzienne"; 88.0;"TDF"
515283;-0.19389;47.46667;"00° 11' 38.00'' Ouest, 47° 28' 00.00'' Nord";"49138";;"RD.144 - ECHANGEUR BEAUFORT-EN-VALLÉE - A.85 SENS ANGERS-SAUMUR (PK.14 DEPUIS L'A.11)";"49250";"FONTAINE-GUERIN";"Pylône autostable"; 47.0;"Sociétés d'Autoroutes"
515365;-0.40278;47.51611;"00° 24' 10.00'' Ouest, 47° 30' 58.00'' Nord";"49110";"LA MARQUERIE";"CHEM RURAL";"49140";"CORZE";"Pylône autostable"; 40.0;"TDF"
515812;-0.55139;47.47056;"00° 33' 05.00'' Ouest, 47° 28' 14.00'' Nord";"49007";;"6 R D'ALSACE/12 PL DU RALLIEMENT GALERIES LAFAYETTE";"49000";"ANGERS";"Bâtiment"; 32.0;"Société Privée SA"
516268;-0.55944;47.46750;"00° 33' 34.00'' Ouest, 47° 28' 03.00'' Nord";"49007";;"PL DE L'ACADÉMIE EGLISE ST-LAUD";"49000";"ANGERS";"Monument religieux"; 50.1;"Commune, communauté de commune"
517005;-0.56778;47.45889;"00° 34' 04.00'' Ouest, 47° 27' 32.00'' Nord";"49007";"BAUMETTE";"PYL ECLAIRAGE C POSTE D";"49000";"ANGERS";"Pylône autostable"; 35.6;"BOUYGUES"
517020;-0.54528;47.47417;"00° 32' 43.00'' Ouest, 47° 28' 27.00'' Nord";"49007";;"1 PL MENDES FRANCE";"49000";"ANGERS";"Bâtiment"; 26.0;"Société Privée SA"
517245;-0.44528;47.47194;"00° 26' 43.00'' Ouest, 47° 28' 19.00'' Nord";"49267";"AIGREFOIN";"LA PIE HARDIE";"49124";"SAINT-BARTHELEMY-D'ANJOU";"Château d'eau - réservoir"; 45.8;"Syndicat des eaux, Adduction"
517481;-0.99861;47.21333;"00° 59' 55.00'' Ouest, 47° 12' 48.00'' Nord";"49023";"LES PETITES PLS";"R PIERRE ET MARIE CURIE";"49600";"BEAUPREAU";"Pylône autostable"; 31.0;"TDF"
517520;-0.27111;47.46139;"00° 16' 16.00'' Ouest, 47° 27' 41.00'' Nord";"49194";"LE CLOS DE MAZÉ";;"49630";"MAZE";"Pylône tubulaire"; 24.0;"ORANGE"
518023;-0.92139;47.40500;"00° 55' 17.00'' Ouest, 47° 24' 18.00'' Nord";"49160";;"LA GARE";"49123";"INGRANDES";"Château d'eau - réservoir"; 22.0;"Commune, communauté de commune"
519339;-0.22250;47.43639;"00° 13' 21.00'' Ouest, 47° 26' 11.00'' Nord";"49021";"LA PETITE POISSONNIÈRE";"R DES TILLEULS";"49250";"BEAUFORT-EN-VALLEE";"Pylône tubulaire"; 40.0;"ORANGE Services Fixes"
522443;-0.59222;47.47444;"00° 35' 32.00'' Ouest, 47° 28' 28.00'' Nord";"49007";"LA BALLUE";"5 AV DE LA BALLUE TOUR VIOLET";"49000";"ANGERS";"Bâtiment"; 60.0;"Copropriété, Syndic, SCI"
524013;-0.86111;47.68306;"00° 51' 40.00'' Ouest, 47° 40' 59.00'' Nord";"49331";"LA MIOCHAIS";"RUE DU ROCHER";"49500";"SEGRE";"Pylône autostable"; 45.3;"TDF"
524093;-0.56417;47.48028;"00° 33' 51.00'' Ouest, 47° 28' 49.00'' Nord";"49007";;"PL STE THERESE EGLISE";"49000";"ANGERS";"Monument religieux"; 47.0;"Commune, communauté de commune"
526203;-0.85028;47.35056;"00° 51' 01.00'' Ouest, 47° 21' 02.00'' Nord";"49244";"LA MENANCIÈRE";"D.131 - LE PRÉ DE LA CHADELAINE CHÂTEAU D'EAU";"49620";"LA POMMERAYE";"Château d'eau - réservoir"; 35.0;"Syndicat des eaux, Adduction"
526223;-1.24278;47.26528;"01° 14' 34.00'' Ouest, 47° 15' 55.00'' Nord";"49172";;"PL DE L'ÉGLISE";"49270";"LANDEMONT";"Monument religieux"; 43.0;"Commune, communauté de commune"
526245;-1.26556;47.33750;"01° 15' 56.00'' Ouest, 47° 20' 15.00'' Nord";"49069";;"PL DU CHANOINE BRICARD";"49270";"CHAMPTOCEAUX";"Monument religieux"; 37.0;"Commune, communauté de commune"
530177;-0.53500;47.48694;"00° 32' 06.00'' Ouest, 47° 29' 13.00'' Nord";"49007";;"32 R DE NOZAY";"49000";"ANGERS";"Bâtiment"; 24.7;"Société Privée SA"
534171;-1.03472;47.56583;"01° 02' 05.00'' Ouest, 47° 33' 57.00'' Nord";"49054";;"20 R DE LATTRE DE TASSIGNY";"49440";"CANDE";"Pylône autostable"; 34.0;"TDF"
534646;-0.34972;47.57889;"00° 20' 59.00'' Ouest, 47° 34' 44.00'' Nord";"49333";;"INTERSECTION D 109 / RN 23";"49140";"SEICHES-SUR-LE-LOIR";"Château d'eau - réservoir"; 43.5;"Syndicat des eaux, Adduction"
534674;-0.55611;47.48833;"00° 33' 22.00'' Ouest, 47° 29' 18.00'' Nord";"49007";"LES CAPUCINS";"30 À 38 SQ DES CAPUCINS";"49000";"ANGERS";"Bâtiment"; 38.2;"Société HLM"
537966;-0.64500;47.13944;"00° 38' 42.00'' Ouest, 47° 08' 22.00'' Nord";"49109";"PIERRE POINTUE";"CHEM RURAL DIT DE LA GARDE";"49690";"CORON";"Pylône autostable"; 37.0;"SFR"
538198;-0.80667;47.13500;"00° 48' 24.00'' Ouest, 47° 08' 06.00'' Nord";"49355";;"LA GARE RD 147 SILO";"49340";"TREMENTINES";"Silo"; 54.0;"Coopérative Agricole, Vinicole"
539027;-1.02056;47.36194;"01° 01' 14.00'' Ouest, 47° 21' 43.00'' Nord";"49276";;"CHEM DES TRINQUERIES";"49410";"SAINT-FLORENT-LE-VIEIL";"Château d'eau - réservoir"; 37.0;"Commune, communauté de commune"
540517;-0.72222;47.21611;"00° 43' 20.00'' Ouest, 47° 12' 58.00'' Nord";"49092";;"R D'ALSACE RÉS. LES COQUELICOTS";"49120";"CHEMILLE";"Immeuble"; 19.0;"Société HLM"
540543;-0.59694;47.47917;"00° 35' 49.00'' Ouest, 47° 28' 45.00'' Nord";"49007";;"58 R PIERRE BLANDIN";"49000";"ANGERS";"Immeuble"; 52.0;"Société HLM"
541430;-0.56250;47.67889;"00° 33' 45.00'' Ouest, 47° 40' 44.00'' Nord";"49065";"LE CARABIN";"DÉPARTEMENTALE 768";"49330";"CHAMPIGNE";"Pylône autostable"; 33.9;"FPS TOWERS"
542791;-0.02333;47.25500;"00° 01' 24.00'' Ouest, 47° 15' 18.00'' Nord";"49374";"LA SÉGUINIÈRE";"LES AULNES";"49400";"VILLEBERNIER";"Pylône tubulaire"; 30.0;"SFR"
542886;-0.26167;47.40917;"00° 15' 42.00'' Ouest, 47° 24' 33.00'' Nord";"49201";;"R DU ROI RENÉ STADE MUNICIPAL DE LA MENITRE";"49250";"LA MENITRE";"Pylône tubulaire"; 30.0;"ORANGE"
542896;-0.15306;47.32139;"00° 09' 11.00'' Ouest, 47° 19' 17.00'' Nord";"49304";"LE CLOS MARÇAIS";"VOIE COMMUNALE N° 13 STATION ÉPURATION";"49160";"SAINT-MARTIN-DE-LA-PLACE";"Pylône tubulaire"; 30.0;"ORANGE"
544127;-0.53111;47.45472;"00° 31' 52.00'' Ouest, 47° 27' 17.00'' Nord";"49007";;"14 BD D'ESTIENNE D'ORVES";"49000";"ANGERS";"Bâtiment"; 34.3;"Société HLM"
544750;0.06583;47.39528;"00° 03' 57.00'' Est, 47° 23' 43.00'' Nord";"49368";;"PRE DU REDOIT";"49390";"VERNANTES";"Pylône autostable"; 36.3;"SFR"
544752;-0.50139;47.26889;"00° 30' 05.00'' Ouest, 47° 16' 08.00'' Nord";"49345";;"10 BD DE LA RÉPUBLIQUE";"49380";"THOUARCE";"Bâtiment"; 17.9;"Société Privée SA"
547537;-0.87028;47.20083;"00° 52' 13.00'' Ouest, 47° 12' 03.00'' Nord";"49162";;"R DE LA BOUÈRE CHÂTEAU D'EAU";"49510";"JALLAIS";"Château d'eau - réservoir"; 42.0;"Syndicat des eaux, Adduction"
548764;-0.55889;47.47111;"00° 33' 32.00'' Ouest, 47° 28' 16.00'' Nord";"49007";;"22 R DONADIEU PUYCHARIC";"49000";"ANGERS";"Immeuble"; 11.0;"Association"
549116;-0.78500;47.35056;"00° 47' 06.00'' Ouest, 47° 21' 02.00'' Nord";"49063";"LA CROIX VERTE";;"49290";"CHALONNES-SUR-LOIRE";"Pylône haubané"; 58.0;"TDF"
549184;-0.88806;47.52056;"00° 53' 17.00'' Ouest, 47° 31' 14.00'' Nord";"49183";;"R DES FONTAINES CH D'EAU";"49370";"LE LOUROUX-BECONNAIS";"Château d'eau - réservoir"; 35.0;"Commune, communauté de commune"
549438;-0.22306;47.43500;"00° 13' 23.00'' Ouest, 47° 26' 06.00'' Nord";"49021";;"RTE DE LA MENITRE - SILO CAVAL";"49250";"BEAUFORT-EN-VALLEE";"Silo"; 33.9;"Coopérative Agricole, Vinicole"
550534;-0.43000;47.34444;"00° 25' 48.00'' Ouest, 47° 20' 40.00'' Nord";"49050";"LA GANORDERIE";"ZAC FONTENELLES  PRES DE LES GROUAS";"49320";"BRISSAC-QUINCE";"Pylône tubulaire"; 50.0;"ORANGE"
552493;-0.59556;47.57389;"00° 35' 44.00'' Ouest, 47° 34' 26.00'' Nord";"49135";"LA CHAPELLE";"R QUERE";"49460";"FENEU";"Château d'eau - réservoir"; 28.0;"Syndicat des eaux, Adduction"
554467;-0.88667;47.04639;"00° 53' 12.00'' Ouest, 47° 02' 47.00'' Nord";"49099";;"1 R LAURENT BONNEVAY RÉS. NATION";"49300";"CHOLET";"Immeuble"; 43.0;"Société HLM"
555158;-0.72750;47.21000;"00° 43' 39.00'' Ouest, 47° 12' 36.00'' Nord";"49092";;"PL DES PERROCHERES-EGLISE";"49120";"CHEMILLE";"Monument religieux"; 68.3;"Commune, communauté de commune"
557633;-0.96389;47.70694;"00° 57' 50.00'' Ouest, 47° 42' 25.00'' Nord";"49229";"LA PETITE ROCHE";;"49520";"NOYANT-LA-GRAVOYERE";"Pylône autostable"; 30.0;"ORANGE"
560396;-0.43722;47.15083;"00° 26' 14.00'' Ouest, 47° 09' 03.00'' Nord";"49356";"LE CHAMP DU MOULIN";"D.77 / CHEM RURAL ZONE ARTISANALE";"49310";"TREMONT";"Pylône autostable"; 45.0;"ORANGE"
564755;-0.18194;47.15194;"00° 10' 55.00'' Ouest, 47° 09' 07.00'' Nord";"49364";"MOREAU";"CHEM RURAL";"49260";"VAUDELNAY";"Pylône tubulaire"; 30.0;"ORANGE"
566892;-0.99778;47.30944;"00° 59' 52.00'' Ouest, 47° 18' 34.00'' Nord";"49034";;"CHEM DE BOTZ-EN-MAUGES À LA BOUTOUCHÈRE PIÈCE DE LA DERTE";"49110";"BOTZ-EN-MAUGES";"Château d'eau - réservoir"; 38.0;"Syndicat des eaux, Adduction"
567649;-0.30417;47.47444;"00° 18' 15.00'' Ouest, 47° 28' 28.00'' Nord";"49107";"MONTEVROULT";"R DES BOISNIÈRES";"49140";"CORNILLE-LES-CAVES";"Château d'eau - réservoir"; 70.0;"Syndicat des eaux, Adduction"
569354;-0.15194;47.43250;"00° 09' 07.00'' Ouest, 47° 25' 57.00'' Nord";"49049";"LES HUBERDEAUX";"STADE DES HUBERDEAUX";"49250";"BRION";"Pylône autostable"; 37.0;"ORANGE"
571373;-0.30028;47.60694;"00° 18' 01.00'' Ouest, 47° 36' 25.00'' Nord";"49076";"LE PIN";;"49140";"LA CHAPELLE-SAINT-LAUD";"Pylône autostable"; 43.4;"SFR"
571377;-0.47806;47.69361;"00° 28' 41.00'' Ouest, 47° 41' 37.00'' Nord";"49080";"LE BOIS DES MONTS";;"49330";"CHATEAUNEUF-SUR-SARTHE";"Pylône autostable"; 46.8;"SFR"
576059;-0.86639;47.69722;"00° 51' 59.00'' Ouest, 47° 41' 50.00'' Nord";"49331";;"146 R GUSTAVE EIFFEL PYLONE RTE";"49500";"SEGRE";"Pylône autostable"; 40.0;"EDF GDF"
576694;-1.13056;47.29139;"01° 07' 50.00'' Ouest, 47° 17' 29.00'' Nord";"49145";;"ZI DES ALLIÉES AU FUILET";"49270";"LE FUILET";"Pylône autostable"; 46.0;"SFR"
578089;-0.49639;47.44806;"00° 29' 47.00'' Ouest, 47° 26' 53.00'' Nord";"49353";;"STADE DE LA GODUCIÈRE R DE LA GODUCIÈRE";"49800";"TRELAZE";"Pylône autostable"; 18.0;"SFR"
582560;-1.12389;47.75972;"01° 07' 26.00'' Ouest, 47° 45' 35.00'' Nord";"49088";"LE CERISIER";"BEL AIR CHÂTEAU D'EAU PRÈS D180";"49420";"CHAZE-HENRY";"Château d'eau - réservoir"; 62.0;"Commune, communauté de commune"
583816;-0.87139;47.06056;"00° 52' 17.00'' Ouest, 47° 03' 38.00'' Nord";"49099";;"12 AV DES CALINS RES LA PRAIRIE";"49300";"CHOLET";"Immeuble"; 42.0;"Particulier"
584441;-0.10250;47.23083;"00° 06' 09.00'' Ouest, 47° 13' 51.00'' Nord";"49123";;"LE CHAMP MOREAU PRÈS N 147";"49400";"DISTRE";"Pylône autostable"; 46.5;"SFR"
584751;-0.22139;47.43389;"00° 13' 17.00'' Ouest, 47° 26' 02.00'' Nord";"49021";;"RTE DE LA MÉNITRÉ N138";"49250";"BEAUFORT-EN-VALLEE";"Immeuble"; 34.3;"Copropriété, Syndic, SCI"
587713;-0.59500;47.49528;"00° 35' 42.00'' Ouest, 47° 29' 43.00'' Nord";"49015";;"CHEM DE LA BEURRIERE ZI DE CARRIERES BEURRIERES";"49240";"AVRILLE";"Pylône autostable"; 32.6;"FPS TOWERS"
588079;-0.86389;47.07611;"00° 51' 50.00'' Ouest, 47° 04' 34.00'' Nord";"49099";"LA JOMINIÈRE";"CHEM DU CHÂTAIGNIER";"49300";"CHOLET";"Pylône autostable"; 50.0;"SFR"
589324;-0.72778;47.23833;"00° 43' 40.00'' Ouest, 47° 14' 18.00'' Nord";"49092";"LA GUICHARDIERE";;"49120";"CHEMILLE";"Pylône autostable"; 60.0;"Sociétés d'Autoroutes"
589325;-0.26000;47.66806;"00° 15' 36.00'' Ouest, 47° 40' 05.00'' Nord";"49127";;"ROUTE DE HUILLE GARE DE PÉAGE DE DURTAL";"49430";"DURTAL";"Pylône autostable"; 43.0;"Sociétés d'Autoroutes"
590064;-0.55444;47.47222;"00° 33' 16.00'' Ouest, 47° 28' 20.00'' Nord";"49007";;"43-45 R PLANTAGENET";"49000";"ANGERS";"Bâtiment"; 21.0;"Société Privée SA"
591272;-0.50806;47.40472;"00° 30' 29.00'' Ouest, 47° 24' 17.00'' Nord";"49167";"LA CLAIE BRUNETTE";;"49610";"JUIGNE-SUR-LOIRE";"Château d'eau - réservoir"; 45.0;"Syndicat des eaux, Adduction"
591963;-0.53083;47.47444;"00° 31' 51.00'' Ouest, 47° 28' 28.00'' Nord";"49007";;"2 R CHAPTAL";"49000";"ANGERS";"Bâtiment"; 60.0;"Société HLM"
599051;-0.47667;47.58694;"00° 28' 36.00'' Ouest, 47° 35' 13.00'' Nord";"49048";;"CHÂTEAU D'EAU DE LA RÉTUSIÈRE";"49125";"BRIOLLAY";"Château d'eau - réservoir"; 44.0;"Syndicat des eaux, Adduction"
599357;-0.62722;47.25472;"00° 37' 38.00'' Ouest, 47° 15' 17.00'' Nord";"49071";;"LES PÂTIS DE LA LANDE";"49750";"CHANZEAUX";"Pylône autostable"; 45.0;"ORANGE"
601765;-0.37639;47.11250;"00° 22' 35.00'' Ouest, 47° 06' 45.00'' Nord";"49232";;"DÉCHETTERIE MUNICIPALE LE GATE VIGNE";"49560";"NUEIL-SUR-LAYON";"Pylône autostable"; 30.0;"SFR"
604197;-0.07917;47.25750;"00° 04' 45.00'' Ouest, 47° 15' 27.00'' Nord";"49328";;"ANGLE R DE LA GRISE, R VOLNEY LA POSTE";"49400";"SAUMUR";"Bâtiment"; 21.0;"La Poste"
605212;-0.44222;47.32333;"00° 26' 32.00'' Ouest, 47° 19' 24.00'' Nord";"49001";;"LA PIÈCE AUX LOUPS D 748";"49320";"LES ALLEUDS";"Pylône autostable"; 45.0;"SFR"
605313;-0.07944;47.61806;"00° 04' 46.00'' Ouest, 47° 37' 05.00'' Nord";"49101";"LA ROCHE";"RTE DU MOULIN À VENT LA BAILLETIÈRE";"49150";"CLEFS";"Château d'eau - réservoir"; 42.0;"Syndicat des eaux, Adduction"
605321;-0.73750;47.27278;"00° 44' 15.00'' Ouest, 47° 16' 22.00'' Nord";"49169";"LA GRANDE LANDE";"VC N°8 DE LA JUMELIERE À ST LEZIN";"49120";"LA JUMELLIERE";"Pylône autostable"; 30.0;"SFR"
605371;-0.52139;47.29417;"00° 31' 17.00'' Ouest, 47° 17' 39.00'' Nord";"49134";;"R ALBERT LEBRUN EGLISE DE FAYE D'ANJOU";"49380";"FAYE-D'ANJOU";"Monument religieux"; 43.0;"Commune, communauté de commune"
605375;-1.18639;47.09944;"01° 11' 11.00'' Ouest, 47° 05' 58.00'' Nord";"49273";;"LE BOURG EGLISE";"49230";"SAINT-CRESPIN-SUR-MOINE";"Monument religieux"; 34.0;"Commune, communauté de commune"
605649;-0.61639;47.45722;"00° 36' 59.00'' Ouest, 47° 27' 26.00'' Nord";"49020";;"R DU TERTRE";"49070";"BEAUCOUZE";"Pylône tubulaire"; 25.0;"SFR"
607136;-0.49194;47.46917;"00° 29' 31.00'' Ouest, 47° 28' 09.00'' Nord";"49267";;"18 R DE VERDUN";"49124";"SAINT-BARTHELEMY-D'ANJOU";"Immeuble"; 28.0;"Société HLM"
607881;-1.18083;47.14389;"01° 10' 51.00'' Ouest, 47° 08' 38.00'' Nord";"49349";"LES SAUVIONNIÈRES";"CHÂTEAU D'EAU";"49230";"TILLIERES";"Château d'eau - réservoir"; 42.0;"Syndicat des eaux, Adduction"
608150;-0.27778;47.40417;"00° 16' 40.00'' Ouest, 47° 24' 15.00'' Nord";"49201";;"R DU MANOIR";"49250";"LA MENITRE";"Bâtiment"; 3.0;"Société Privée SA"
609621;-0.27972;47.66833;"00° 16' 47.00'' Ouest, 47° 40' 06.00'' Nord";"49127";"LA GAUFFRIE";;"49430";"DURTAL";"Pylône autostable"; 35.0;"ORANGE Services Fixes"
610165;-0.44889;47.30194;"00° 26' 56.00'' Ouest, 47° 18' 07.00'' Nord";"49227";;"R ST ELOI PL DE L'EGLISE EGLISE";"49380";"NOTRE-DAME-D'ALLENCON";"Monument religieux"; 32.0;"Commune, communauté de commune"
611674;0.03417;47.29528;"00° 02' 03.00'' Est, 47° 17' 43.00'' Nord";"49002";"LES BRULERIES";;"49650";"ALLONNES";"Pylône autostable"; 38.5;"TDF"
614461;-0.84028;47.51028;"00° 50' 25.00'' Ouest, 47° 30' 37.00'' Nord";"49026";"LE GRAND TREMBLAY";"CHEM DU GRAND TREMBLAY";"49370";"BECON-LES-GRANITS";"Pylône autostable"; 30.0;"ORANGE"
614920;-0.56611;47.46083;"00° 33' 58.00'' Ouest, 47° 27' 39.00'' Nord";"49007";;"GARE ANGERS ST LAUD PYLÔNE D ÉCLAIRAGE S.N.C.F B2";"49000";"ANGERS";"Pylône tubulaire"; 28.0;"SNCF Réseau"
618794;-0.56583;47.67250;"00° 33' 57.00'' Ouest, 47° 40' 21.00'' Nord";"49065";"LA BUTTE";"PRÈS RÉSERVOIR";"49330";"CHAMPIGNE";"Pylône autostable"; 36.0;"SDIS, secours, incendie"
619538;-0.48583;47.50167;"00° 29' 09.00'' Ouest, 47° 30' 06.00'' Nord";"49323";"AIRE DES PORTES D'ANGERS";"A11 PK 258 ÉCHANGEUR DE TROUSSEBOUC";"49480";"SAINT-SYLVAIN-D'ANJOU";"Pylône autostable"; 56.0;"Sociétés d'Autoroutes"
620296;-0.17306;47.59944;"00° 10' 23.00'' Ouest, 47° 35' 58.00'' Nord";"49097";"LA RANGEE";"LA VIGNE";"49150";"CHEVIRE-LE-ROUGE";"Château d'eau - réservoir"; 52.0;"Syndicat des eaux, Adduction"
620742;-0.07056;47.24917;"00° 04' 14.00'' Ouest, 47° 14' 57.00'' Nord";"49328";"LES VIOLETTES";"STATION TDF DE SAUMUR LYCÉE SADI CARNOT, R MARCEAU";"49400";"SAUMUR";"Bâtiment"; 32.0;"Commune, communauté de commune"
620802;-0.98806;47.70972;"00° 59' 17.00'' Ouest, 47° 42' 35.00'' Nord";"49103";"LA LANDE";"R DES VERTS COTEAUX";"49520";"COMBREE";"Château d'eau - réservoir"; 42.0;"Syndicat des eaux, Adduction"
622007;-0.90333;47.09667;"00° 54' 12.00'' Ouest, 47° 05' 48.00'' Nord";"49299";"LE CHENE SOUCHE";"IMP DES CHÊNES";"49280";"SAINT-LEGER-SOUS-CHOLET";"Château d'eau - réservoir"; 60.0;"Syndicat des eaux, Adduction"
623942;-0.71083;47.62000;"00° 42' 39.00'' Ouest, 47° 37' 12.00'' Nord";"49176";"LES TROIS PILIERS";"ROUTE D'ANGERS N162";"49220";"LE LION-D'ANGERS";"Château d'eau - réservoir"; 45.0;"Syndicat des eaux, Adduction"
628349;-0.71389;47.42389;"00° 42' 50.00'' Ouest, 47° 25' 26.00'' Nord";"49306";"LES CHESNAIES";"LES MONTILLAIS";"49170";"SAINT-MARTIN-DU-FOUILLOUX";"Château d'eau - réservoir"; 54.0;"Syndicat des eaux, Adduction"
629790;-1.01111;47.04750;"01° 00' 40.00'' Ouest, 47° 02' 51.00'' Nord";"49260";"LA GALLIÈRE";"LE PETIT CHAMP D'AJONCS";"49740";"LA ROMAGNE";"Pylône autostable"; 35.0;"SFR"
629904;-0.78361;47.10861;"00° 47' 01.00'' Ouest, 47° 06' 31.00'' Nord";"49355";"LA VANNERIE";"CHEM RURAL";"49340";"TREMENTINES";"Pylône autostable"; 30.0;"SFR"
631886;-0.89250;47.14139;"00° 53' 33.00'' Ouest, 47° 08' 29.00'' Nord";"49193";;"R SAINT MICHEL";"49122";"LE MAY-SUR-EVRE";"Château d'eau - réservoir"; 48.0;"Syndicat des eaux, Adduction"
637597;-1.12639;47.26194;"01° 07' 35.00'' Ouest, 47° 15' 43.00'' Nord";"49145";"CHÊNE-HUBERT";"D.67 - CHEM RURAL";"49270";"LE FUILET";"Château d'eau - réservoir"; 45.0;"Syndicat des eaux, Adduction"
637861;-0.51806;47.14778;"00° 31' 05.00'' Ouest, 47° 08' 52.00'' Nord";"49373";"LE POIRIER DU RENARD";"D.960 - RTE DE SAUMUR STADE RENÉ REULLIER";"49310";"VIHIERS";"Pylône autostable"; 36.0;"ORANGE"
637893;-0.50694;47.47500;"00° 30' 25.00'' Ouest, 47° 28' 30.00'' Nord";"49267";;"2 R DU PATIS PYL FT";"49124";"SAINT-BARTHELEMY-D'ANJOU";"Pylône autostable"; 77.0;"ORANGE Services Fixes"
637895;-0.50694;47.47472;"00° 30' 25.00'' Ouest, 47° 28' 29.00'' Nord";"49267";"LES BRETONNIERES";"2 R DU PATIS PYL ASF";"49124";"SAINT-BARTHELEMY-D'ANJOU";"Pylône autostable"; 73.0;"Sociétés d'Autoroutes"
639083;-0.23750;47.33028;"00° 14' 15.00'' Ouest, 47° 19' 49.00'' Nord";"49149";;"ATELIERS MUNICIPAUX Z.I.LES SABOTIERS";"49350";"GENNES";"Pylône autostable"; 36.0;"ORANGE"
647213;-0.84472;47.44167;"00° 50' 41.00'' Ouest, 47° 26' 30.00'' Nord";"49068";"LES LANDES";"VOIE COMMUNALE N° 6";"49123";"CHAMPTOCE-SUR-LOIRE";"Pylône autostable"; 56.0;"SFR"
648394;-1.03139;47.71333;"01° 01' 53.00'' Ouest, 47° 42' 48.00'' Nord";"49103";"LE PETIT MONTJAUGÉ";"D 81";"49520";"COMBREE";"Pylône tubulaire"; 35.0;"TDF"
648408;-0.77250;47.03750;"00° 46' 21.00'' Ouest, 47° 02' 15.00'' Nord";"49352";"LA PRÉVERIE";"VOIE COMMUNALE";"49360";"TOUTLEMONDE";"Pylône autostable"; 40.0;"ORANGE"
648458;-1.03333;47.27028;"01° 02' 00.00'' Ouest, 47° 16' 13.00'' Nord";"49313";;"ALL DE L'ÉCUSSON  STADE";"49110";"SAINT-PIERRE-MONTLIMART";"Pylône autostable"; 50.0;"SFR"
651947;-0.28833;47.50194;"00° 17' 18.00'' Ouest, 47° 30' 07.00'' Nord";"49107";"LA TOUCHE";"CHEM DE LA HAUTE-CHÈVRE";"49140";"CORNILLE-LES-CAVES";"Pylône autostable"; 29.0;"ORANGE"
654989;-1.24472;47.26583;"01° 14' 41.00'' Ouest, 47° 15' 57.00'' Nord";"49172";;"ROUTE DE SAINT-SAUVEUR CENTRAL TÉLÉPHONIQUE PRÈS GYMNASE";"49270";"LANDEMONT";"Pylône autostable"; 36.0;"ORANGE Services Fixes"
657176;-0.95139;47.18222;"00° 57' 05.00'' Ouest, 47° 10' 56.00'' Nord";"49006";"LA CHAUMINE";;"49600";"ANDREZE";"Pylône autostable"; 30.0;"SFR"
660015;-0.55611;47.48250;"00° 33' 22.00'' Ouest, 47° 28' 57.00'' Nord";"49007";"CHU - RUE BRAILLE";"HÔPITAL DES ENFANTS";"49000";"ANGERS";"Bâtiment"; 38.2;"Etablissement de soins"
667563;-0.42861;47.55972;"00° 25' 43.00'' Ouest, 47° 33' 35.00'' Nord";"49377";;"CHEM DE LA BUCHETIÈRE CHÂTEAU D'EAU";"49140";"VILLEVEQUE";"Château d'eau - réservoir"; 39.0;"Commune, communauté de commune"
671924;-0.47667;47.45250;"00° 28' 36.00'' Ouest, 47° 27' 09.00'' Nord";"49353";;"BD CHARLES DE GAULLE";"49800";"TRELAZE";"Pylône autostable"; 30.3;"ORANGE"
672593;-0.11806;47.53667;"00° 07' 05.00'' Ouest, 47° 32' 12.00'' Nord";"49372";"LES GENETIERES";"CHEM RURAL DE LA BATAILLE";"49150";"LE VIEIL-BAUGE";"Château d'eau - réservoir"; 38.0;"Syndicat des eaux, Adduction"
675000;-0.22778;47.56889;"00° 13' 40.00'' Ouest, 47° 34' 08.00'' Nord";"49163";"LA POINTE FENOLLIÈRE";"VOIE COMMUNALE N°3";"49140";"JARZE";"Pylône autostable"; 33.0;"ORANGE"
676415;-0.56583;47.42056;"00° 33' 57.00'' Ouest, 47° 25' 14.00'' Nord";"49278";;"27, ROUTE DE BOUCHEMAINE BÂTIMENT DES SERVICES TECHNIQUES";"49130";"SAINTE-GEMMES-SUR-LOIRE";"Mât métallique"; 9.0;"ORANGE"
677877;-0.60611;47.53000;"00° 36' 22.00'' Ouest, 47° 31' 48.00'' Nord";"49214";"BEL AIR";"1, R DES DÉPORTÉS";"49460";"MONTREUIL-JUIGNE";"Immeuble"; 18.0;"Société HLM"
678297;0.02500;47.52167;"00° 01' 30.00'' Est, 47° 31' 18.00'' Nord";"49173";;"MANET";"49490";"LASSE";"Pylône autostable"; 35.0;"SFR"
678526;-0.74667;46.99389;"00° 44' 48.00'' Ouest, 46° 59' 38.00'' Nord";"49192";"LE ROND";"CHEM DU ROND STADE DE FOOTBALL";"49360";"MAULEVRIER";"Pylône tubulaire"; 37.0;"ORANGE"
681094;-1.02361;47.56028;"01° 01' 25.00'' Ouest, 47° 33' 37.00'' Nord";"49054";;"CHEM RURAL DE BEL AIR PRÈS D.963";"49440";"CANDE";"Pylône autostable"; 31.0;"ORANGE"
682538;-0.72278;47.19750;"00° 43' 22.00'' Ouest, 47° 11' 51.00'' Nord";"49199";"LE PRÉ FERRON";"CHEM RURAL DE LA HAUTE LANDE";"49120";"MELAY";"Pylône autostable"; 25.0;"ORANGE"
684857;-1.09000;47.03556;"01° 05' 24.00'' Ouest, 47° 02' 08.00'' Nord";"49350";"LE CENSIVIER";;"49660";"TORFOU";"Pylône autostable"; 36.0;"ORANGE"
684947;-0.46889;47.61528;"00° 28' 08.00'' Ouest, 47° 36' 55.00'' Nord";"49347";;"PL DE L'EGLISE";"49125";"TIERCE";"Monument religieux"; 48.3;"Commune, communauté de commune"
684960;-0.29000;47.51667;"00° 17' 24.00'' Ouest, 47° 30' 60.00'' Nord";"49185";"LA LANDE LUE";;"49140";"LUE-EN-BAUGEOIS";"Pylône autostable"; 37.0;"FPS TOWERS"
686486;-0.84333;47.06250;"00° 50' 36.00'' Ouest, 47° 03' 45.00'' Nord";"49099";;"CH RURAL DES LANDES DE BEL AIR";"49300";"CHOLET";"Pylône autostable"; 70.0;"TDF"
686595;-0.35444;47.69944;"00° 21' 16.00'' Ouest, 47° 41' 58.00'' Nord";"49119";"LE GRAND CLOS";"R DE LA LIBERTE";"49640";"DAUMERAY";"Pylône autostable"; 32.0;"FPS TOWERS"
687257;-0.69389;47.37639;"00° 41' 38.00'' Ouest, 47° 22' 35.00'' Nord";"49247";;"AV DU STADE - TERRAIN DE SPORT";"49170";"LA POSSONNIERE";"Pylône autostable"; 26.0;"FPS TOWERS"
687314;-0.41167;47.57139;"00° 24' 42.00'' Ouest, 47° 34' 17.00'' Nord";"49337";"LA MOTTE";;"49140";"SOUCELLES";"Pylône autostable"; 29.2;"FPS TOWERS"
687328;-0.81028;47.30889;"00° 48' 37.00'' Ouest, 47° 18' 32.00'' Nord";"49295";"L'ORMEAU";;"49290";"SAINT-LAURENT-DE-LA-PLAINE";"Pylône autostable"; 33.7;"FPS TOWERS"
687589;-0.55167;47.46972;"00° 33' 06.00'' Ouest, 47° 28' 11.00'' Nord";"49007";;"2 R ST MARTIN BÂT. DE LA POSTE";"49000";"ANGERS";"Immeuble"; 30.0;"ORANGE Services Fixes"
687593;-0.53861;47.45694;"00° 32' 19.00'' Ouest, 47° 27' 25.00'' Nord";"49007";;"139 R CHÈVRE";"49000";"ANGERS";"Château d'eau - réservoir"; 32.0;"Commune, communauté de commune"
687599;-0.60083;47.47139;"00° 36' 03.00'' Ouest, 47° 28' 17.00'' Nord";"49007";;"17, R DU NID DE PIE";"49000";"ANGERS";"Bâtiment"; 24.0;"ORANGE Services Fixes"
687885;-0.55417;47.46194;"00° 33' 15.00'' Ouest, 47° 27' 43.00'' Nord";"49007";;"2 SQ LAFAYETTE IMM LAFAYETTE";"49000";"ANGERS";"Immeuble"; 21.0;"Copropriété, Syndic, SCI"
688233;-0.53833;47.48083;"00° 32' 18.00'' Ouest, 47° 28' 51.00'' Nord";"49007";;"75 R DE LA CHALOUÈRE";"49000";"ANGERS";"Immeuble"; 20.0;"Société HLM"
688318;-0.89222;47.72972;"00° 53' 32.00'' Ouest, 47° 43' 47.00'' Nord";"49233";"CHARMONT";"RTE DÉPART. 271";"49500";"NYOISEAU";"Pylône autostable"; 33.8;"FPS TOWERS"
688324;-0.85833;47.59667;"00° 51' 30.00'' Ouest, 47° 35' 48.00'' Nord";"49367";"LA CHENAIE NOIRE";;"49220";"VERN-D'ANJOU";"Pylône autostable"; 30.0;"ORANGE"
688404;-0.56861;47.47306;"00° 34' 07.00'' Ouest, 47° 28' 23.00'' Nord";"49007";;"10 R ROGER CHAUVIRÉ";"49000";"ANGERS";"Immeuble"; 33.0;"Société HLM"
688413;-0.54611;47.47306;"00° 32' 46.00'' Ouest, 47° 28' 23.00'' Nord";"49007";;"12 PL. MENDÈS FRANCE RÉS. LE PÉLICAN";"49000";"ANGERS";"Immeuble"; 35.0;"Copropriété, Syndic, SCI"
688418;-0.52167;47.48139;"00° 31' 18.00'' Ouest, 47° 28' 53.00'' Nord";"49007";;"1 BD  GASTON BIRGÉ";"49000";"ANGERS";"Immeuble"; 23.0;"Copropriété, Syndic, SCI"
688420;-0.52194;47.46861;"00° 31' 19.00'' Ouest, 47° 28' 07.00'' Nord";"49007";"STADE DE L'ARCEAU";"R GUILLAUME LEKEU";"49000";"ANGERS";"Pylône tubulaire"; 30.0;"ORANGE"
688422;-0.55028;47.47694;"00° 33' 01.00'' Ouest, 47° 28' 37.00'' Nord";"49007";;"5 PL FRANÇOIS MITTERRAND RÉSIDENCE ST SERGE";"49000";"ANGERS";"Immeuble"; 33.0;"Copropriété, Syndic, SCI"
688424;-0.57472;47.48417;"00° 34' 29.00'' Ouest, 47° 29' 03.00'' Nord";"49007";;"29 BD CAMUS/R A GIDE";"49000";"ANGERS";"Immeuble"; 34.0;"Société HLM"
688455;-0.58417;47.47722;"00° 35' 03.00'' Ouest, 47° 28' 38.00'' Nord";"49007";"BELLE BEILLE";"10 SQ LOUIS BOISRAMÉ";"49000";"ANGERS";"Immeuble"; 41.0;"Société HLM"
688469;-0.54583;47.46194;"00° 32' 45.00'' Ouest, 47° 27' 43.00'' Nord";"49007";;"4 R MERLET DE LA BOULAYE ESE L OUEST";"49000";"ANGERS";"Immeuble"; 28.0;"Société Privée SA"
688483;-0.56056;47.47528;"00° 33' 38.00'' Ouest, 47° 28' 31.00'' Nord";"49007";;"R DU GODET BD DU RONCERAY";"49000";"ANGERS";"Immeuble"; 24.0;"Etat, Ministère"
688491;-0.59306;47.46833;"00° 35' 35.00'' Ouest, 47° 28' 06.00'' Nord";"49007";;"2, ALLÉE DU GRAND LAUNAY";"49000";"ANGERS";"Pylône tubulaire"; 23.0;"Société Privée SA"
688493;-0.54528;47.44944;"00° 32' 43.00'' Ouest, 47° 26' 58.00'' Nord";"49007";;"110 R DU CHÂTEAU D' ORGEMONT BÂTIMENT FRANCE TÉLÉCOM";"49000";"ANGERS";"Bâtiment"; 24.0;"ORANGE Services Fixes"
688505;-0.56611;47.44917;"00° 33' 58.00'' Ouest, 47° 26' 57.00'' Nord";"49007";;"10/16 AV. JEAN XXIII";"49000";"ANGERS";"Immeuble"; 22.0;"Société HLM"
688509;-0.55028;47.45333;"00° 33' 01.00'' Ouest, 47° 27' 12.00'' Nord";"49007";;"9 R GUYNEMER";"49000";"ANGERS";"Immeuble"; 26.0;"Société HLM"
688513;-0.53583;47.48583;"00° 32' 09.00'' Ouest, 47° 29' 09.00'' Nord";"49007";;"52 BD GASTON RAMON CPE RAMON";"49000";"ANGERS";"Bâtiment"; 31.0;"ORANGE Services Fixes"
688517;-0.55139;47.47306;"00° 33' 05.00'' Ouest, 47° 28' 23.00'' Nord";"49007";;"24 R DES POËLIERS";"49000";"ANGERS";"Immeuble"; 17.0;"Copropriété, Syndic, SCI"
688519;-0.53722;47.46139;"00° 32' 14.00'' Ouest, 47° 27' 41.00'' Nord";"49007";;"24-26 R ANNE FRANCK";"49000";"ANGERS";"Immeuble"; 37.0;"Association"
689644;-0.50806;47.26056;"00° 30' 29.00'' Ouest, 47° 15' 38.00'' Nord";"49345";;"R LEARD ZI";"49380";"THOUARCE";"Pylône autostable"; 29.2;"BOUYGUES"
690764;-0.52833;47.49000;"00° 31' 42.00'' Ouest, 47° 29' 24.00'' Nord";"49007";;"25, R GABRIEL BARON";"49000";"ANGERS";"Immeuble"; 32.2;"Société HLM"
690778;-0.56139;47.46361;"00° 33' 41.00'' Ouest, 47° 27' 49.00'' Nord";"49007";;"GARE DE TRIAGE (EMPRISE SNCF)";"49000";"ANGERS";"Pylône autostable"; 33.0;"SNCF Réseau"
690788;-0.57167;47.45417;"00° 34' 18.00'' Ouest, 47° 27' 15.00'' Nord";"49007";;"R DES PETITES MUSES";"49000";"ANGERS";"Pylône autostable"; 34.6;"SNCF Réseau"
691040;0.06028;47.40917;"00° 03' 37.00'' Est, 47° 24' 33.00'' Nord";"49368";"LA BUTTE MONTMARTRE";;"49390";"VERNANTES";"Pylône autostable"; 31.0;"ORANGE"
695299;-0.61472;47.52639;"00° 36' 53.00'' Ouest, 47° 31' 35.00'' Nord";"49214";;"6 R PIERRE ET MARIE CURIE";"49460";"MONTREUIL-JUIGNE";"Château d'eau - réservoir"; 34.0;"Syndicat des eaux, Adduction"
696543;-0.45139;47.63694;"00° 27' 05.00'' Ouest, 47° 38' 13.00'' Nord";"49132";"LA LUPINIÈRE";;"49330";"ETRICHE";"Pylône autostable"; 30.0;"SFR"
696577;-1.17806;47.28389;"01° 10' 41.00'' Ouest, 47° 17' 02.00'' Nord";"49296";"LA CROIX VOLEAU";"D 80";"49270";"SAINT-LAURENT-DES-AUTELS";"Château d'eau - réservoir"; 41.0;"Syndicat des eaux, Adduction"
696598;0.13167;47.51778;"00° 07' 54.00'' Est, 47° 31' 04.00'' Nord";"49228";"LA GORINIÈRE";;"49490";"NOYANT";"Pylône autostable"; 45.0;"SFR"
696630;0.03722;47.21667;"00° 02' 14.00'' Est, 47° 13' 00.00'' Nord";"49219";;"CHEM HAUT DE TURQUANT RÉSERVOIR DE MONTSOREAU";"49730";"MONTSOREAU";"Château d'eau - réservoir"; 40.0;"Syndicat des eaux, Adduction"
696643;-0.60528;47.21444;"00° 36' 19.00'' Ouest, 47° 12' 52.00'' Nord";"49153";;"R DE L'ASTRE STADE";"49670";"VALANJOU";"Pylône autostable"; 40.0;"FPS TOWERS"
697210;-1.19778;47.74583;"01° 11' 52.00'' Ouest, 47° 44' 45.00'' Nord";"49248";"L'HUBERDERIE";"LE BOIS MONCLET D.3";"49420";"POUANCE";"Pylône autostable"; 35.0;"SFR"
698271;-0.61556;47.47556;"00° 36' 56.00'' Ouest, 47° 28' 32.00'' Nord";"49020";;"6 AV DU GRAND PERIGNE CSEC";"49070";"BEAUCOUZE";"Pylône autostable"; 52.0;"SDIS, secours, incendie"
699100;-0.50722;47.68028;"00° 30' 26.00'' Ouest, 47° 40' 49.00'' Nord";"49080";"BLANVILLAIN";"PARC D'ACTIVITE ST JEAN";"49330";"CHATEAUNEUF-SUR-SARTHE";"Pylône autostable"; 33.0;"ORANGE"
699226;-1.16722;47.34194;"01° 10' 02.00'' Ouest, 47° 20' 31.00'' Nord";"49177";;"194 R RONSARD RÉS. DU BELLAY";"49530";"LIRE";"Immeuble"; 13.4;"Etablissement de soins"
699849;-0.03278;47.31083;"00° 01' 58.00'' Ouest, 47° 18' 39.00'' Nord";"49378";"LE PERRAY";"CTRE D'ENTRETIEN COFIRTE";"49680";"VIVY";"Pylône autostable"; 50.0;"Sociétés d'Autoroutes"
699970;-1.02917;47.25250;"01° 01' 45.00'' Ouest, 47° 15' 09.00'' Nord";"49313";"LE HAUT BÉGROLLE";;"49110";"SAINT-PIERRE-MONTLIMART";"Pylône autostable"; 28.0;"ORANGE Services Fixes"
700763;-0.89889;47.28806;"00° 53' 56.00'' Ouest, 47° 17' 17.00'' Nord";"49314";"LA LANDE BREUILLAT";;"49110";"SAINT-QUENTIN-EN-MAUGES";"Pylône autostable"; 30.0;"SFR"
700854;-0.83833;47.04778;"00° 50' 18.00'' Ouest, 47° 02' 52.00'' Nord";"49099";"GRAND CHAMP";"STATION TDF GD CHAMP RTE DE MOLIVIER";"49300";"CHOLET";"Pylône autostable"; 55.0;"TDF"
700980;-0.49583;47.37472;"00° 29' 45.00'' Ouest, 47° 22' 29.00'' Nord";"49308";"BEL AIR";"CHEM DE JUGEPIE STADE MUNICIPAL";"49610";"SAINT-MELAINE-SUR-AUBANCE";"Pylône autostable"; 34.3;"SFR"
702729;-0.53194;47.48444;"00° 31' 55.00'' Ouest, 47° 29' 04.00'' Nord";"49007";;"20 BD HENRI DUNANT";"49000";"ANGERS";"Immeuble"; 30.4;"Société HLM"
702739;-0.55833;47.45694;"00° 33' 30.00'' Ouest, 47° 27' 25.00'' Nord";"49007";;"R DES CHAFFAUDS STADE FREMUR";"49000";"ANGERS";"Pylône tubulaire"; 27.0;"SFR"
702749;-0.55139;47.46861;"00° 33' 05.00'' Ouest, 47° 28' 07.00'' Nord";"49007";;"5, CLOÎTRE ST MARTIN LYCÉE ST MARTIN";"49000";"ANGERS";"Immeuble"; 27.0;"Association"
702761;-0.59806;47.47361;"00° 35' 53.00'' Ouest, 47° 28' 25.00'' Nord";"49007";;"1 R PIERRE GAUBERT";"49000";"ANGERS";"Immeuble"; 44.3;"Société HLM"
702767;-0.53500;47.45389;"00° 32' 06.00'' Ouest, 47° 27' 14.00'' Nord";"49007";;"32,BD  JACQUES MILLOT";"49000";"ANGERS";"Immeuble"; 34.5;"Société HLM"
702769;-0.56583;47.47306;"00° 33' 57.00'' Ouest, 47° 28' 23.00'' Nord";"49007";;"16 BD GASTON DUMESNIL";"49000";"ANGERS";"Immeuble"; 30.0;"Société HLM"
704865;-0.70722;47.65083;"00° 42' 26.00'' Ouest, 47° 39' 03.00'' Nord";"49217";"GRAND PRE";"RD N°180 - COTE 53";"49220";"MONTREUIL-SUR-MAINE";"Pylône autostable"; 30.0;"ORANGE"
704927;-0.52583;47.45833;"00° 31' 33.00'' Ouest, 47° 27' 30.00'' Nord";"49007";;"28 R DE GÉRICAULT";"49000";"ANGERS";"Immeuble"; 30.5;"Société HLM"
706210;-0.69556;47.11611;"00° 41' 44.00'' Ouest, 47° 06' 58.00'' Nord";"49371";"LA BLOUERE";"R DE LA PETITE BLOUÈRE";"49340";"VEZINS";"Pylône autostable"; 41.5;"TDF"
707387;-0.11306;47.55056;"00° 06' 47.00'' Ouest, 47° 33' 02.00'' Nord";"49018";;"CHEM DE LA LANDE";"49150";"BAUGE";"Pylône autostable"; 45.3;"SFR"
709853;-0.31500;47.16778;"00° 18' 54.00'' Ouest, 47° 10' 04.00'' Nord";"49365";"LES QUARTS";;"49700";"LES VERCHERS-SUR-LAYON";"Château d'eau - réservoir"; 35.0;"Syndicat des eaux, Adduction"
709855;-0.42583;47.23889;"00° 25' 33.00'' Ouest, 47° 14' 20.00'' Nord";"49191";"LES DEUX CROIX";;"49540";"MARTIGNE-BRIAND";"Château d'eau - réservoir"; 31.0;"Syndicat des eaux, Adduction"
710833;-0.78667;47.56500;"00° 47' 12.00'' Ouest, 47° 33' 54.00'' Nord";"49249";;"LANDE DU MOULIN";"49370";"LA POUEZE";"Château d'eau - réservoir"; 36.0;"Syndicat des eaux, Adduction"
713592;0.10639;47.51444;"00° 06' 23.00'' Est, 47° 30' 52.00'' Nord";"49228";"LES MALICOTIÈRES";"RTE DE GENNETEIL";"49490";"NOYANT";"Pylône autostable"; 39.0;"FPS TOWERS"
714199;-0.80139;47.55833;"00° 48' 05.00'' Ouest, 47° 33' 30.00'' Nord";"49249";"L'ESPÉRANCE";"R DE LA BUTTE";"49370";"LA POUEZE";"Château d'eau - réservoir"; 26.8;"Syndicat des eaux, Adduction"
715847;-0.88139;47.02889;"00° 52' 53.00'' Ouest, 47° 01' 44.00'' Nord";"49099";;"128 AV DE L'HIPPODROME CHÂTEAU D'EAU DES LANDES";"49300";"CHOLET";"Château d'eau - réservoir"; 57.0;"Syndicat des eaux, Adduction"
717673;-0.91861;47.03806;"00° 55' 07.00'' Ouest, 47° 02' 17.00'' Nord";"49099";"Z.A.C. LE CORMIER";"18, R DE LA GÂTINE ENTREPRISE SOREEL";"49300";"CHOLET";"Bâtiment"; 13.0;"Société Privée SA"
720368;-0.68472;47.46639;"00° 41' 05.00'' Ouest, 47° 27' 59.00'' Nord";"49289";"LE SAULOUP";"A11 PK 274.880  LE SAULOUP";"49070";"SAINT-JEAN-DE-LINIERES";"Pylône autostable"; 42.0;"Sociétés d'Autoroutes"
721857;-1.11722;47.14361;"01° 07' 02.00'' Ouest, 47° 08' 37.00'' Nord";"49285";"LE CHÂTEAU ROUGE";"D.63";"49230";"SAINT-GERMAIN-SUR-MOINE";"Pylône autostable"; 39.0;"ORANGE Services Fixes"
730302;-1.05194;47.12250;"01° 03' 07.00'' Ouest, 47° 07' 21.00'' Nord";"49258";"L¿ÉPINETTE";"RD 147";"49450";"LA RENAUDIERE";"Pylône autostable"; 30.0;"SFR"
730317;-1.04972;47.01861;"01° 02' 59.00'' Ouest, 47° 01' 07.00'' Nord";"49179";"ZI DU BORDAGE";"BD  DU BORDAGE TDF 4917901";"49710";"LE LONGERON";"Pylône autostable"; 35.0;"TDF"
733659;-0.61167;47.43167;"00° 36' 42.00'' Ouest, 47° 25' 54.00'' Nord";"49035";;"TERRAIN DE SPORTS DU ARTAUD";"49080";"BOUCHEMAINE";"Pylône tubulaire"; 35.0;"ORANGE"
733701;-0.46917;47.51250;"00° 28' 09.00'' Ouest, 47° 30' 45.00'' Nord";"49323";;"9 AV DES CARREAUX ENTREPRISE TAPIGLISS";"49480";"SAINT-SYLVAIN-D'ANJOU";"Pylône tubulaire"; 33.0;"SFR"
734237;-0.59944;47.52028;"00° 35' 58.00'' Ouest, 47° 31' 13.00'' Nord";"49015";;"LA SERMONNERIE POSTE SOURCE EDF,";"49240";"AVRILLE";"Pylône autostable"; 30.6;"SFR"
734276;-0.62861;47.53333;"00° 37' 43.00'' Ouest, 47° 31' 60.00'' Nord";"49214";;"R PAUL HÉROULT ZI LE HAUT COUDRAY";"49460";"MONTREUIL-JUIGNE";"Pylône tubulaire"; 40.0;"SFR"
734535;-0.36667;47.35806;"00° 22' 00.00'' Ouest, 47° 21' 29.00'' Nord";"49029";"FREDELIN";;"49320";"BLAISON-GOHIER";"Château d'eau - réservoir"; 56.0;"Syndicat des eaux, Adduction"
734537;-0.70778;47.73000;"00° 42' 28.00'' Ouest, 47° 43' 48.00'' Nord";"49161";"LES GIRAUDIERES";;"49620";"LA JAILLE-YVON";"Château d'eau - réservoir"; 35.0;"Syndicat des eaux, Adduction"
734980;-1.14806;47.08361;"01° 08' 53.00'' Ouest, 47° 05' 01.00'' Nord";"49206";"LE GRAND PRE";"D 762";"49230";"MONTFAUCON-MONTIGNE";"Pylône autostable"; 33.0;"ORANGE"
735641;-0.37056;47.51806;"00° 22' 14.00'' Ouest, 47° 31' 05.00'' Nord";"49019";"LA JOUANNIÈRE";"A11/AIRE DE REPOS DE BAUNÉ PK 248.5";"49140";"BAUNE";"Pylône autostable"; 31.3;"Sociétés d'Autoroutes"
735647;0.00556;47.46667;"00° 00' 20.00'' Est, 47° 28' 00.00'' Nord";"49221";"LES BARRIÈRES";"CHEM RURAL DIT DE L'ONGLÉE PRÈS D62";"49390";"MOULIHERNE";"Pylône autostable"; 42.9;"ORANGE"
735675;-0.08306;47.44306;"00° 04' 59.00'' Ouest, 47° 26' 35.00'' Nord";"49180";"LES PETITES HAIES";"D 186";"49160";"LONGUE-JUMELLES";"Pylône autostable"; 35.0;"ORANGE"
735679;-0.45972;47.64778;"00° 27' 35.00'' Ouest, 47° 38' 52.00'' Nord";"49132";"LE BOIS DE BRIOLAY";;"49330";"ETRICHE";"Pylône autostable"; 41.0;"ORANGE"
735691;-0.61417;47.08278;"00° 36' 51.00'' Ouest, 47° 04' 58.00'' Nord";"49240";"BOIS DES MARCHANDS";;"49360";"LA PLAINE";"Pylône autostable"; 30.3;"Société Privée SA"
738709;-0.59667;47.13583;"00° 35' 48.00'' Ouest, 47° 08' 09.00'' Nord";"49373";"GENNETON";"R JOACHIM DU BELLAY RD 960";"49310";"VIHIERS";"Pylône autostable"; 37.0;"TDF"
740291;-0.59361;47.31917;"00° 35' 37.00'' Ouest, 47° 19' 09.00'' Nord";"49022";"L'AIREAU";;"49750";"BEAULIEU-SUR-LAYON";"Pylône autostable"; 39.3;"TDF"
740760;-0.10000;47.37806;"00° 06' 00.00'' Ouest, 47° 22' 41.00'' Nord";"49180";;"27 RTE DE BLOU RD.206";"49160";"LONGUE-JUMELLES";"Château d'eau - réservoir"; 34.0;"Syndicat des eaux, Adduction"
740854;-0.09083;47.25861;"00° 05' 27.00'' Ouest, 47° 15' 31.00'' Nord";"49328";;"511 BD DELESSERT";"49400";"SAUMUR";"Pylône autostable"; 30.0;"BOUYGUES"
746959;-0.98083;47.11611;"00° 58' 51.00'' Ouest, 47° 06' 58.00'' Nord";"49301";"LA PENNERAISERIE";"R DENIS PAPIN";"49450";"SAINT-MACAIRE-EN-MAUGES";"Pylône autostable"; 48.0;"ORANGE"
748845;-0.88444;47.05944;"00° 53' 04.00'' Ouest, 47° 03' 34.00'' Nord";"49099";;"R MAINDRON CENTRE PSYCHIATRIQUE";"49325";"CHOLET";"Bâtiment"; 78.0;"Société Privée SA"
748847;-0.89778;47.04250;"00° 53' 52.00'' Ouest, 47° 02' 33.00'' Nord";"49099";;"1 R DE MARENGO HOP -";"49325";"CHOLET";"Bâtiment"; 85.0;"Société Privée SA"
749913;-0.22889;47.68583;"00° 13' 44.00'' Ouest, 47° 41' 09.00'' Nord";"49127";"CLOS DE LA COLINIÈRE";"CHAMBLANCÉ";"49430";"DURTAL";"Pylône autostable"; 33.0;"TDF"
750912;-0.94444;47.70222;"00° 56' 40.00'' Ouest, 47° 42' 08.00'' Nord";"49233";"LA LANDE DE LOGERE";"RD 775  PRES DE LE TAPIS VERT";"49500";"NYOISEAU";"Château d'eau - réservoir"; 23.5;"Syndicat des eaux, Adduction"
754137;-0.11194;47.25389;"00° 06' 43.00'' Ouest, 47° 15' 14.00'' Nord";"49328";;"R DES LANDES DE TERREFORT";"49400";"SAUMUR";"Pylône autostable"; 20.6;"SFR"
760725;-0.49500;47.47556;"00° 29' 42.00'' Ouest, 47° 28' 32.00'' Nord";"49267";;"R DU BOIS RINIER DÉPÔT DE LA COTRA";"49124";"SAINT-BARTHELEMY-D'ANJOU";"Bâtiment"; 12.0;"Société Privée SA"
765004;-1.10472;47.03750;"01° 06' 17.00'' Ouest, 47° 02' 15.00'' Nord";"49350";;"ZA DE LA GAUTRONNIÈRE";"49660";"TORFOU";"Pylône autostable"; 41.6;"SFR"
765803;-1.26250;47.33556;"01° 15' 45.00'' Ouest, 47° 20' 08.00'' Nord";"49069";;"AV DE L'EUROPE CSEC";"49270";"CHAMPTOCEAUX";"Bâtiment"; 12.0;"SDIS, secours, incendie"
767263;-1.02083;47.06194;"01° 01' 15.00'' Ouest, 47° 03' 43.00'' Nord";"49260";"LE BOURG";"PL DE L'EGLISE EGLISE";"49740";"LA ROMAGNE";"Monument religieux"; 22.0;"Commune, communauté de commune"
767290;-0.89028;47.42806;"00° 53' 25.00'' Ouest, 47° 25' 41.00'' Nord";"49068";"LE GRAND CHAMP";"P.R.291.450";"49123";"CHAMPTOCE-SUR-LOIRE";"Pylône autostable"; 45.0;"Sociétés d'Autoroutes"
778358;0.04222;47.18000;"00° 02' 32.00'' Est, 47° 10' 48.00'' Nord";"49140";;"LES MOULINS À VENT";"49590";"FONTEVRAUD-L'ABBAYE";"Pylône tubulaire"; 30.0;"TDF"
778447;-0.40444;47.24944;"00° 24' 16.00'' Ouest, 47° 14' 58.00'' Nord";"49191";"LE PETIT MOULIN";;"49540";"MARTIGNE-BRIAND";"Pylône autostable"; 43.0;"SFR"
783487;-0.53917;47.47694;"00° 32' 21.00'' Ouest, 47° 28' 37.00'' Nord";"49007";;"2 R EUGÈNE CLAUDIUS PETIT";"49100";"ANGERS";"Immeuble"; 17.1;"Syndicat des eaux, Adduction"
791742;-0.90361;47.54111;"00° 54' 13.00'' Ouest, 47° 32' 28.00'' Nord";"49183";"LE TERTRE";"D 183";"49370";"LE LOUROUX-BECONNAIS";"Pylône autostable"; 47.1;"SFR"
791748;0.13139;47.51778;"00° 07' 53.00'' Est, 47° 31' 04.00'' Nord";"49228";"LA GORINIÈRE";"PRÈS D 766 Z.I. ROUTE DE TOURS";"49490";"NOYANT";"Pylône autostable"; 37.0;"ORANGE"
792198;-0.60333;47.22222;"00° 36' 12.00'' Ouest, 47° 13' 20.00'' Nord";"49153";"PIÈCE DES 15 CORMIERS";;"49670";"VALANJOU";"Pylône autostable"; 39.6;"SFR"
793036;-0.04750;47.23611;"00° 02' 51.00'' Ouest, 47° 14' 10.00'' Nord";"49328";"DAMPIERE";"BUTTE DE LA MASSE ST VINCENT";"49400";"SAUMUR";"Pylône autostable"; 46.0;"EDF GDF"
793040;-0.87306;47.05972;"00° 52' 23.00'' Ouest, 47° 03' 35.00'' Nord";"49099";;"R DE LA GUILLAUMERIE RES D'AUBIGNE";"49300";"CHOLET";"Immeuble"; 44.0;"Société HLM"
793042;-0.40944;47.73889;"00° 24' 34.00'' Ouest, 47° 44' 20.00'' Nord";"49220";"LA JARRIAIS";;"49640";"MORANNES";"Pylône autostable"; 45.0;"ORANGE Services Fixes"
793044;-0.90056;47.04361;"00° 54' 02.00'' Ouest, 47° 02' 37.00'' Nord";"49099";;"1 ALLÉE DES PINSONS RÉS. LA COLLINE TOUR E";"49300";"CHOLET";"Immeuble"; 52.0;"Société HLM"
793209;-0.02667;47.59583;"00° 01' 36.00'' Ouest, 47° 35' 45.00'' Nord";"49380";"LA GAGNERIE";;"49150";"VAULANDRY";"Pylône autostable"; 49.0;"Conseil Général"
793488;-0.58194;47.61667;"00° 34' 55.00'' Ouest, 47° 37' 00.00'' Nord";"49135";"BEAUVAIS DE MONRIOU";"CHEM RURAL DE LA GAULERIE À VERGER-GATINE";"49460";"FENEU";"Pylône autostable"; 55.0;"ORANGE"
793492;-0.89361;47.17139;"00° 53' 37.00'' Ouest, 47° 10' 17.00'' Nord";"49165";;"12, R DE LA CHAPELLE SOCIÉTÉ IP TELECOM";"49510";"LA JUBAUDIERE";"Bâtiment"; 16.0;"Copropriété, Syndic, SCI"
793496;-0.64333;47.01167;"00° 38' 36.00'' Ouest, 47° 00' 42.00'' Nord";"49058";"LA MOUSSERIE";"CHEM RURAL";"49360";"LES CERQUEUX";"Pylône autostable"; 50.0;"ORANGE"
793498;-0.53333;47.39194;"00° 32' 00.00'' Ouest, 47° 23' 31.00'' Nord";"49223";"LA ROCHE NOIRE";"PRÉS  N160";"49610";"MURS-ERIGNE";"Pylône autostable"; 41.0;"SFR"
793502;-0.19278;47.26472;"00° 11' 34.00'' Ouest, 47° 15' 53.00'' Nord";"49370";"LES VARANES";"VOIE COMMUNALE 5";"49400";"VERRIE";"Pylône autostable"; 54.0;"ORANGE"
793537;-0.43139;47.44778;"00° 25' 53.00'' Ouest, 47° 26' 52.00'' Nord";"49042";"LE PETIT LIMÊLE";"PRÈS D.4";"49800";"BRAIN-SUR-L'AUTHION";"Château d'eau - réservoir"; 45.0;"Syndicat des eaux, Adduction"
793541;-0.51028;47.45833;"00° 30' 37.00'' Ouest, 47° 27' 30.00'' Nord";"49353";;"LES FRESNAIES PYLÔNE SFR";"49800";"TRELAZE";"Pylône tubulaire"; 35.0;"SFR"
793545;-0.87889;47.06861;"00° 52' 44.00'' Ouest, 47° 04' 07.00'' Nord";"49099";;"R C. ARNAULT";"49300";"CHOLET";"Immeuble"; 26.0;"ORANGE"
793547;-0.07306;47.23556;"00° 04' 23.00'' Ouest, 47° 14' 08.00'' Nord";"49328";;"BD  JEAN MOULIN ZI DU CLOS BONNET";"49400";"SAUMUR";"Pylône autostable"; 36.0;"ORANGE"
793549;-0.43861;47.52111;"00° 26' 19.00'' Ouest, 47° 31' 16.00'' Nord";"49238";;"R DU BICENTENAIRE";"49112";"PELLOUAILLES-LES-VIGNES";"Pylône autostable"; 35.0;"ORANGE"
793562;-0.28111;47.18139;"00° 16' 52.00'' Ouest, 47° 10' 53.00'' Nord";"49125";"LES RUES CHÈVRE";"D.960 - LA ROQUERIE RTE DES VERCHERS";"49700";"DOUE-LA-FONTAINE";"Pylône autostable"; 58.0;"TDF"
793570;-0.94333;47.74722;"00° 56' 36.00'' Ouest, 47° 44' 50.00'' Nord";"49081";"LES CREUSERIES";"RN - LA CHESNAIE";"49520";"CHATELAIS";"Pylône autostable"; 44.0;"Conseil Général"
793573;-0.67000;47.48028;"00° 40' 12.00'' Ouest, 47° 28' 49.00'' Nord";"49294";"MALLERIE";"CHEM DE LA MALLERIE";"49070";"SAINT-LAMBERT-LA-POTHERIE";"Pylône autostable"; 38.0;"ORANGE"
793575;-0.44917;47.35556;"00° 26' 57.00'' Ouest, 47° 21' 20.00'' Nord";"49050";;"R DE VERDUN EGLISE";"49320";"BRISSAC-QUINCE";"Monument religieux"; 41.0;"Commune, communauté de commune"
793580;-1.05917;47.11667;"01° 03' 33.00'' Ouest, 47° 07' 00.00'' Nord";"49258";"GÂTINE";"R DE BEL AIR CHÂTEAU D'EAU";"49450";"LA RENAUDIERE";"Château d'eau - réservoir"; 23.0;"Syndicat des eaux, Adduction"
793590;-0.88028;47.06222;"00° 52' 49.00'' Ouest, 47° 03' 44.00'' Nord";"49099";;"R NATIONALE";"49300";"CHOLET";"Immeuble"; 18.0;"ORANGE"
793595;-0.71278;47.73028;"00° 42' 46.00'' Ouest, 47° 43' 49.00'' Nord";"49161";"LE BOIS DE LA TOUCHE";"PRÈS N 162";"49220";"LA JAILLE-YVON";"Pylône autostable"; 47.0;"SFR"
793598;-1.00000;47.20722;"01° 00' 00.00'' Ouest, 47° 12' 26.00'' Nord";"49023";;"57 R DE LA CITÉ";"49600";"BEAUPREAU";"Pylône autostable"; 24.0;"ORANGE Services Fixes"
793603;-0.55972;47.52944;"00° 33' 35.00'' Ouest, 47° 31' 46.00'' Nord";"49055";"LE RONCERAY";"CHEM DES BARDOULLIÈRES STADE DE RONCERAY";"49460";"CANTENAY-EPINARD";"Pylône tubulaire"; 25.0;"ORANGE"
793605;0.15111;47.44028;"00° 09' 04.00'' Est, 47° 26' 25.00'' Nord";"49234";"LES FRICHES";;"49390";"PARCAY-LES-PINS";"Pylône autostable"; 54.0;"Conseil Général"
793610;-0.98250;47.20333;"00° 58' 57.00'' Ouest, 47° 12' 12.00'' Nord";"49023";;"R ST MARTIN EGLISE";"49600";"BEAUPREAU";"Monument religieux"; 46.0;"Commune, communauté de commune"
793612;-0.51556;47.44639;"00° 30' 56.00'' Ouest, 47° 26' 47.00'' Nord";"49246";;"R HALOPÉ FRÈRES";"49130";"LES PONTS-DE-CE";"Pylône tubulaire"; 25.0;"ORANGE"
793616;-0.50056;47.49944;"00° 30' 02.00'' Ouest, 47° 29' 58.00'' Nord";"49129";"L' ARMOIRIE";"CHEM DE LA PETITE ARMOIRIE PARC DES EXPOSITIONS";"49000";"ECOUFLANT";"Pylône autostable"; 35.0;"ORANGE"
793871;-0.70111;47.15222;"00° 42' 04.00'' Ouest, 47° 09' 08.00'' Nord";"49351";"BEL AIR";"LE CHAMP LONG";"49120";"LA TOURLANDRY";"Pylône autostable"; 51.0;"TDF"
793914;-0.86528;47.05639;"00° 51' 55.00'' Ouest, 47° 03' 23.00'' Nord";"49099";;"3 R DU LIEUTENANT COLONEL MALLERAY";"49300";"CHOLET";"Immeuble"; 41.0;"Société HLM"
793943;-0.59306;47.49944;"00° 35' 35.00'' Ouest, 47° 29' 58.00'' Nord";"49015";;"AV GEORGES POMPIDOU COMPLEXE SPORTIF DELEAUNE";"49240";"AVRILLE";"Pylône tubulaire"; 30.0;"SFR"
793951;-0.52389;47.43194;"00° 31' 26.00'' Ouest, 47° 25' 55.00'' Nord";"49246";;"R EMILE JOULAIN COMPLEXE SPORTIF ADM. : AV. GALLIÉNI";"49130";"LES PONTS-DE-CE";"Pylône tubulaire"; 30.0;"ORANGE"
793965;-0.07389;47.24444;"00° 04' 26.00'' Ouest, 47° 14' 40.00'' Nord";"49328";;"354 R ROBERT AMY C.A.A.NANTILLY";"49400";"SAUMUR";"Bâtiment"; 24.0;"ORANGE Services Fixes"
794010;-0.06194;47.28028;"00° 03' 43.00'' Ouest, 47° 16' 49.00'' Nord";"49328";;"R DES PETITES GRANGES ZONE ECOPARC";"49400";"SAUMUR";"Pylône autostable"; 26.0;"ORANGE"
794024;-0.49556;47.46861;"00° 29' 44.00'' Ouest, 47° 28' 07.00'' Nord";"49267";"EGLISE DE ST BARTHELEMY";"PL JEAN XXIII";"49124";"SAINT-BARTHELEMY-D'ANJOU";"Monument religieux"; 28.0;"Commune, communauté de commune"
794029;-0.13250;47.26306;"00° 07' 57.00'' Ouest, 47° 15' 47.00'' Nord";"49328";;"TERREFORT ECOLE NATIONALE D EQUITATION";"49400";"SAUMUR";"Pylône tubulaire"; 34.0;"SFR"
794031;-0.90806;47.08556;"00° 54' 29.00'' Ouest, 47° 05' 08.00'' Nord";"49099";"L'HERMITAGE";"D752";"49300";"CHOLET";"Pylône autostable"; 35.0;"ORANGE"
795433;-0.62028;47.21889;"00° 37' 13.00'' Ouest, 47° 13' 08.00'' Nord";"49153";"LA REBRETIERE";;"49670";"VALANJOU";"Pylône autostable"; 32.0;"Société Privée SA"
795447;-1.03167;47.64528;"01° 01' 54.00'' Ouest, 47° 38' 43.00'' Nord";"49061";"LE TREZELAY";;"49440";"CHALLAIN-LA-POTHERIE";"Pylône autostable"; 30.0;"Société Privée SA"
795473;-0.52639;47.14444;"00° 31' 35.00'' Ouest, 47° 08' 40.00'' Nord";"49373";"LE CHAMP BOUCHET";"CHEM DE PIC BOEUF";"49310";"VIHIERS";"Château d'eau - réservoir"; 26.0;"Syndicat des eaux, Adduction"
796901;-0.69611;47.57250;"00° 41' 46.00'' Ouest, 47° 34' 21.00'' Nord";"49155";"LA BLINAIE";;"49220";"GREZ-NEUVILLE";"Pylône autostable"; 30.0;"SFR"
808330;-0.93278;47.05556;"00° 55' 58.00'' Ouest, 47° 03' 20.00'' Nord";"49332";"LE GRAND CHAMP";"VOIE COMMUNALE N° 10";"49280";"LA SEGUINIERE";"Pylône autostable"; 30.0;"ORANGE"
810627;-0.56528;47.48833;"00° 33' 55.00'' Ouest, 47° 29' 18.00'' Nord";"49007";;"23,25,27 R RAOUL PONCHON";"49000";"ANGERS";"Immeuble"; 24.0;"Société HLM"
811271;-0.51278;47.47556;"00° 30' 46.00'' Ouest, 47° 28' 32.00'' Nord";"49267";;"4 R DU CUL D'ANON";"49124";"SAINT-BARTHELEMY-D'ANJOU";"Pylône tubulaire"; 20.0;"SFR"
811323;-0.56694;47.42083;"00° 34' 01.00'' Ouest, 47° 25' 15.00'' Nord";"49278";;"R DE BOUCHEMAINE BÂTIMENT DE LA BLANCHISSERIE DU CENTRE DE SANTÉ CE";"49130";"SAINTE-GEMMES-SUR-LOIRE";"Bâtiment"; 21.0;"Société Privée SA"
811459;-0.90028;47.05389;"00° 54' 01.00'' Ouest, 47° 03' 14.00'' Nord";"49099";;"BD  DES TURBAUDIÈRES -D13 PYLÔNE RTE";"49300";"CHOLET";"Pylône autostable"; 33.0;"RTE"
819408;-1.06833;47.15528;"01° 04' 06.00'' Ouest, 47° 09' 19.00'' Nord";"49375";;"LA TROLTIÈRE";"49450";"VILLEDIEU-LA-BLOUERE";"Château d'eau - réservoir"; 31.0;"Syndicat des eaux, Adduction"
820819;-0.32722;47.56667;"00° 19' 38.00'' Ouest, 47° 34' 00.00'' Nord";"49188";;"A 11  ECHANGEUR DE SEICHES  BAUGÉ";"49140";"MARCE";"Pylône autostable"; 39.3;"Sociétés d'Autoroutes"
823355;-0.79333;47.43444;"00° 47' 36.00'' Ouest, 47° 26' 04.00'' Nord";"49266";;"A 11 - AIRE DES MONTILETS - PK 56";"49170";"SAINT-AUGUSTIN-DES-BOIS";"Pylône autostable"; 44.3;"Sociétés d'Autoroutes"
825865;-0.66667;47.27167;"00° 40' 00.00'' Ouest, 47° 16' 18.00'' Nord";"49071";;"ZONE ARTISANALE DU BON RENÉ";"49750";"CHANZEAUX";"Pylône autostable"; 19.0;"Société Privée SA"
826022;-0.87528;47.68583;"00° 52' 31.00'' Ouest, 47° 41' 09.00'' Nord";"49331";;"2 PL DE LA LOGE";"49500";"SEGRE";"Immeuble"; 38.0;"Société Privée SA"
828990;-0.85639;47.38667;"00° 51' 23.00'' Ouest, 47° 23' 12.00'' Nord";"49212";;"R DE LA CHAPELLE";"49570";"MONTJEAN-SUR-LOIRE";"Château d'eau - réservoir"; 32.0;"Syndicat des eaux, Adduction"
830329;0.02056;47.47333;"00° 01' 14.00'' Est, 47° 28' 24.00'' Nord";"49221";"LA CROIX CHATEAU";"SORTIE DU BOURG";"49390";"MOULIHERNE";"Château d'eau - réservoir"; 43.0;"Commune, communauté de commune"
831001;-0.07306;47.23806;"00° 04' 23.00'' Ouest, 47° 14' 17.00'' Nord";"49328";;"R FLANDRES DUNKERQUE ZI DU CLOS BONNET";"49400";"SAUMUR";"Pylône autostable"; 33.0;"BOUYGUES"
831469;-0.90028;47.03806;"00° 54' 01.00'' Ouest, 47° 02' 17.00'' Nord";"49099";;"AV DES SABLES";"49300";"CHOLET";"Bâtiment"; 23.0;"Société Privée SA"
838966;-0.32944;47.54389;"00° 19' 46.00'' Ouest, 47° 32' 38.00'' Nord";"49110";"LES CHAUSSUMERIES";;"49140";"CORZE";"Pylône autostable"; 40.0;"SFR"
839098;-0.42000;47.51972;"00° 25' 12.00'' Ouest, 47° 31' 11.00'' Nord";"49377";"LA POTARDIÈRE";"EMPRISES ASF PK 252,10 - SENS PARIS-PROVINCE";"49140";"VILLEVEQUE";"Pylône autostable"; 45.0;"Sociétés d'Autoroutes"
839888;-0.93667;47.41111;"00° 56' 12.00'' Ouest, 47° 24' 40.00'' Nord";"49160";"ST JULIEN";"ROUDE DE CANDÉ - D6 CHÂTEAU D'EAU";"49123";"INGRANDES";"Château d'eau - réservoir"; 55.0;"Syndicat des eaux, Adduction"
842548;-0.81889;47.10750;"00° 49' 08.00'' Ouest, 47° 06' 27.00'' Nord";"49355";"LA GADELLERIE";"V.C. N° 22 DE TRÉMENTINES À CHOLET";"49340";"TREMENTINES";"Pylône autostable"; 35.0;"ORANGE"
857156;-0.90083;47.04389;"00° 54' 03.00'' Ouest, 47° 02' 38.00'' Nord";"49099";;"3 ALL DES PINSONS IMM D";"49300";"CHOLET";"Immeuble"; 54.0;"Copropriété, Syndic, SCI"
857158;-0.87278;47.06750;"00° 52' 22.00'' Ouest, 47° 04' 03.00'' Nord";"49099";;"GARE SNCF";"49300";"CHOLET";"Pylône autostable"; 30.0;"SFR"
857167;-0.88583;47.06500;"00° 53' 09.00'' Ouest, 47° 03' 54.00'' Nord";"49099";;"19, R DE L'ETOILE COLLÈGE JEANNE D'ARC";"49300";"CHOLET";"Immeuble"; 25.5;"Association"
857171;-0.47639;47.44306;"00° 28' 35.00'' Ouest, 47° 26' 35.00'' Nord";"49353";;"85 R FERDINAND VEST";"49800";"TRELAZE";"Pylône tubulaire"; 30.0;"SFR"
857177;-0.63139;47.40889;"00° 37' 53.00'' Ouest, 47° 24' 32.00'' Nord";"49035";"LA PIÈCE DES POIRIERS";;"49080";"BOUCHEMAINE";"Pylône autostable"; 25.0;"SFR"
861774;-1.06306;47.14833;"01° 03' 47.00'' Ouest, 47° 08' 54.00'' Nord";"49375";;"PL JEANNE D'ARC EGLISE";"49450";"VILLEDIEU-LA-BLOUERE";"Monument religieux"; 46.0;"Commune, communauté de commune"
862288;-0.83028;47.44528;"00° 49' 49.00'' Ouest, 47° 26' 43.00'' Nord";"49068";;"LES LANDES DE GOHARD";"49123";"CHAMPTOCE-SUR-LOIRE";"Bâtiment"; 10.0;"Particulier"
872249;-0.66194;47.55611;"00° 39' 43.00'' Ouest, 47° 33' 22.00'' Nord";"49242";"LE PETIT PRÉ";"ZI DE LA CHEVALLERIE";"49770";"LE PLESSIS-MACE";"Pylône autostable"; 40.0;"ORANGE"
877996;-0.40333;47.43444;"00° 24' 12.00'' Ouest, 47° 26' 04.00'' Nord";"49032";"LA GARE";"ZA LA BOHALLE PRÈS D 113";"49800";"LA BOHALLE";"Pylône autostable"; 28.0;"ORANGE"
879811;-0.08972;47.26750;"00° 05' 23.00'' Ouest, 47° 16' 03.00'' Nord";"49328";;"BD  DU MARÉCHAL JUIN MAGASIN CASA";"49400";"SAUMUR";"Pylône tubulaire"; 20.0;"ORANGE"
880751;-0.34750;47.53944;"00° 20' 51.00'' Ouest, 47° 32' 22.00'' Nord";"49110";"LA BUTTE - PETIT BOIS";"CHEM RURAL DU PETIT BOIS";"49140";"CORZE";"Pylône autostable"; 36.0;"ORANGE"
885049;-0.51861;47.46528;"00° 31' 07.00'' Ouest, 47° 27' 55.00'' Nord";"49267";"LE LIERUX";"CHEM DE FER D'ANGERS MAITRE ECOLE À LA PYRAMIDE";"49124";"SAINT-BARTHELEMY-D'ANJOU";"Pylône autostable"; 25.0;"SFR"
887874;-1.21028;47.33417;"01° 12' 37.00'' Ouest, 47° 20' 03.00'' Nord";"49126";;"RUE DU PLANTIS BOISSEAU CHEMIN RURAL DE L'ORINIÈRE AU BOURG";"49530";"DRAIN";"Pylône tubulaire"; 29.5;"SFR"
889856;-0.51417;47.48750;"00° 30' 51.00'' Ouest, 47° 29' 15.00'' Nord";"49007";;"R ALFRED DE MUSSET 10";"49000";"ANGERS";"Immeuble"; 26.0;"Société HLM"
892962;-0.69222;47.02417;"00° 41' 32.00'' Ouest, 47° 01' 27.00'' Nord";"49381";"LA TOUCHE";"RD 267 STADE";"49360";"YZERNAY";"Pylône autostable"; 25.1;"SFR"
899835;-0.82000;47.32361;"00° 49' 12.00'' Ouest, 47° 19' 25.00'' Nord";"49295";;"LA GRANDE PIECE";"49290";"SAINT-LAURENT-DE-LA-PLAINE";"Bâtiment"; 10.0;"Société Privée SA"
899837;-0.84417;47.33194;"00° 50' 39.00'' Ouest, 47° 19' 55.00'' Nord";"49244";;"LES GOELANDS";"49620";"LA POMMERAYE";"Bâtiment"; 10.0;"Société Privée SA"
899839;-0.78389;47.28333;"00° 47' 02.00'' Ouest, 47° 16' 60.00'' Nord";"49225";;"ROCHARD L'AVENEAU";"49120";"NEUVY-EN-MAUGES";"Bâtiment"; 10.0;"Société Privée SA"
899841;-0.82083;47.32111;"00° 49' 15.00'' Ouest, 47° 19' 16.00'' Nord";"49295";;"L EPERVIER";"49290";"SAINT-LAURENT-DE-LA-PLAINE";"Mât"; 10.0;"Société Privée SA"
899843;-0.71639;47.39750;"00° 42' 59.00'' Ouest, 47° 23' 51.00'' Nord";"49247";;"LES NAIES";"49170";"LA POSSONNIERE";"Bâtiment"; 10.0;"Société Privée SA"
899845;-0.83167;47.32194;"00° 49' 54.00'' Ouest, 47° 19' 19.00'' Nord";"49039";;"LES MAROTTIERES";"49290";"BOURGNEUF-EN-MAUGES";"Bâtiment"; 10.0;"Société Privée SA"
901310;-0.87472;47.06861;"00° 52' 29.00'' Ouest, 47° 04' 07.00'' Nord";"49099";;"BD DU GÉNÉRAL FAIDHERBE GARE SNCF";"49300";"CHOLET";"Pylône tubulaire"; 28.0;"IFW-FREE"
902419;-0.11583;47.40417;"00° 06' 57.00'' Ouest, 47° 24' 15.00'' Nord";"49180";;"PEAGE A85 PR024";"49160";"LONGUE-JUMELLES";"Bâtiment"; 6.0;"Sociétés d'Autoroutes"
902421;-0.19361;47.46806;"00° 11' 37.00'' Ouest, 47° 28' 05.00'' Nord";"49138";;"PEAGE A85 PR014 BEAUFORT";"49250";"FONTAINE-GUERIN";"Bâtiment"; 6.0;"Sociétés d'Autoroutes"
902423;-0.81639;47.43167;"00° 48' 59.00'' Ouest, 47° 25' 54.00'' Nord";"49284";;"PEAGE A11 19 PR285 LA HAIE";"49170";"SAINT-GERMAIN-DES-PRES";"Bâtiment"; 6.0;"Sociétés d'Autoroutes"
903653;-0.53500;47.39500;"00° 32' 06.00'' Ouest, 47° 23' 42.00'' Nord";"49223";;"AUTOROUTE A87 KM 1 ZER PAYS DE LOIRE";"49610";"MURS-ERIGNE";"Ouvrage de signalisation (portique routier, panneau routier, panneau publicitaire)"; 4.0;"Sociétés d'Autoroutes"
903655;-0.50889;47.40139;"00° 30' 32.00'' Ouest, 47° 24' 05.00'' Nord";"49308";"TREILLEBOIS";"CE ASF ZER PAYS DE LOIRE";"49610";"SAINT-MELAINE-SUR-AUBANCE";"Bâtiment"; 7.0;"Sociétés d'Autoroutes"
903884;-0.57528;47.31333;"00° 34' 31.00'' Ouest, 47° 18' 48.00'' Nord";"49022";;"PYL ASF PRES LE FOURNEAU ZER PAYS DE LOIRE";"49750";"BEAULIEU-SUR-LAYON";"Pylône autostable"; 50.0;"Sociétés d'Autoroutes"
903932;-0.87917;46.99500;"00° 52' 45.00'' Ouest, 46° 59' 42.00'' Nord";"49099";;"PYL ASF PUY ST BONNET CHEM DE LA RICHARDIERE";"49300";"CHOLET";"Pylône autostable"; 32.0;"Société Privée SA"
903969;-0.30389;47.60639;"00° 18' 14.00'' Ouest, 47° 36' 23.00'' Nord";"49076";;"PYLONE ASF ZER PAYS DE LOIRE";"49140";"LA CHAPELLE-SAINT-LAUD";"Pylône autostable"; 60.0;"Sociétés d'Autoroutes"
908352;-0.53639;47.47056;"00° 32' 11.00'' Ouest, 47° 28' 14.00'' Nord";"49007";;"30 AVE MONTAIGNE";"49000";"ANGERS";"Bâtiment"; 50.0;"Société Privée SA"
908456;-0.63361;47.36611;"00° 38' 01.00'' Ouest, 47° 21' 58.00'' Nord";"49259";"BELLEVUE";"ZA LA CROIX DES LOGES";"49190";"ROCHEFORT-SUR-LOIRE";"Pylône autostable"; 35.6;"SFR"
911261;-0.88306;47.06972;"00° 52' 59.00'' Ouest, 47° 04' 11.00'' Nord";"49099";;"43 BD CHANZY";"49300";"CHOLET";"Bâtiment"; 19.9;"Copropriété, Syndic, SCI"
911578;-0.56750;47.45972;"00° 34' 03.00'' Ouest, 47° 27' 35.00'' Nord";"49007";;"PROM DE LA BAUMETTE";"49000";"ANGERS";"Pylône tubulaire"; 25.0;"IFW-FREE"
913499;-0.27889;47.62556;"00° 16' 44.00'' Ouest, 47° 37' 32.00'' Nord";"49076";"LA PATURE";"AIRE DE REPOS LA CHAPELLE ST LAUD EST A11 PK 234";"49140";"LA CHAPELLE-SAINT-LAUD";"Pylône autostable"; 48.0;"Sociétés d'Autoroutes"
921447;-0.52361;47.48278;"00° 31' 25.00'' Ouest, 47° 28' 58.00'' Nord";"49007";"CHÂTEAU D'EAU MONTPLAISIR";"BD  HENRI DUNAND";"49000";"ANGERS";"Château d'eau - réservoir"; 72.0;"Syndicat des eaux, Adduction"
921453;-0.93167;47.70333;"00° 55' 54.00'' Ouest, 47° 42' 12.00'' Nord";"49233";"LE BOIS DEUX";"R DU CARREAU ANCIENNE MINE";"49500";"NYOISEAU";"Bâtiment"; 68.0;"Société Privée SA"
928309;-0.10194;47.10806;"00° 06' 07.00'' Ouest, 47° 06' 29.00'' Nord";"49215";"R DU CHATEAU D'EAU";"ZI MERON";"49260";"MONTREUIL-BELLAY";"Château d'eau - réservoir"; 27.0;"Syndicat des eaux, Adduction"
928745;-0.11278;47.21000;"00° 06' 46.00'' Ouest, 47° 12' 36.00'' Nord";"49123";"LA MAISON BLANCHE";"POSTE RTE";"49400";"DISTRE";"Pylône autostable"; 41.0;"RTE"
928751;-0.10167;47.37583;"00° 06' 06.00'' Ouest, 47° 22' 33.00'' Nord";"49180";;"PL STE BARBE CSEC";"49160";"LONGUE-JUMELLES";"Pylône autostable"; 30.0;"Conseil Général"
929097;-0.77361;47.30639;"00° 46' 25.00'' Ouest, 47° 18' 23.00'' Nord";"49295";;"LA BOHARDIERE";"49290";"SAINT-LAURENT-DE-LA-PLAINE";"Bâtiment"; 10.0;"Société Privée SA"
930657;-0.42222;47.32583;"00° 25' 20.00'' Ouest, 47° 19' 33.00'' Nord";"49078";"VILVERT";"SILO SA VERT ANJOU";"49320";"CHARCE-SAINT-ELLIER-SUR-AUBANCE";"Silo"; 26.0;"Société Privée SA"
933494;-0.05806;47.24694;"00° 03' 29.00'' Ouest, 47° 14' 49.00'' Nord";"49328";"LE VIGNEAU";"HOP  SAUMUR - PYLONET TDF SUR HOPIT";"49400";"SAUMUR";"Bâtiment"; 16.0;"Etablissement de soins"
934964;-0.47944;47.52833;"00° 28' 46.00'' Ouest, 47° 31' 42.00'' Nord";"49323";"ZA LES LANDES";;"49480";"SAINT-SYLVAIN-D'ANJOU";"Bâtiment"; 20.0;"Société Privée SA"
935082;-0.47833;47.45250;"00° 28' 42.00'' Ouest, 47° 27' 09.00'' Nord";"49353";;"70 BD CHARLES DE GAULLE";"49800";"TRELAZE";"Pylône autostable"; 30.0;"IFW-FREE"
936298;-0.67417;47.37917;"00° 40' 27.00'' Ouest, 47° 22' 45.00'' Nord";"49247";"LA MORT BAILLIF";"CHEM DE LA HUTTE";"49170";"LA POSSONNIERE";"Pylône autostable"; 30.0;"ORANGE"
941787;-0.88972;47.51722;"00° 53' 23.00'' Ouest, 47° 31' 02.00'' Nord";"49183";"LES CHAMPONNEAUX";;"49370";"LE LOUROUX-BECONNAIS";"Pylône autostable"; 25.1;"SFR"
944233;-0.50278;47.43639;"00° 30' 10.00'' Ouest, 47° 26' 11.00'' Nord";"49246";;"23 AV DU MOULIN MARCILLE";"49130";"LES PONTS-DE-CE";"Pylône tubulaire"; 30.1;"IFW-FREE"
952533;-0.55361;47.46889;"00° 33' 13.00'' Ouest, 47° 28' 08.00'' Nord";"49007";;"R DES LICES TOUR ST AUBIN";"49000";"ANGERS";"Monument historique"; 56.0;"Commune, communauté de commune"
957959;-0.88028;47.01889;"00° 52' 49.00'' Ouest, 47° 01' 08.00'' Nord";"49099";;"GARE DE PEAGE CHOLET SUD ZER PAYS DE LOIRE";"49300";"CHOLET";"Bâtiment"; 7.0;"Sociétés d'Autoroutes"
957961;-0.82833;47.08333;"00° 49' 42.00'' Ouest, 47° 05' 00.00'' Nord";"49099";;"GARE DE PEAGE CHOLET NORD ZER PAYS DE LOIRE";"49300";"CHOLET";"Bâtiment"; 7.0;"Sociétés d'Autoroutes"
958797;-0.52083;47.46944;"00° 31' 15.00'' Ouest, 47° 28' 10.00'' Nord";"49007";;"6 R GUILLAUME LEKEU STADE DE L'ARCEAU";"49000";"ANGERS";"Pylône tubulaire"; 31.0;"BOUYGUES"
959980;-0.19528;47.34611;"00° 11' 43.00'' Ouest, 47° 20' 46.00'' Nord";"49272";"ST NICOLAS";"ROUTE DES CHAMPILLONS VOIE COMMUNALE 4 DU PASSOIR À LA RD952";"49350";"SAINT-CLEMENT-DES-LEVEES";"Pylône autostable"; 30.0;"ORANGE"
964282;0.02583;47.26028;"00° 01' 33.00'' Est, 47° 15' 37.00'' Nord";"49361";"FLACÉ";"RUE DE FLACÉ";"49730";"VARENNES-SUR-LOIRE";"Pylône autostable"; 30.0;"ORANGE"
964914;-0.29056;47.63694;"00° 17' 26.00'' Ouest, 47° 38' 13.00'' Nord";"49174";"RUE DE LA ROBINIÈRE";"CHATEAU D'EAU";"49430";"LEZIGNE";"Château d'eau - réservoir"; 42.0;"Syndicat des eaux, Adduction"
972120;-0.68778;47.46611;"00° 41' 16.00'' Ouest, 47° 27' 58.00'' Nord";"49289";;"ECHANGEUR TROUSSEBOUR A11 PR203 BASE RECUEIL";"49070";"SAINT-JEAN-DE-LINIERES";"Bâtiment"; 6.0;"Sociétés d'Autoroutes"
974118;-0.72722;47.23917;"00° 43' 38.00'' Ouest, 47° 14' 21.00'' Nord";"49092";;"GARE DE PEAGE CHEMILLE ZER PAYS DE LOIRE";"49120";"CHEMILLE";"Bâtiment"; 9.0;"Sociétés d'Autoroutes"
1000752;-0.48611;47.54556;"00° 29' 10.00'' Ouest, 47° 32' 44.00'' Nord";"49377";"LA DIONNIÈRE";"PRÈS D52 LA HOUSSAYE";"49140";"VILLEVEQUE";"Pylône tubulaire"; 25.0;"ORANGE"
1008807;-0.07500;47.26417;"00° 04' 30.00'' Ouest, 47° 15' 51.00'' Nord";"49328";;"RUE JULES FERRY";"49400";"SAUMUR";"Bâtiment"; 7.0;"EDF GDF"
1008809;-0.72000;47.55694;"00° 43' 12.00'' Ouest, 47° 33' 25.00'' Nord";"49200";"LE PAS DE CHAT";;"49770";"LA MEMBROLLE-SUR-LONGUENEE";"Pylône autostable"; 40.0;"EDF GDF"
1010876;-0.32667;47.27500;"00° 19' 36.00'' Ouest, 47° 16' 30.00'' Nord";"49003";;"RUE DES NOYERS";"49700";"AMBILLOU-CHATEAU";"Bâtiment"; 14.0;"Société Privée SA"
1011707;-0.70194;47.15250;"00° 42' 07.00'' Ouest, 47° 09' 09.00'' Nord";"49351";"LE BOIS OGER";;"49120";"LA TOURLANDRY";"Château d'eau - réservoir"; 51.0;"Syndicat des eaux, Adduction"
1022574;-0.90417;47.07722;"00° 54' 15.00'' Ouest, 47° 04' 38.00'' Nord";"49099";;"CHEMIN DU BOIS LABALLE RUE EUGENE BREMOND";"49300";"CHOLET";"Pylône autostable"; 43.0;"EDF GDF"
1037058;-0.52111;47.46861;"00° 31' 16.00'' Ouest, 47° 28' 07.00'' Nord";"49007";;"2 RUE GUILLAUME LEKEU";"49000";"ANGERS";"Pylône tubulaire"; 30.0;"IFW-FREE"
1039651;-0.53833;47.45722;"00° 32' 18.00'' Ouest, 47° 27' 26.00'' Nord";"49007";;"139 RUE CHEVRE SERVICE DES EAUX";"49000";"ANGERS";"Château d'eau - réservoir"; 25.0;"Commune, communauté de commune"
1041798;-0.26944;47.11694;"00° 16' 10.00'' Ouest, 47° 07' 01.00'' Nord";"49302";;"CHAMP NOIR";"49260";"SAINT-MACAIRE-DU-BOIS";"Silo"; 25.0;"Société Privée SA"
1043142;-1.09389;47.66028;"01° 05' 38.00'' Ouest, 47° 39' 37.00'' Nord";"49354";"LANDE DE LA BATAILLE";"LE GENET D'ESPAGNE";"49520";"LE TREMBLAY";"Pylône autostable"; 92.0;"Autres"
1044758;-1.05500;47.55472;"01° 03' 18.00'' Ouest, 47° 33' 17.00'' Nord";"49144";"LA JOLIVRAIE";"D19";"49440";"FREIGNE";"Bâtiment"; 5.5;"EDF GDF"
1045246;-0.75694;47.38694;"00° 45' 25.00'' Ouest, 47° 23' 13.00'' Nord";"49283";"BEAUVAIS";"ROUTE DE CHALONNES";"49170";"SAINT-GEORGES-SUR-LOIRE";"Mât"; 5.0;"EDF GDF"
1045248;-0.39194;47.57694;"00° 23' 31.00'' Ouest, 47° 34' 37.00'' Nord";"49216";"LA RONCINIÈRE";"D 109";"49140";"MONTREUIL-SUR-LOIR";"Bâtiment"; 4.2;"EDF GDF"
1045250;-0.87278;47.07583;"00° 52' 22.00'' Ouest, 47° 04' 33.00'' Nord";"49099";"LA TOUCHE";"RUE D'ALENCON";"49300";"CHOLET";"Bâtiment"; 6.0;"EDF GDF"
1045258;-0.08833;47.36639;"00° 05' 18.00'' Ouest, 47° 21' 59.00'' Nord";"49180";"LES BLANCHARDIERES";"LES SOUVENETS ZONE INDUSTRIELLE";"49160";"LONGUE-JUMELLES";"Bâtiment"; 4.2;"EDF GDF"
1045262;-1.16361;47.74944;"01° 09' 49.00'' Ouest, 47° 44' 58.00'' Nord";"49248";"LES HOMMEAUX";"RUES DES PERRIERES LA PIDAIE";"49420";"POUANCE";"Bâtiment"; 5.5;"EDF GDF"
1045266;-0.25389;47.18306;"00° 15' 14.00'' Ouest, 47° 10' 59.00'' Nord";"49125";"LA SEIGNEURERIE";"ANDRÉ MARIE AMPERE";"49700";"DOUE-LA-FONTAINE";"Bâtiment"; 6.5;"EDF GDF"
1045474;-0.88111;47.03861;"00° 52' 52.00'' Ouest, 47° 02' 19.00'' Nord";"49099";"LA BENESTIERE";"RUE DE LA BENESTIERE";"49300";"CHOLET";"Bâtiment"; 5.0;"EDF GDF"
1045552;-1.02361;47.25500;"01° 01' 25.00'' Ouest, 47° 15' 18.00'' Nord";"49313";"LE PAVILLON";;"49110";"SAINT-PIERRE-MONTLIMART";"Bâtiment"; 6.0;"EDF GDF"
1045563;-0.48167;47.50694;"00° 28' 54.00'' Ouest, 47° 30' 25.00'' Nord";"49323";"LA FOUCAUDIÈRE";"D 117";"49480";"SAINT-SYLVAIN-D'ANJOU";"Bâtiment"; 3.5;"EDF GDF"
1045568;-0.89583;47.69111;"00° 53' 45.00'' Ouest, 47° 41' 28.00'' Nord";"49277";"L'EBEAUPINIERE";"AVENUE DE BRETAGNE";"49500";"SAINTE-GEMMES-D'ANDIGNE";"Bâtiment"; 10.0;"EDF GDF"
1045825;-1.00000;47.35861;"01° 00' 00.00'' Ouest, 47° 21' 31.00'' Nord";"49276";"LA SOURDRIE";"TOURNE BOYAU";"49410";"SAINT-FLORENT-LE-VIEIL";"Bâtiment"; 6.5;"EDF GDF"
1045831;-0.12139;47.11472;"00° 07' 17.00'' Ouest, 47° 06' 53.00'' Nord";"49215";"LES AMANDIERS";"D347";"49260";"MONTREUIL-BELLAY";"Bâtiment"; 5.0;"EDF GDF"
1045835;-0.84111;47.06778;"00° 50' 28.00'' Ouest, 47° 04' 04.00'' Nord";"49099";"LA BLANCHARDIERE";"CHEMIN DE LA BLANCHARDIERE";"49300";"CHOLET";"Bâtiment"; 5.0;"EDF GDF"
1045837;-0.26806;47.43528;"00° 16' 05.00'' Ouest, 47° 26' 07.00'' Nord";"49194";"LA MACRERE";"LA MACRERE";"49630";"MAZE";"Bâtiment"; 7.0;"EDF GDF"
1046167;-0.63222;47.46278;"00° 37' 56.00'' Ouest, 47° 27' 46.00'' Nord";"49020";;"AVENUE DE LA FONTAINE ZONE INDUSTRIELLE D'ANGERS BEA";"49070";"BEAUCOUZE";"Bâtiment"; 5.2;"EDF GDF"
1046169;-0.10000;47.53139;"00° 06' 00.00'' Ouest, 47° 31' 53.00'' Nord";"49018";"LA CHOPINIERE";"AVENUE DU GÉNÉRAL DE GAULLE";"49150";"BAUGE";"Bâtiment"; 6.2;"EDF GDF"
1046491;-0.75222;47.21333;"00° 45' 08.00'' Ouest, 47° 12' 48.00'' Nord";"49092";"L'ESPÉRANCE";"LA VIEILLE ETOUBLE";"49120";"CHEMILLE";"Bâtiment"; 4.5;"EDF GDF"
1047566;-1.01722;47.26944;"01° 01' 02.00'' Ouest, 47° 16' 10.00'' Nord";"49313";;"RTE DE CHAUDRON EN MAUGES - R ST THOMAS";"49110";"SAINT-PIERRE-MONTLIMART";"Pylône haubané"; 25.7;"BOUYGUES"
1048428;0.15444;47.44639;"00° 09' 16.00'' Est, 47° 26' 47.00'' Nord";"49234";"LA TAVELLERIE";;"49390";"PARCAY-LES-PINS";"Château d'eau - réservoir"; 50.0;"Syndicat des eaux, Adduction"
1051708;-0.48000;47.38361;"00° 28' 48.00'' Ouest, 47° 23' 01.00'' Nord";"49167";"LA GAGNERIE";"CHEMIN DE LA COUDRE";"49610";"JUIGNE-SUR-LOIRE";"Bâtiment"; 5.0;"EDF GDF"
1051711;-0.46611;47.20667;"00° 27' 58.00'' Ouest, 47° 12' 24.00'' Nord";"49012";"LE GROLAY";"D 84 LES LANDES";"49540";"AUBIGNE-SUR-LAYON";"Bâtiment"; 8.0;"EDF GDF"
1051713;-0.54972;47.48139;"00° 32' 59.00'' Ouest, 47° 28' 53.00'' Nord";"49007";"CHALQUERE";"27 QUAI FELIX FAURE";"49000";"ANGERS";"Bâtiment"; 25.0;"EDF GDF"
1051715;-0.55500;47.44278;"00° 33' 18.00'' Ouest, 47° 26' 34.00'' Nord";"49278";"TROIS PAROISSES";"BLD ROBERT D'ARBRISSEL";"49130";"SAINTE-GEMMES-SUR-LOIRE";"Bâtiment"; 4.7;"EDF GDF"
1052106;-0.07000;47.24417;"00° 04' 12.00'' Ouest, 47° 14' 39.00'' Nord";"49328";"LE VIGNAUD";"ROUTE DE FONTEVRAUD";"49400";"SAUMUR";"Bâtiment"; 7.0;"EDF GDF"
1053980;-0.58639;47.44306;"00° 35' 11.00'' Ouest, 47° 26' 35.00'' Nord";"49278";"CHEMIN FRESNE";;"49130";"SAINTE-GEMMES-SUR-LOIRE";"Bâtiment"; 18.0;"Conseil Général"
1060167;-0.64111;47.65111;"00° 38' 28.00'' Ouest, 47° 39' 04.00'' Nord";"49344";"LA BARBOTIERE";"CHENE VERT";"49220";"THORIGNE-D'ANJOU";"Bâtiment"; 4.5;"EDF GDF"
1060573;-0.64444;47.55000;"00° 38' 40.00'' Ouest, 47° 32' 60.00'' Nord";"49242";"LA PIRONNIERE";;"49770";"LE PLESSIS-MACE";"Bâtiment"; 6.0;"EDF GDF"
1084030;-0.56833;47.44806;"00° 34' 06.00'' Ouest, 47° 26' 53.00'' Nord";"49007";;"47 RUE SIMONE WEIL";"49000";"ANGERS";"Immeuble"; 23.8;"Société HLM"
1151853;-1.09611;47.65528;"01° 05' 46.00'' Ouest, 47° 39' 19.00'' Nord";"49061";;"PRÈS D212 LANDE DU MOULIN BLANC";"49440";"CHALLAIN-LA-POTHERIE";"Pylône autostable"; 45.0;"ORANGE"
1161994;-0.93722;47.07333;"00° 56' 14.00'' Ouest, 47° 04' 24.00'' Nord";"49332";;"RUE AMPÈRE";"49280";"LA SEGUINIERE";"Pylône autostable"; 18.0;"TDF"
1188412;-0.78278;47.39028;"00° 46' 58.00'' Ouest, 47° 23' 25.00'' Nord";"49283";"COUTANCES";;"49170";"SAINT-GEORGES-SUR-LOIRE";"Pylône autostable"; 20.0;"SNCF Réseau"
1201410;-0.53667;47.47000;"00° 32' 12.00'' Ouest, 47° 28' 12.00'' Nord";"49007";;"30 AVENUE MONTAIGNE RESID JEANNE D ARC BAT D";"49000";"ANGERS";"Immeuble"; 58.0;"Société Privée SA"
1214541;-0.42778;47.52500;"00° 25' 40.00'' Ouest, 47° 31' 30.00'' Nord";"49377";;"RPD A11 ECHANGEUR PELLOUAILLES LES VIGNES PMVA";"49140";"VILLEVEQUE";"Ouvrage de signalisation (portique routier, panneau routier, panneau publicitaire)"; 6.0;"Sociétés d'Autoroutes"
1263071;-0.69111;47.37167;"00° 41' 28.00'' Ouest, 47° 22' 18.00'' Nord";"49247";;"AVENUE DE LA GARE";"49170";"LA POSSONNIERE";"Pylône autostable"; 25.0;"SNCF Réseau"
1263073;-0.88639;47.41139;"00° 53' 11.00'' Ouest, 47° 24' 41.00'' Nord";"49068";"LA BOIRE DE CHAMPTOCÉ";;"49123";"CHAMPTOCE-SUR-LOIRE";"Pylône autostable"; 25.0;"SNCF Réseau"
1272830;-0.61639;47.51694;"00° 36' 59.00'' Ouest, 47° 31' 01.00'' Nord";"49015";;"ROUTE DUFLÉCHET Z.I. LA CROIX CADEAU";"49240";"AVRILLE";"Pylône autostable"; 36.0;"ORANGE"
1274036;-0.53139;47.46639;"00° 31' 53.00'' Ouest, 47° 27' 59.00'' Nord";"49007";;"RUE LECLERC GUILLORY";"49000";"ANGERS";"Pylône autostable"; 25.0;"SNCF Réseau"
1274040;-0.61722;47.41722;"00° 37' 02.00'' Ouest, 47° 25' 02.00'' Nord";"49035";;"3 AVENUE DE LA GARE";"49080";"BOUCHEMAINE";"Pylône autostable"; 25.0;"SNCF Réseau"
1274042;-0.51694;47.50583;"00° 31' 01.00'' Ouest, 47° 30' 21.00'' Nord";"49129";;"BD DE L'INDUSTRIE";"49000";"ECOUFLANT";"Pylône autostable"; 20.0;"SNCF Réseau"
1277625;-0.55417;47.48722;"00° 33' 15.00'' Ouest, 47° 29' 14.00'' Nord";"49007";;"RUE DES CAPUCINS CHU D ANGERS";"49000";"ANGERS";"Immeuble"; 26.0;"Etablissement de soins"
1278421;-0.31722;47.41194;"00° 19' 02.00'' Ouest, 47° 24' 43.00'' Nord";"49307";;"LE BOURG";"49250";"SAINT-MATHURIN-SUR-LOIRE";"Pylône tubulaire"; 20.0;"SNCF Réseau"
1278425;-0.47056;47.61639;"00° 28' 14.00'' Ouest, 47° 36' 59.00'' Nord";"49347";"LE BOURG";"CHEMIN DE LA PETITE VITESSE - ZI PORTE BISE";"49125";"TIERCE";"Pylône autostable"; 25.0;"SNCF Réseau"
1278427;-0.45000;47.44750;"00° 27' 00.00'' Ouest, 47° 26' 51.00'' Nord";"49353";"LE PONT DE BIAIS";;"49800";"TRELAZE";"Pylône autostable"; 20.0;"SNCF Réseau"
1278429;-0.48028;47.55167;"00° 28' 49.00'' Ouest, 47° 33' 06.00'' Nord";"49377";"LES CHARDONS";;"49140";"VILLEVEQUE";"Pylône autostable"; 25.0;"SNCF Réseau"
1286240;-1.07167;47.15083;"01° 04' 18.00'' Ouest, 47° 09' 03.00'' Nord";"49375";;"RUE DU STADE V.C. N° 103";"49450";"VILLEDIEU-LA-BLOUERE";"Pylône autostable"; 38.0;"ORANGE"
1287028;-1.32278;47.31417;"01° 19' 22.00'' Ouest, 47° 18' 51.00'' Nord";"49360";;"RUE DE LA TOUR EGLISE";"49270";"LA VARENNE";"Monument religieux"; 31.0;"Commune, communauté de commune"
1287114;-0.54667;47.46722;"00° 32' 48.00'' Ouest, 47° 28' 02.00'' Nord";"49007";;"2 R ST JOSEPH";"49000";"ANGERS";"Monument religieux"; 45.0;"Commune, communauté de commune"
1292522;-0.66083;47.37944;"00° 39' 39.00'' Ouest, 47° 22' 46.00'' Nord";"49329";"L'OUCHE";;"49170";"SAVENNIERES";"Pylône tubulaire"; 12.0;"SNCF Réseau"
1292524;-0.63028;47.39556;"00° 37' 49.00'' Ouest, 47° 23' 44.00'' Nord";"49329";"ILE GOHARD";;"49170";"SAVENNIERES";"Pylône tubulaire"; 16.0;"SNCF Réseau"
1301016;0.00667;47.25833;"00° 00' 24.00'' Est, 47° 15' 30.00'' Nord";"49361";"LE PLONGEON";;"49730";"VARENNES-SUR-LOIRE";"Pylône autostable"; 20.0;"SNCF Réseau"
1305069;-0.42944;47.70500;"00° 25' 46.00'' Ouest, 47° 42' 18.00'' Nord";"49220";"LA MAHOTIÈRE";;"49340";"MORANNES";"Pylône autostable"; 25.0;"SNCF Réseau"
1319576;-0.11333;47.55056;"00° 06' 48.00'' Ouest, 47° 33' 02.00'' Nord";"49018";"CHÂTEAU COIN";;"49150";"BAUGE";"Pylône autostable"; 32.0;"Société Privée SA"
1319578;-0.99222;47.32944;"00° 59' 32.00'' Ouest, 47° 19' 46.00'' Nord";"49276";"LA BOUTOUCHÈRE";"EGLISE";"49410";"SAINT-FLORENT-LE-VIEIL";"Monument religieux"; 21.0;"Société Privée SA"
1329276;-0.57806;47.49111;"00° 34' 41.00'' Ouest, 47° 29' 28.00'' Nord";"49007";;"R RAPHAËL BERRY";"49000";"ANGERS";"Château d'eau - réservoir"; 44.6;"Commune, communauté de commune"
1329279;-0.57778;47.49083;"00° 34' 40.00'' Ouest, 47° 29' 27.00'' Nord";"49007";;"R RAPHAËL BERRY";"49000";"ANGERS";"Château d'eau - réservoir"; 41.0;"Commune, communauté de commune"
1335454;-0.22583;47.12222;"00° 13' 33.00'' Ouest, 47° 07' 20.00'' Nord";"49253";"LA GLORIETTE";"RUE DU STADE CHÂTEAU D'EAU";"49260";"LE PUY-NOTRE-DAME";"Château d'eau - réservoir"; 52.0;"Syndicat des eaux, Adduction"
1336238;-0.88944;47.67222;"00° 53' 22.00'' Ouest, 47° 40' 20.00'' Nord";"49277";;"RUE DU STADE TERRAIN DE SPORT";"49500";"SAINTE-GEMMES-D'ANDIGNE";"Pylône tubulaire"; 25.0;"ORANGE"
1347898;-0.06917;47.23306;"00° 04' 09.00'' Ouest, 47° 13' 59.00'' Nord";"49362";"LES PERRUCHERS";"LA VERNE";"49400";"VARRAINS";"Pylône autostable"; 59.0;"TDF"
1348390;-0.86639;47.05667;"00° 51' 59.00'' Ouest, 47° 03' 24.00'' Nord";"49099";;"7 RUE DU LIEUTENANT COLONEL DE MALLERAY";"49300";"CHOLET";"Immeuble"; 41.8;"Société HLM"
