Numéro du support;Longitude;Latitude;"Position";"Insee";"Lieu dit";"Adresse";"Code postal";"Commune";"Nature du support";Hauteur en m;"Propriétaire"
12394;3.64056;49.07528;"03° 38' 26.00'' Est, 49° 04' 31.00'' Nord";"51217";;"R DES PETITS RAMPARTS";"51700";"DORMANS";"Mât"; 12.0;"ORANGE Services Fixes"
12396;3.62861;49.09556;"03° 37' 43.00'' Est, 49° 05' 44.00'' Nord";"51644";"LES PATIS";;"51700";"VINCELLES";"Pylône autostable"; 20.0;"ORANGE Services Fixes"
12424;4.35639;48.95583;"04° 21' 23.00'' Est, 48° 57' 21.00'' Nord";"51108";;"R DE LA MARNE";"51000";"CHALONS-EN-CHAMPAGNE";"Bâtiment"; 20.0;"ORANGE Services Fixes"
12430;4.76194;48.83806;"04° 45' 43.00'' Est, 48° 50' 17.00'' Nord";"51590";"BELVAL";"CHEM D'EXPLOITATION N°43 DIT DE BASSU";"51340";"VANAULT-LES-DAMES";"Bâtiment"; 42.0;"ORANGE Services Fixes"
33025;3.66917;48.62250;"03° 40' 09.00'' Est, 48° 37' 21.00'' Nord";"51103";"BLANQUEFORT";"CHEM VO N° 5 DES TUILERIES";"51260";"LA CELLE-SOUS-CHANTEMERLE";"Pylône autostable"; 45.0;
33049;4.76472;48.54139;"04° 45' 53.00'' Est, 48° 32' 29.00'' Nord";"51269";"LE CHAMP DEVANT";"CHÂTEAU D'EAU PANORAMIQUE D 55 CHEMIN DE LA TOUR";"51290";"GIFFAUMONT-CHAMPAUBERT";"Château d'eau - réservoir"; 26.0;"Commune, communauté de commune"
33093;4.01583;49.25639;"04° 00' 57.00'' Est, 49° 15' 23.00'' Nord";"51454";;"16 AV BRÉBANT PARKING GARAGE PEUGEOT";"51100";"REIMS";"Pylône autostable"; 20.0;"SFR"
33163;4.56500;49.01250;"04° 33' 54.00'' Est, 49° 00' 45.00'' Nord";"51193";"LES FRICHES";"LA GRANDE ROMANIE RD 394";"51460";"COURTISOLS";"Pylône autostable"; 30.0;"SFR"
65226;4.28889;48.95056;"04° 17' 20.00'' Est, 48° 57' 02.00'' Nord";"51242";"LA GARENNE";;"51510";"FAGNIERES";"Pylône autostable"; 18.0;"Sociétés d'Autoroutes"
65228;4.29056;48.88556;"04° 17' 26.00'' Est, 48° 53' 08.00'' Nord";"51409";"AIRE DE REPOS";;"51240";"NUISEMENT-SUR-COOLE";"Pylône autostable"; 18.0;"Sociétés d'Autoroutes"
65230;4.27306;48.81556;"04° 16' 23.00'' Est, 48° 48' 56.00'' Nord";"51099";"LE CHEM DE CHALONS";;"51320";"BUSSY-LETTREE";"Pylône autostable"; 24.0;"Sociétés d'Autoroutes"
68148;3.61083;48.73167;"03° 36' 39.00'' Est, 48° 43' 54.00'' Nord";"51407";"BEAUVAIS";"RN 4";"51310";"LA NOUE";"Château d'eau - réservoir"; 35.0;"Syndicat des eaux, Adduction"
79930;3.98750;49.12028;"03° 59' 15.00'' Est, 49° 07' 13.00'' Nord";"51488";"BOIS NOTRE-DAME";"RN 51";"51160";"SAINT-IMOGES";"Pylône autostable"; 11.9;"BOUYGUES"
98212;4.24917;48.80861;"04° 14' 57.00'' Est, 48° 48' 31.00'' Nord";"51099";;"RD 12 SILO COOPERATIVE DE VATRY/BUSSY";"51320";"BUSSY-LETTREE";"Silo"; 60.0;"Coopérative Agricole, Vinicole"
98248;4.07083;48.97917;"04° 04' 15.00'' Est, 48° 58' 45.00'' Nord";"51251";;"CHÂTEAU D'EAU DE FLAVIGNY ET LES ISTRES - D 19";"51190";"FLAVIGNY";"Château d'eau - réservoir"; 28.0;"Syndicat des eaux, Adduction"
98332;3.88056;49.17306;"03° 52' 50.00'' Est, 49° 10' 23.00'' Nord";"51348";"LA FONTAINE REDY";"PRÈS D.386 COOPÉRATIVE AGRICOLE - SILO";"51170";"MARFAUX";"Immeuble"; 28.0;"Coopérative Agricole, Vinicole"
133222;4.52917;49.12278;"04° 31' 45.00'' Est, 49° 07' 22.00'' Nord";"51559";"LE CHEMIN DE CHALONS";"VOIE DE CHALONS DÉCHETTERIE";"51600";"SUIPPES";"Pylône autostable"; 42.0;"TDF"
151227;3.90139;49.22500;"03° 54' 05.00'' Est, 49° 13' 30.00'' Nord";"51282";"LES MARMANJONS";"COULOMMES LA MONTAGNE RESERVOIR";"51390";"GUEUX";"Château d'eau - réservoir"; 10.0;"Commune, communauté de commune"
154099;4.36750;48.95361;"04° 22' 03.00'' Est, 48° 57' 13.00'' Nord";"51108";"SDTI PREF DELA MARNE";"1 R DE JESST SDTI PREF DELA MARNE";"51000";"CHALONS-EN-CHAMPAGNE";"Support non décrit"; 15.0;
176134;4.19778;48.73778;"04° 11' 52.00'' Est, 48° 44' 16.00'' Nord";"51545";;"29 R CHAUFFRY";"51320";"SOMMESOUS";"Support non décrit"; 15.0;
176518;3.81444;48.58472;"03° 48' 52.00'' Est, 48° 35' 05.00'' Nord";"51009";;"11 R DES BUCHETTES";"51260";"ANGLURE";"Support non décrit"; 10.0;
176526;4.53444;49.13250;"04° 32' 04.00'' Est, 49° 07' 57.00'' Nord";"51559";;"37 REMPART DU NORD";"51600";"SUIPPES";"Bâtiment"; 10.0;"Conseil Régional"
176530;4.50611;48.98611;"04° 30' 22.00'' Est, 48° 59' 10.00'' Nord";"51193";;"CHEM DES FOSSES";"51460";"COURTISOLS";"Bâtiment"; 10.0;"Conseil Régional"
176538;4.58833;48.72333;"04° 35' 18.00'' Est, 48° 43' 24.00'' Nord";"51649";;"CIP 25 BD CARNOT";"51300";"VITRY-LE-FRANCOIS";"Bâtiment"; 15.0;"Etat, Ministère"
176544;4.76556;48.84222;"04° 45' 56.00'' Est, 48° 50' 32.00'' Nord";"51590";;"CED R DE L EQUIPEMENT";"51340";"VANAULT-LES-DAMES";"Bâtiment"; 8.0;"Conseil Régional"
179320;4.37972;48.95278;"04° 22' 47.00'' Est, 48° 57' 10.00'' Nord";"51506";;"2 AV LE CORBUSIER HOTEL DE VILLE";"51470";"SAINT-MEMMIE";"Support non décrit"; 14.0;
194160;3.94972;49.04472;"03° 56' 59.00'' Est, 49° 02' 41.00'' Nord";"51230";;"9 R DES ROCHERETS";"51200";"EPERNAY";"Support non décrit"; 16.0;
194192;3.95389;49.04306;"03° 57' 14.00'' Est, 49° 02' 35.00'' Nord";"51230";;"PL DES ARCADES PARKING DES ARCADES";"51200";"EPERNAY";"Bâtiment"; 20.0;"Commune, communauté de commune"
263572;3.73306;48.71667;"03° 43' 59.00'' Est, 48° 43' 00.00'' Nord";"51535";;"RTE DE FERE CHAMPENOISE";"51120";"SEZANNE";"Bâtiment"; 15.0;
279962;4.34861;48.91944;"04° 20' 55.00'' Est, 48° 55' 10.00'' Nord";"51168";"BEL AIR";"RD2";"51510";"COOLUS";"Silo"; 4.0;
289650;4.06889;49.15222;"04° 04' 08.00'' Est, 49° 09' 08.00'' Nord";"51333";"LA CROIX LE PRÊTRE";"CHEM RURAL N°41 DIT DU CHÂTEAU RENARD";"51500";"LUDES";"Pylône autostable"; 12.0;"ORANGE"
291068;3.98806;49.21639;"03° 59' 17.00'' Est, 49° 12' 59.00'' Nord";"51058";"LES ESSIOS";"SITE 113 PK 113.250 LIGNE 5000 LES ESSIOS";"51430";"BEZANNES";"Pylône autostable"; 29.0;
291445;4.24750;49.11528;"04° 14' 51.00'' Est, 49° 06' 55.00'' Nord";"51061";;"LES GRANDS CHAMPS SITE 136 PK 136.040 LIGNE 5000";"51400";"BILLY-LE-GRAND";"Pylône autostable"; 29.0;
300059;4.45028;48.84694;"04° 27' 01.00'' Est, 48° 50' 49.00'' Nord";"51648";;"42 R DE CHAMPAGNE";"51240";"VITRY-LA-VILLE";"Bâtiment"; 10.0;
310367;4.03556;49.02778;"04° 02' 08.00'' Est, 49° 01' 40.00'' Nord";"51413";;"LA RESERVE PK 147.353 DE LA LIGNE 70000";"51530";"OIRY";"Pylône autostable"; 29.0;
312935;4.76028;48.72167;"04° 45' 37.00'' Est, 48° 43' 18.00'' Nord";"51284";;"LES FOURCHES LA PIECE THIERRY PK 217.645 DE LA LIGNE 70000";"51300";"HAUSSIGNEMONT";"Pylône autostable"; 32.0;"SNCF Réseau"
312937;4.50528;48.80306;"04° 30' 19.00'' Est, 48° 48' 11.00'' Nord";"51552";;"LE GRAND SONNOT PK 193.346 DE LA LIGNE 70000";"51240";"SONGY";"Pylône autostable"; 16.0;
313157;4.55278;48.74361;"04° 33' 10.00'' Est, 48° 44' 37.00'' Nord";"51328";;"LES FOSSES PK 200.738 DE LA LIGNE 70000";"51300";"LOISY-SUR-MARNE";"Pylône autostable"; 29.0;
313159;4.62583;48.72222;"04° 37' 33.00'' Est, 48° 43' 20.00'' Nord";"51352";;"LES PENDANTS DU COLOMBIER PK 207.749 DE LA LIGNE 70000";"51300";"MAROLLES";"Pylône autostable"; 29.0;
313161;4.89833;48.78222;"04° 53' 54.00'' Est, 48° 46' 56.00'' Nord";"51531";;"LE PRE MAURUPT PK 230.093 DE LA LIGNE 70000";"51250";"SERMAIZE-LES-BAINS";"Pylône autostable"; 34.0;
313165;4.15361;49.01750;"04° 09' 13.00'' Est, 49° 01' 03.00'' Nord";"51018";;"MARAIS VICOT PK 156.041 DE LA LIGNE 70000";"51150";"ATHIS";"Pylône autostable"; 24.0;
313167;3.94944;49.05694;"03° 56' 58.00'' Est, 49° 03' 25.00'' Nord";"51230";;"LES SEMONS LE PAQUIS SUD PK 140.000 DE LA LIGNE 70000";"51200";"EPERNAY";"Pylône autostable"; 28.0;
313171;4.35639;48.93056;"04° 21' 23.00'' Est, 48° 55' 50.00'' Nord";"51168";;"CHAPELLE ST GIBRIEN LA PATURE PK 175.080 DE LA LIGNE 70000";"51510";"COOLUS";"Pylône autostable"; 24.0;
313173;4.40667;48.89833;"04° 24' 24.00'' Est, 48° 53' 54.00'' Nord";"51538";;"COTES DES PRES PK 180.295 DE LA LIGNE 70000";"51520";"SOGNY-AUX-MOULINS";"Pylône autostable"; 29.0;
313175;4.42889;48.86472;"04° 25' 44.00'' Est, 48° 51' 53.00'' Nord";"51339";;"LE GRAND ACCRU PK 184.425 DE LA LIGNE 70000";"51240";"MAIRY-SUR-MARNE";"Pylône autostable"; 34.0;
314802;4.07667;49.23250;"04° 04' 36.00'' Est, 49° 13' 57.00'' Nord";"51454";;"7 R FULTON Z.I. ST LÉONARD";"51100";"REIMS";"Pylône tubulaire"; 18.0;"ORANGE"
320649;4.42139;49.02528;"04° 25' 17.00'' Est, 49° 01' 31.00'' Nord";"51476";"R PRINCIPALE";;"51460";"SAINT-ETIENNE-AU-TEMPLE";"Bâtiment"; 7.0;"ORANGE Services Fixes"
324777;4.33778;48.96028;"04° 20' 16.00'' Est, 48° 57' 37.00'' Nord";"51108";;"CHEM DE ST GIBRIEN";"51000";"CHALONS-EN-CHAMPAGNE";"Pylône tubulaire"; 40.0;"SFR"
335831;4.01389;49.28083;"04° 00' 50.00'' Est, 49° 16' 51.00'' Nord";"51454";;"2, R GERICAULT THEODORE";"51100";"REIMS";"Immeuble"; 21.0;"Copropriété, Syndic, SCI"
339008;3.91139;49.27278;"03° 54' 41.00'' Est, 49° 16' 22.00'' Nord";"51391";"AU-DESSUS DU GRAND MARAIS";"2 IMP DES CÔTEAUX";"51140";"MUIZON";"Pylône autostable"; 30.0;"ORANGE"
350114;4.00722;49.26083;"04° 00' 26.00'' Est, 49° 15' 39.00'' Nord";"51454";;"92 AV BRÉBANT MAGASINS GENERAUX DE CHAMPAGNE ARDENNES";"51100";"REIMS";"Bâtiment"; 31.0;"Société Privée SA"
367516;4.78972;49.17083;"04° 47' 23.00'' Est, 49° 10' 15.00'' Nord";"51053";"SOUS LE MONT TREMOIS";"ROUTE DE VILLE-SUR-TOURBE - D982 SILO";"51800";"BERZIEUX";"Silo"; 55.0;"Société Privée SA"
368161;3.72000;49.18389;"03° 43' 12.00'' Est, 49° 11' 02.00'' Nord";"51013";"FOSSÉ DE LA NOUE";"CHEM D'EXPLOITATION N°103";"51170";"AOUGNY";"Pylône autostable"; 22.0;"ORANGE"
386169;3.90389;48.84222;"03° 54' 14.00'' Est, 48° 50' 32.00'' Nord";"51611";"LA SENTE";"R DU STADE";"51130";"VERT-TOULON";"Mât"; 15.0;"ORANGE"
416895;3.79222;49.27806;"03° 47' 32.00'' Est, 49° 16' 41.00'' Nord";"51591";"LA CARRIÈRE COLLIN";"CHEM DIT DE LA CARRIÈRE COLLIN";"51140";"VANDEUIL";"Bâtiment"; 9.0;"Particulier"
429897;4.37222;48.94833;"04° 22' 20.00'' Est, 48° 56' 54.00'' Nord";"51108";;"45 B  AV. DU GAL DE GAULLE";"51000";"CHALONS-EN-CHAMPAGNE";"Bâtiment"; 29.0;
430957;3.69389;49.22861;"03° 41' 38.00'' Est, 49° 13' 43.00'' Nord";"51014";"LA COLINETTE";"CHEM RURAL";"51170";"ARCIS-LE-PONSART";"Mât"; 12.0;
435086;4.04111;49.23889;"04° 02' 28.00'' Est, 49° 14' 20.00'' Nord";"51454";;"10 ALLÉE DU BELLAY";"51100";"REIMS";"Immeuble"; 26.0;"Société HLM"
436658;4.14667;49.25806;"04° 08' 48.00'' Est, 49° 15' 29.00'' Nord";"51052";"MONT DE BERRU LA VIGIE";"CTRE HERTZIEN FRANCE TELECOM";"51420";"BERRU";"Tour hertzienne"; 71.0;"TDF"
437515;3.85472;49.00972;"03° 51' 17.00'' Est, 49° 00' 35.00'' Nord";"51002";"LE DESSUS DES BRICOLLES";"CHEM RURAL DU SOURDON";"51530";"SAINT-MARTIN-D'ABLOIS";"Pylône autostable"; 31.0;"SFR"
438041;3.94444;49.04833;"03° 56' 40.00'' Est, 49° 02' 54.00'' Nord";"51230";"LES RONCES";"26 CHEM DES CHAMPS DE LINETTE";"51200";"EPERNAY";"Pylône autostable"; 47.0;"TDF"
438766;4.00583;49.26472;"04° 00' 21.00'' Est, 49° 15' 53.00'' Nord";"51454";;"237 R DE COURCELLES PORT COLBERT SILO MALTEUROP";"51100";"REIMS";"Silo"; 67.0;"Société Privée SA"
439065;3.90000;49.23250;"03° 53' 60.00'' Est, 49° 13' 57.00'' Nord";"51657";"LA MONTAGNE";;"51390";"VRIGNY";"Pylône autostable"; 69.0;"TDF"
439217;4.36722;49.13833;"04° 22' 02.00'' Est, 49° 08' 18.00'' Nord";"51388";;"8 R PAUL BOILLEAU";"51400";"MOURMELON-LE-GRAND";"Pylône autostable"; 40.0;"ORANGE"
439534;4.13500;49.28222;"04° 08' 06.00'' Est, 49° 16' 56.00'' Nord";"51662";;"FORT DE WITRY LES REIMS D.88 - CHEM D'EXPLOITATION N°124";"51420";"WITRY-LES-REIMS";"Pylône autostable"; 33.0;"TDF"
439547;3.96389;49.30611;"03° 57' 50.00'' Est, 49° 18' 22.00'' Nord";"51518";"LES PREVOTEES";"CHEM DES FONTAINES CHÂTEAU D'EAU";"51220";"SAINT-THIERRY";"Château d'eau - réservoir"; 26.0;"Syndicat des eaux, Adduction"
439643;4.15111;49.09667;"04° 09' 04.00'' Est, 49° 05' 48.00'' Nord";"51079";"LES TOURTELOTTES";;"51150";"BOUZY";"Pylône autostable"; 17.0;"TDF"
440779;3.93528;49.04111;"03° 56' 07.00'' Est, 49° 02' 28.00'' Nord";"51230";"LE MELTIN";"CHEM RURAL DIT DU CHENET";"51200";"EPERNAY";"Pylône autostable"; 216.5;"Towercast"
442809;3.78500;49.10222;"03° 47' 06.00'' Est, 49° 06' 08.00'' Nord";"51063";"LES BATIS";"PROCHE LES GRÈVES";"51700";"BINSON-ET-ORQUIGNY";"Pylône autostable"; 19.0;"TDF"
442842;4.04167;49.06917;"04° 02' 30.00'' Est, 49° 04' 09.00'' Nord";"51028";"LE FEUILLY";;"51160";"AVENAY-VAL-D'OR";"Pylône autostable"; 40.0;"TDF"
443083;4.58083;48.69750;"04° 34' 51.00'' Est, 48° 41' 51.00'' Nord";"51262";"LE NOYER";"LES PRÉS DE LA HAYE CHEM RURAL DIT DE TROYE";"51300";"FRIGNICOURT";"Pylône autostable"; 42.0;"ORANGE"
444487;4.04667;49.16528;"04° 02' 48.00'' Est, 49° 09' 55.00'' Nord";"51461";;"PLACE DE L'EGLISE";"51500";"RILLY-LA-MONTAGNE";"Monument religieux"; 35.9;"Commune, communauté de commune"
444963;4.05861;49.24278;"04° 03' 31.00'' Est, 49° 14' 34.00'' Nord";"51454";"MOULIN DE LA HOUSSE";"R DU DR JEANKEL SEGAL";"51100";"REIMS";"Château d'eau - réservoir"; 58.5;"Commune, communauté de commune"
445515;4.05806;49.02139;"04° 03' 29.00'' Est, 49° 01' 17.00'' Nord";"51413";;"R DU CH D'EAU";"51530";"OIRY";"Château d'eau - réservoir"; 45.0;"Syndicat des eaux, Adduction"
445868;3.98639;48.90222;"03° 59' 11.00'' Est, 48° 54' 08.00'' Nord";"51612";"LA MADELEINE";"CHEM RURAL DIT DU MOULIN";"51130";"VERTUS";"Pylône autostable"; 47.0;"ORANGE Services Fixes"
446220;4.05333;49.28167;"04° 03' 12.00'' Est, 49° 16' 54.00'' Nord";"51055";;"ALLÉE DES PÂQUERETTES STADE DE BÉTHENY";"51450";"BETHENY";"Pylône tubulaire"; 28.0;"SFR"
446240;4.01667;49.26361;"04° 00' 60.00'' Est, 49° 15' 49.00'' Nord";"51454";;"60 R GERUZEZ";"51100";"REIMS";"Immeuble"; 63.0;"Société HLM"
446629;4.04694;49.25944;"04° 02' 49.00'' Est, 49° 15' 34.00'' Nord";"51454";;"5/7 R DU BASTION";"51100";"REIMS";"Immeuble"; 23.0;"Société HLM"
446938;4.00444;49.23611;"04° 00' 16.00'' Est, 49° 14' 10.00'' Nord";"51454";;"36 R DE RILLY LA MONTAGNE";"51100";"REIMS";"Immeuble"; 30.0;"Société HLM"
447331;4.02722;49.24889;"04° 01' 38.00'' Est, 49° 14' 56.00'' Nord";"51454";;"31, R PAUL DOUMER HÔTEL MERCURE";"51100";"REIMS";"Immeuble"; 29.0;"Société Privée SA"
447433;4.03167;48.96083;"04° 01' 54.00'' Est, 48° 57' 39.00'' Nord";"51411";"LES VORDRES";"NAU LA BUCHE";"51190";"OGER";"Pylône autostable"; 42.7;"TDF"
448221;4.36222;48.99778;"04° 21' 44.00'' Est, 48° 59' 52.00'' Nord";"51504";"LES GRANDES VIGNES";;"51520";"SAINT-MARTIN-SUR-LE-PRE";"Tour hertzienne"; 77.0;"TDF"
449580;3.92972;48.99944;"03° 55' 47.00'' Est, 48° 59' 58.00'' Nord";"51142";"LES PATIS";"CHEM DES BUTTES PYLONE TDF";"51530";"CHAVOT-COURCOURT";"Pylône autostable"; 56.0;"TDF"
450219;4.16444;49.17444;"04° 09' 52.00'' Est, 49° 10' 28.00'' Nord";"51044";"LES MONTANTS DES CHAILLOTS";"AIRE DE L'ESPÉRANCE A4";"51360";"BEAUMONT-SUR-VESLE";"Pylône autostable"; 38.0;"Sociétés d'Autoroutes"
450523;3.65917;49.10083;"03° 39' 33.00'' Est, 49° 06' 03.00'' Nord";"51609";"LA ROCHE";"VOIE COM N° 3";"51700";"VERNEUIL";"Pylône autostable"; 51.0;"TDF"
451438;4.24278;49.11917;"04° 14' 34.00'' Est, 49° 07' 09.00'' Nord";"51428";"LE MONT BILLY";"AIRE DE SERVICE SANEF DE REIMS CHAMPAGNE SUD AIRE DE REPOS REIMS CHAMPAGNE";"51400";"LES PETITES-LOGES";"Pylône autostable"; 46.0;"BOUYGUES"
452429;4.01667;49.24194;"04° 00' 60.00'' Est, 49° 14' 31.00'' Nord";"51454";;"5 BD FRANCHET D'ESPEREY TOUR FRANCHET";"51100";"REIMS";"Immeuble"; 58.0;"Société HLM"
453814;4.05139;49.26306;"04° 03' 05.00'' Est, 49° 15' 47.00'' Nord";"51454";;"17 R PAUL PETIT";"51100";"REIMS";"Immeuble"; 41.0;"Société HLM"
454548;4.04194;49.22056;"04° 02' 31.00'' Est, 49° 13' 14.00'' Nord";"51172";;"3 AV DU ROUSSILLON";"51350";"CORMONTREUIL";"Immeuble"; 16.0;"Société HLM"
454840;4.06083;49.25417;"04° 03' 39.00'' Est, 49° 15' 15.00'' Nord";"51454";;"6 ALL DU TYROL";"51100";"REIMS";"Immeuble"; 58.0;"Société HLM"
455144;4.02639;49.21639;"04° 01' 35.00'' Est, 49° 12' 59.00'' Nord";"51454";;"3 R BLAISE CENDRARS";"51100";"REIMS";"Immeuble"; 16.0;"Société HLM"
455150;4.03806;49.24583;"04° 02' 17.00'' Est, 49° 14' 45.00'' Nord";"51454";;"5 R DES MOULINS";"51100";"REIMS";"Immeuble"; 39.0;"Copropriété, Syndic, SCI"
460184;4.31194;48.95806;"04° 18' 43.00'' Est, 48° 57' 29.00'' Nord";"51242";"LA NOUE DU MOULIN";"CHEM DE LA TERRIÈRE ZAC DE FAGNIERES";"51510";"FAGNIERES";"Pylône tubulaire"; 38.0;"FPS TOWERS"
463026;4.01167;49.27528;"04° 00' 42.00'' Est, 49° 16' 31.00'' Nord";"51454";;"1 R AUGUSTE WALBAUM LES TROIS FONTAINES";"51100";"REIMS";"Immeuble"; 42.0;"Société HLM"
463064;3.97222;49.26500;"03° 58' 20.00'' Est, 49° 15' 54.00'' Nord";"51118";"LE MONT ST-PIERRE";"CHEM RURAL N°6";"51370";"CHAMPIGNY";"Pylône autostable"; 12.0;"ORANGE"
463434;4.03222;49.25639;"04° 01' 56.00'' Est, 49° 15' 23.00'' Nord";"51454";;"1 R DE L'ARBALÈTE";"51100";"REIMS";"Immeuble"; 24.0;"Copropriété, Syndic, SCI"
464138;3.93583;49.09778;"03° 56' 09.00'' Est, 49° 05' 52.00'' Nord";"51287";"LES LHUYS";"PYLÔNE TDF D386";"51160";"HAUTVILLERS";"Pylône haubané"; 246.0;"TDF"
464426;4.04111;49.12056;"04° 02' 28.00'' Est, 49° 07' 14.00'' Nord";"51266";"LES SABLONNIÈRES";;"51160";"GERMAINE";"Pylône tubulaire"; 28.0;"SFR"
464710;4.01528;49.25000;"04° 00' 55.00'' Est, 49° 15' 00.00'' Nord";"51454";;"18 R DES BONS MALADES";"51100";"REIMS";"Immeuble"; 27.0;"Société HLM"
464725;3.68639;49.01778;"03° 41' 11.00'' Est, 49° 01' 04.00'' Nord";"51298";"LE CARREFOUR";"ETANG DU VIVIER";"51700";"IGNY-COMBLIZY";"Tour hertzienne"; 109.0;"ORANGE Services Fixes"
465125;3.71917;48.74056;"03° 43' 09.00'' Est, 48° 44' 26.00'' Nord";"51535";"DEVANT SANS SOUCI";;"51120";"SEZANNE";"Pylône autostable"; 58.0;"ORANGE Services Fixes"
474619;4.49417;48.85194;"04° 29' 39.00'' Est, 48° 51' 07.00'' Nord";"51415";"DERRIÈRE LES MURS";"LE PENDU";"51240";"OMEY";"Pylône autostable"; 43.0;"FPS TOWERS"
476325;4.27028;49.02250;"04° 16' 13.00'' Est, 49° 01' 21.00'' Nord";"51312";"LE MOULIN";"RTE DU SILO";"51150";"JUVIGNY";"Pylône autostable"; 35.0;"SFR"
476329;4.23861;48.73639;"04° 14' 19.00'' Est, 48° 44' 11.00'' Nord";"51545";"LA TOMELLE";"FERME LA TOMELLE";"51320";"SOMMESOUS";"Pylône autostable"; 40.0;"SFR"
476337;4.41222;48.97889;"04° 24' 44.00'' Est, 48° 58' 44.00'' Nord";"51108";"LA CÔTE MAHOUT";"RÉSERVOIR, CHEM DE MELETTE STATION TDF DE CHALONS SUR MARNE 3";"51000";"CHALONS-EN-CHAMPAGNE";"Pylône autostable"; 57.3;"TDF"
476351;4.28917;48.87861;"04° 17' 21.00'' Est, 48° 52' 43.00'' Nord";"51409";"LE MONT DE LA BATAILLE";;"51240";"NUISEMENT-SUR-COOLE";"Pylône autostable"; 40.0;"SFR"
476355;4.78361;48.95000;"04° 47' 01.00'' Est, 48° 57' 00.00'' Nord";"51549";"LA GRILLETTE";;"51330";"SOMME-YEVRE";"Pylône autostable"; 45.1;"SFR"
477397;4.53361;48.83417;"04° 32' 01.00'' Est, 48° 50' 03.00'' Nord";"51141";"LES QUARTIERS";"SILO CHAMPAGNE CÉRÉALES R COULMIER";"51240";"LA CHAUSSEE-SUR-MARNE";"Silo"; 56.0;"Coopérative Agricole, Vinicole"
478434;4.36667;48.73861;"04° 21' 60.00'' Est, 48° 44' 19.00'' Nord";"51167";"LA MUETTE";"CHEM D'EXPLOITATION N°66  RN 4";"51320";"COOLE";"Pylône autostable"; 44.0;"FPS TOWERS"
481956;4.11611;48.71194;"04° 06' 58.00'' Est, 48° 42' 43.00'' Nord";"51377";"MONT À L'ASSAUT";"CHEM DU GLAPI TOUR HERTZIENNE";"51320";"MONTEPREUX";"Tour hertzienne"; 59.0;"TDF"
481960;4.89111;49.19556;"04° 53' 28.00'' Est, 49° 11' 44.00'' Nord";"51621";"LA CÔTE DES BOIS";"PYLÔNE FRANCE TÉLÉCOM PRÈS RÉSERVOIR";"51800";"VIENNE-LE-CHATEAU";"Pylône autostable"; 37.5;"ORANGE Services Fixes"
482203;3.73917;49.19889;"03° 44' 21.00'' Est, 49° 11' 56.00'' Nord";"51314";"BOIS DES LIMONS";"ROUTE DE AOUGNY À LAGERY PYLÔNE TDF";"51170";"LAGERY";"Pylône autostable"; 42.0;"TDF"
482221;4.87333;49.09028;"04° 52' 24.00'' Est, 49° 05' 25.00'' Nord";"51507";"LA HAUTE JUSTICE";"CHEM DES SIX FRÈRES STATION HERTZIENNE FT";"51800";"SAINTE-MENEHOULD";"Pylône autostable"; 66.0;"ORANGE Services Fixes"
482887;4.91972;48.78333;"04° 55' 11.00'' Est, 48° 46' 60.00'' Nord";"51531";"LA COUCHE";;"51250";"SERMAIZE-LES-BAINS";"Pylône autostable"; 38.0;"ORANGE Services Fixes"
486926;4.52028;48.74306;"04° 31' 13.00'' Est, 48° 44' 35.00'' Nord";"51340";"LA HAYE DE VATÉ";"CHEM RURAL DIT DE VATÉ PRÈS N.4";"51300";"MAISONS-EN-CHAMPAGNE";"Pylône autostable"; 44.3;"FPS TOWERS"
487060;4.59083;48.77833;"04° 35' 27.00'' Est, 48° 46' 42.00'' Nord";"51195";"LE HAUT DE VILLERS";"CROISEMENT DE LA RN 44 ET DE LA RD 260";"51300";"COUVROT";"Pylône autostable"; 46.0;"FPS TOWERS"
497441;4.79111;49.01667;"04° 47' 28.00'' Est, 49° 00' 60.00'' Nord";"51206";"LIÉVAUX";"D.85 SITE 178 PK 178.040 LIGNE 5000";"51330";"DAMPIERRE-LE-CHATEAU";"Pylône autostable"; 30.0;"SNCF Réseau"
498398;3.74611;48.71833;"03° 44' 46.00'' Est, 48° 43' 06.00'' Nord";"51535";"LES CATHELINOTTES";"RN 4";"51120";"SEZANNE";"Pylône autostable"; 44.0;"FPS TOWERS"
498756;3.67278;48.62722;"03° 40' 22.00'' Est, 48° 37' 38.00'' Nord";"51254";"LA HAUTE COTE";"CHEM N°2";"51120";"FONTAINE-DENIS-NUISY";"Pylône autostable"; 56.0;"FPS TOWERS"
498884;3.52333;48.85944;"03° 31' 24.00'' Est, 48° 51' 34.00'' Nord";"51359";"LE CHÊNE";;"51210";"MECRINGES";"Pylône autostable"; 40.0;"TDF"
499375;3.72972;48.71417;"03° 43' 47.00'' Est, 48° 42' 51.00'' Nord";"51535";;"50, AV JEAN JAURÈS";"51120";"SEZANNE";"Pylône tubulaire"; 20.0;"ORANGE"
501360;4.28556;49.05222;"04° 17' 08.00'' Est, 49° 03' 08.00'' Nord";"51278";"LES VIGNES";"CHEM D'EXPLOITATION N°144";"51400";"LES GRANDES-LOGES";"Pylône tubulaire"; 48.0;"FPS TOWERS"
510600;3.88944;49.24167;"03° 53' 22.00'' Est, 49° 14' 30.00'' Nord";"51282";"LES TROMPES";"BOIS DES AUNAIES LIGNE TGV E PK 105.320";"51390";"GUEUX";"Pylône autostable"; 25.0;"SNCF Réseau"
510741;4.34278;48.94333;"04° 20' 34.00'' Est, 48° 56' 36.00'' Nord";"51108";;"9 R DE ST MALO STATION TDF DE CHALONS";"51000";"CHALONS-EN-CHAMPAGNE";"Immeuble"; 67.0;"Société HLM"
512888;4.98000;49.10472;"04° 58' 48.00'' Est, 49° 06' 17.00'' Nord";"51507";"LA COTE DE BIESME";;"51800";"SAINTE-MENEHOULD";"Pylône autostable"; 40.0;"EDF ou GDF"
514763;3.99167;49.25028;"03° 59' 30.00'' Est, 49° 15' 01.00'' Nord";"51573";;"2 PL DU COMMERCE";"51430";"TINQUEUX";"Immeuble"; 41.2;"Société Privée SA"
515529;4.36278;48.95444;"04° 21' 46.00'' Est, 48° 57' 16.00'' Nord";"51108";;"2 R GRENET TELLIER CREDIT AGRICOLE";"51000";"CHALONS-EN-CHAMPAGNE";"Immeuble"; 34.0;"Société Privée SA"
518013;4.03111;49.27167;"04° 01' 52.00'' Est, 49° 16' 18.00'' Nord";"51454";;"3 R GEORGES CHARBONNEAUX";"51100";"REIMS";"Immeuble"; 18.0;"Société HLM"
520855;4.21778;49.00056;"04° 13' 04.00'' Est, 49° 00' 02.00'' Nord";"51023";;"RD 3 CARRIERE VICINALE";"51150";"AULNAY-SUR-MARNE";"Pylône autostable"; 44.0;"TDF"
521755;3.66111;49.31667;"03° 39' 40.00'' Est, 49° 19' 00.00'' Nord";"51250";"MONTAGNE DE PERLES";"LES SAVARTS DE LA BLANCHE TACHE CHEM DIT DES CARRÉS";"51170";"FISMES";"Pylône autostable"; 34.0;"ORANGE Services Fixes"
525713;4.53278;49.22778;"04° 31' 58.00'' Est, 49° 13' 40.00'' Nord";"51501";"VALVAUT";"MONT SEDEU D 220";"51600";"SAINTE-MARIE-A-PY";"Pylône autostable"; 43.0;"TDF"
526861;3.99750;49.21278;"03° 59' 51.00'' Est, 49° 12' 46.00'' Nord";"51058";"LES HAUTS PAS";"LIGNE TGV EST PK 113.250";"51430";"BEZANNES";"Pylône autostable"; 33.0;"SNCF Réseau"
527747;3.65583;48.72861;"03° 39' 21.00'' Est, 48° 43' 43.00'' Nord";"51369";"LE GRIL";"CHEM RURAL BOIS DU GRIL D'ARCAN PRÈS N4";"51120";"MOEURS-VERDEY";"Pylône autostable"; 30.0;"ORANGE"
528333;4.39917;48.88083;"04° 23' 57.00'' Est, 48° 52' 51.00'' Nord";"51339";"LE CHEM DE CHALONS";"VOIE COMMUNALE N°3  PRÈS USINE DE DESHYDRATATION";"51240";"MAIRY-SUR-MARNE";"Pylône autostable"; 14.0;"ORANGE"
532590;3.99528;49.27028;"03° 59' 43.00'' Est, 49° 16' 13.00'' Nord";"51474";;"R DU CHATEAU SENART / ZI LES COIDES";"51370";"SAINT-BRICE-COURCELLES";"Pylône autostable"; 58.3;"BOUYGUES"
534665;4.02722;49.23583;"04° 01' 38.00'' Est, 49° 14' 09.00'' Nord";"51454";;"77 R DE LA MAISON BLANCHE";"51100";"REIMS";"Immeuble"; 69.0;"Société HLM"
535243;4.16472;49.07611;"04° 09' 53.00'' Est, 49° 04' 34.00'' Nord";"51007";"LE MOULIN";"CHEM RURAL D' AMBONNAY";"51150";"AMBONNAY";"Mât"; 12.0;"ORANGE"
536413;4.49194;49.08611;"04° 29' 31.00'' Est, 49° 05' 10.00'' Nord";"51097";"LE RADAR";"PRES DE LA RD 977";"51600";"BUSSY-LE-CHATEAU";"Tour hertzienne"; 48.0;"TDF"
540133;4.01167;49.19417;"04° 00' 42.00'' Est, 49° 11' 39.00'' Nord";"51115";"LE POTEAU";"SILO CHAMPAGNE CÉRÉALES  CHEM VICINAL N°3";"51500";"CHAMPFLEURY";"Silo"; 39.0;"Coopérative Agricole, Vinicole"
540565;3.98000;49.10389;"03° 58' 48.00'' Est, 49° 06' 14.00'' Nord";"51488";"LE BOIS JOLI";"PRÈS RN51";"51160";"SAINT-IMOGES";"Pylône autostable"; 38.0;"ORANGE Services Fixes"
540595;4.97417;49.08806;"04° 58' 27.00'' Est, 49° 05' 17.00'' Nord";"51507";"LA HAUTE CHEVAUCHEE";"PYLÔNE SANEF - A4 REIMS / METZ FONTAINE D'OLIVE";"51800";"SAINTE-MENEHOULD";"Pylône autostable"; 76.0;"Sociétés d'Autoroutes"
542775;3.69833;49.29861;"03° 41' 54.00'' Est, 49° 17' 55.00'' Nord";"51250";"BOIS DE VILLETTE";;"51170";"FISMES";"Pylône autostable"; 49.0;"TDF"
544914;4.54194;49.12139;"04° 32' 31.00'' Est, 49° 07' 17.00'' Nord";"51559";"LA GARE";"30/32 AV DU GÉNÉRAL DE GAULLE SILO CHAMPAGNE CÉRÉALES";"51600";"SUIPPES";"Silo"; 44.0;"Coopérative Agricole, Vinicole"
547845;4.01861;49.24111;"04° 01' 07.00'' Est, 49° 14' 28.00'' Nord";"51454";;"52 BD  DU PRÉSIDENT WILSON";"51100";"REIMS";"Immeuble"; 29.0;"Copropriété, Syndic, SCI"
548864;3.73639;48.82139;"03° 44' 11.00'' Est, 48° 49' 17.00'' Nord";"51421";"LES PRES BOURGEONS";"TERRAIN NU";"51120";"OYES";"Pylône autostable"; 36.0;"ORANGE"
551722;4.53750;48.71611;"04° 32' 15.00'' Est, 48° 42' 58.00'' Nord";"51275";"MONT VIGNEREUX";"CHEM D'EXPLOITATION N°32";"51300";"GLANNES";"Tour hertzienne"; 71.0;"TDF"
553987;4.76361;48.65056;"04° 45' 49.00'' Est, 48° 39' 02.00'' Nord";"51316";"LES FEMMES MORTES";"SILO CHAMPAGNE CEREALES";"51290";"LARZICOURT";"Silo"; 72.0;"Coopérative Agricole, Vinicole"
554066;4.75306;49.06944;"04° 45' 11.00'' Est, 49° 04' 10.00'' Nord";"51588";"FERME DES MAIGNEUX";"PYLÔNE SANEF A A4 REIMS-METZ";"51800";"VALMY";"Pylône autostable"; 40.0;"Sociétés d'Autoroutes"
554479;4.94167;48.72694;"04° 56' 30.00'' Est, 48° 43' 37.00'' Nord";"51583";"LA BOSSUE";"LE CHAMP VIGNERON VOIE COMMUNALE DITE VOIE BARROIS";"51340";"TROIS-FONTAINES-L'ABBAYE";"Pylône autostable"; 41.0;"SFR"
554585;4.06611;49.19417;"04° 03' 58.00'' Est, 49° 11' 39.00'' Nord";"51562";"LE HAUT DES RONCIERES";"DÉPARTEMENTALE 9 -LIGNE TGV EST - PK 119.505";"51500";"TAISSY";"Pylône autostable"; 33.0;"SNCF Réseau"
557173;3.91750;49.34639;"03° 55' 03.00'' Est, 49° 20' 47.00'' Nord";"51102";"LES HOUETTES";"RTE D'HERMONVILLE";"51220";"CAUROY-LES-HERMONVILLE";"Château d'eau - réservoir"; 35.0;"Syndicat des eaux, Adduction"
557260;4.65472;49.06194;"04° 39' 17.00'' Est, 49° 03' 43.00'' Nord";"51197";"NARROYS";;"51600";"LA CROIX-EN-CHAMPAGNE";"Pylône autostable"; 41.0;"TDF"
563465;4.01778;49.28972;"04° 01' 04.00'' Est, 49° 17' 23.00'' Nord";"51454";"LA NEUVILLETTE";"R LOUISE VEREL";"51100";"REIMS";"Pylône autostable"; 48.3;"TDF"
564928;4.07222;49.24056;"04° 04' 20.00'' Est, 49° 14' 26.00'' Nord";"51454";"REIMS-LES-ESSILLARDS";"2, R A. SANTOS DUMONT";"51100";"REIMS";"Pylône autostable"; 46.0;"Aviation Civile"
566736;4.63806;49.02667;"04° 38' 17.00'' Est, 49° 01' 36.00'' Nord";"51572";"BLANC FOSSÉ - LES VOIES TIVAT";"CHEM RURAL PYLÔNE RFF C 166";"51460";"TILLOY-ET-BELLAY";"Pylône autostable"; 30.0;"SNCF Réseau"
569078;4.13333;49.28222;"04° 08' 00.00'' Est, 49° 16' 56.00'' Nord";"51662";"LA SABLONNIÈRE";"D.88 - CHEM D'EXPL N°134 FORT DE WITRY-LES-REIMS PYLÔNE RTE N°114";"51420";"WITRY-LES-REIMS";"Pylône tubulaire"; 39.0;"RTE"
569638;4.04611;49.19167;"04° 02' 46.00'' Est, 49° 11' 30.00'' Nord";"51375";"LE FOSSÉ PRUNIER";;"51500";"MONTBRE";"Pylône autostable"; 12.0;"ORANGE"
574170;3.54028;48.72028;"03° 32' 25.00'' Est, 48° 43' 13.00'' Nord";"51237";"LES NOUES";"R DE L' ARBRE HAUT ANCIENNE RN 4";"51310";"ESTERNAY";"Pylône autostable"; 40.5;"SFR"
575142;4.04389;49.26667;"04° 02' 38.00'' Est, 49° 15' 60.00'' Nord";"51454";;"90-92 R GOSSET IMM OPAC";"51100";"REIMS";"Immeuble"; 30.0;"Société HLM"
583148;4.02722;49.25389;"04° 01' 38.00'' Est, 49° 15' 14.00'' Nord";"51454";;"R THÉODORE DUBOIS CINÉMA";"51100";"REIMS";"Bâtiment"; 27.0;"Société Privée SA"
583578;4.12889;49.04583;"04° 07' 44.00'' Est, 49° 02' 45.00'' Nord";"51576";;"R BASSE FAUBOURG SILO SCAM";"51150";"TOURS-SUR-MARNE";"Silo"; 63.0;"Coopérative Agricole, Vinicole"
584504;4.28806;48.90917;"04° 17' 17.00'' Est, 48° 54' 33.00'' Nord";"51160";;"A26 PK 314,350 PEAGE DU MONT CHOISY";"51510";"COMPERTRIX";"Pylône autostable"; 52.4;"BOUYGUES"
584514;4.58111;49.03611;"04° 34' 52.00'' Est, 49° 02' 10.00'' Nord";"51515";"LE BUISSON CADET";"PRÈS A4 SORTIE N°28 L'ARBRE PARISET";"51600";"SAINT-REMY-SUR-BUSSY";"Pylône autostable"; 29.0;"TDF"
586324;4.01750;49.25750;"04° 01' 03.00'' Est, 49° 15' 27.00'' Nord";"51454";;"53 R VERNOUILLET CENTRE D'AFFAIRES ANCIENS ENTREPÔTS";"51100";"REIMS";"Bâtiment"; 23.6;"Société Privée SA"
586347;4.19611;49.35417;"04° 11' 46.00'' Est, 49° 21' 15.00'' Nord";"51299";"LA MALADRERIE";"19 RTE DE BAZANCOURT CHEMINÉE";"51110";"ISLES-SUR-SUIPPE";"Bâtiment"; 35.0;"Société Privée SA"
588143;4.38583;48.95694;"04° 23' 09.00'' Est, 48° 57' 25.00'' Nord";"51506";;"4 ALLÉE CHARLES BAUDELAIRE";"51470";"SAINT-MEMMIE";"Immeuble"; 63.0;"Copropriété, Syndic, SCI"
588202;4.69472;49.02278;"04° 41' 41.00'' Est, 49° 01' 22.00'' Nord";"51027";"LE CHEM DE TERNIÈRE";"CHEM D'EXPLOITATION N°16";"51800";"AUVE";"Pylône autostable"; 34.0;"SNCF Réseau"
588290;4.37889;49.00389;"04° 22' 44.00'' Est, 49° 00' 14.00'' Nord";"51504";"LE MONT AFFAMÉ";"FERME DE BELLE CROIX";"51520";"SAINT-MARTIN-SUR-LE-PRE";"Pylône autostable"; 21.0;"Titulaire programme Radio/TV"
589335;3.59361;48.60194;"03° 35' 37.00'' Est, 48° 36' 07.00'' Nord";"51376";;"CR DIT DE LA BRÈCHE";"51260";"MONTGENOST";"Pylône autostable"; 67.0;"ORANGE Services Fixes"
590272;4.21722;48.78194;"04° 13' 02.00'' Est, 48° 46' 55.00'' Nord";"51099";"VATRY EUROPORT";"CH DE L'OISELAT AIR LIQUIDE";"51320";"BUSSY-LETTREE";"Bâtiment"; 17.0;"Société Privée SA"
590798;4.84417;48.76111;"04° 50' 39.00'' Est, 48° 45' 40.00'' Nord";"51423";;"LE MONT LE CERF AV DU 128E RI D61";"51340";"PARGNY-SUR-SAULX";"Pylône autostable"; 40.0;"Sociétés d'Autoroutes"
590898;3.80444;49.34333;"03° 48' 16.00'' Est, 49° 20' 36.00'' Nord";"51604";"LA FONTAINE AUX ANES";;"51140";"VENTELAY";"Pylône autostable"; 37.4;"SFR"
592357;4.02444;49.22611;"04° 01' 28.00'' Est, 49° 13' 34.00'' Nord";"51454";;"10 R JEANNE JUGAN";"51100";"REIMS";"Immeuble"; 35.0;"Société HLM"
596164;3.97194;49.25389;"03° 58' 19.00'' Est, 49° 15' 14.00'' Nord";"51569";"LES EGUISONS";"A.4 - A DE L'EST ECH REIMS-TINQUEUX";"51370";"THILLOIS";"Pylône autostable"; 54.0;"Sociétés d'Autoroutes"
596230;4.22639;48.73167;"04° 13' 35.00'' Est, 48° 43' 54.00'' Nord";"51545";;"PEAGE - SORTIE N°20 - A26";"51320";"SOMMESOUS";"Pylône autostable"; 53.0;"Sociétés d'Autoroutes"
598466;4.00556;49.23750;"04° 00' 20.00'' Est, 49° 14' 15.00'' Nord";"51454";;"60 PL EISENHOWER";"51100";"REIMS";"Immeuble"; 53.4;"Société HLM"
598528;4.10139;49.20500;"04° 06' 05.00'' Est, 49° 12' 18.00'' Nord";"51562";"LES LONGUES ROYES";"CHEM DE LA CUCHE";"51500";"TAISSY";"Château d'eau - réservoir"; 43.5;"Syndicat des eaux, Adduction"
604690;4.24111;49.10472;"04° 14' 28.00'' Est, 49° 06' 17.00'' Nord";"51061";"LA VOÛTE";;"51400";"BILLY-LE-GRAND";"Pylône autostable"; 10.0;"Voies navigables de France"
604938;4.35556;48.95500;"04° 21' 20.00'' Est, 48° 57' 18.00'' Nord";"51108";"ECLUSE DE L HEMICYCLE";"CHEM DE L'ÉCLUSE";"51000";"CHALONS-EN-CHAMPAGNE";"Bâtiment"; 16.0;"Voies navigables de France"
605216;3.90500;49.06667;"03° 54' 18.00'' Est, 49° 04' 00.00'' Nord";"51202";;"QUAI MARNE ECLUSE DE CUMIÈRES";"51480";"CUMIERES";"Bâtiment"; 16.0;"Voies navigables de France"
608664;4.02972;49.21139;"04° 01' 47.00'' Est, 49° 12' 41.00'' Nord";"51454";;"3 R PIERRE FLANDRE";"51100";"REIMS";"Immeuble"; 17.0;"Société HLM"
608666;4.02750;49.26694;"04° 01' 39.00'' Est, 49° 16' 01.00'' Nord";"51454";;"52/56 R EMILE ZOLA";"51100";"REIMS";"Immeuble"; 35.0;"Copropriété, Syndic, SCI"
608668;3.99056;49.24167;"03° 59' 26.00'' Est, 49° 14' 30.00'' Nord";"51573";;"2/4 R NICOLAS APPERT ZI DU MOULIN DE L'ÉCAILLE";"51430";"TINQUEUX";"Pylône tubulaire"; 27.0;"SFR"
608670;4.05667;49.25389;"04° 03' 24.00'' Est, 49° 15' 14.00'' Nord";"51454";;"5 R PAUL FORT";"51100";"REIMS";"Immeuble"; 60.0;"Société HLM"
608676;4.06500;49.21583;"04° 03' 54.00'' Est, 49° 12' 57.00'' Nord";"51172";;"42 R DU COMMERCE R DES RÉMOULEURS";"51350";"CORMONTREUIL";"Pylône autostable"; 32.0;"ORANGE"
608685;4.04417;49.26528;"04° 02' 39.00'' Est, 49° 15' 55.00'' Nord";"51454";;"6 R JEAN URBAIN";"51100";"REIMS";"Immeuble"; 30.0;"Société HLM"
608689;4.01833;49.27417;"04° 01' 06.00'' Est, 49° 16' 27.00'' Nord";"51454";;"331 AV. DE LAON BD ALBERT 1ER";"51100";"REIMS";"Immeuble"; 41.2;"Copropriété, Syndic, SCI"
608693;4.01639;49.22389;"04° 00' 59.00'' Est, 49° 13' 26.00'' Nord";"51454";;"8 ALLÉE YVES GANDON";"51100";"REIMS";"Immeuble"; 34.0;"Société HLM"
608698;4.06417;49.26889;"04° 03' 51.00'' Est, 49° 16' 08.00'' Nord";"51454";;"17 CHEM DE LA PETITE RTE";"51100";"REIMS";"Pylône autostable"; 37.0;"FPS TOWERS"
608704;4.03361;49.23278;"04° 02' 01.00'' Est, 49° 13' 58.00'' Nord";"51454";;"101 R DE LOUVOIS";"51100";"REIMS";"Immeuble"; 27.0;"ORANGE Services Fixes"
608931;3.98278;49.25806;"03° 58' 58.00'' Est, 49° 15' 29.00'' Nord";"51573";;"9 R MARCEL DASSAULT";"51430";"TINQUEUX";"Mât métallique"; 32.0;"ORANGE"
608936;4.02639;49.24944;"04° 01' 35.00'' Est, 49° 14' 58.00'' Nord";"51454";;"27 R PAUL DOUMER";"51100";"REIMS";"Immeuble"; 25.0;"Société HLM"
608938;4.07056;49.22861;"04° 04' 14.00'' Est, 49° 13' 43.00'' Nord";"51454";;"CHEM DE VRILLY BD DU VAL DE VESLE";"51100";"REIMS";"Silo"; 63.0;"Coopérative Agricole, Vinicole"
608946;4.03139;49.28083;"04° 01' 53.00'' Est, 49° 16' 51.00'' Nord";"51454";;"33 R PIERRE SÉMARD";"51100";"REIMS";"Immeuble"; 18.0;"Société HLM"
608950;4.09639;49.22611;"04° 05' 47.00'' Est, 49° 13' 34.00'' Nord";"51454";;"CHEM DE ST LÉONARD ZI POMPELLE";"51100";"REIMS";"Pylône autostable"; 20.4;"ORANGE"
608958;4.04472;49.21667;"04° 02' 41.00'' Est, 49° 13' 00.00'' Nord";"51172";;"R VICTOR SCHOELCHER PARKING MAGASINS VOGICA KERIA";"51350";"CORMONTREUIL";"Mât"; 16.0;"Société Privée SA"
608960;4.05222;49.23222;"04° 03' 08.00'' Est, 49° 13' 56.00'' Nord";"51454";;"QUAI DU PRÉ AUX MOINES SILO";"51100";"REIMS";"Bâtiment"; 36.0;"Société Privée SA"
608962;4.01806;49.25722;"04° 01' 05.00'' Est, 49° 15' 26.00'' Nord";"51454";;"2 R SOUSILLON";"51100";"REIMS";"Immeuble"; 24.0;"Copropriété, Syndic, SCI"
608964;4.04944;49.24833;"04° 02' 58.00'' Est, 49° 14' 54.00'' Nord";"51454";;"62/64 R DE SILLERY";"51100";"REIMS";"Immeuble"; 30.0;"Société HLM"
608970;4.02250;49.21778;"04° 01' 21.00'' Est, 49° 13' 04.00'' Nord";"51454";;"R ROGER CALLOIS";"51100";"REIMS";"Pylône autostable"; 19.0;"ORANGE"
608972;4.04361;49.24944;"04° 02' 37.00'' Est, 49° 14' 58.00'' Nord";"51454";;"23 BD PASTEUR";"51100";"REIMS";"Bâtiment"; 34.0;"Copropriété, Syndic, SCI"
608977;4.02639;49.25750;"04° 01' 35.00'' Est, 49° 15' 27.00'' Nord";"51454";;"43 BLD FOCH";"51100";"REIMS";"Immeuble"; 20.0;"Copropriété, Syndic, SCI"
608979;4.04417;49.27361;"04° 02' 39.00'' Est, 49° 16' 25.00'' Nord";"51055";;"R. CHARLES D' ESTAING LE PETIT BÉTHÉNY";"51450";"BETHENY";"Pylône tubulaire"; 27.0;"ORANGE"
608984;4.04222;49.25833;"04° 02' 32.00'' Est, 49° 15' 30.00'' Nord";"51454";;"46 AV JEAN JAURÈS HÔTEL ST ANDRÉ";"51100";"REIMS";"Bâtiment"; 22.0;"Particulier"
608994;4.00694;49.23111;"04° 00' 25.00'' Est, 49° 13' 52.00'' Nord";"51454";;"2 ALL DES PROVENCAUX RES LES PROVENCAUX";"51100";"REIMS";"Immeuble"; 34.7;"Société HLM"
609012;4.02417;49.21778;"04° 01' 27.00'' Est, 49° 13' 04.00'' Nord";"51454";;"1 R JACQUES MARITAIN BAT SITE CLIM";"51100";"REIMS";"Pylône autostable"; 20.4;"SFR"
609030;4.02250;49.26222;"04° 01' 21.00'' Est, 49° 15' 44.00'' Nord";"51454";;"49 R MONT D'ARENE";"51100";"REIMS";"Immeuble"; 37.0;"Société HLM"
609032;4.03194;49.26139;"04° 01' 55.00'' Est, 49° 15' 41.00'' Nord";"51454";;"76 BD LUNDY";"51100";"REIMS";"Immeuble"; 26.0;"Copropriété, Syndic, SCI"
609034;4.06917;49.23611;"04° 04' 09.00'' Est, 49° 14' 10.00'' Nord";"51454";;"2 R GABRIEL VOISIN HOTEL MERCURE";"51100";"REIMS";"Immeuble"; 17.0;"Société Privée SA"
609043;4.03444;49.22944;"04° 02' 04.00'' Est, 49° 13' 46.00'' Nord";"51454";;"6 R DE KERGUELEN";"51100";"REIMS";"Immeuble"; 26.0;"Société HLM"
609047;4.03667;49.25306;"04° 02' 12.00'' Est, 49° 15' 11.00'' Nord";"51454";;"1 R DE L'UNIVERSITÉ CHU - CLINIQUE DE CHAMPAGNE";"51100";"REIMS";"Bâtiment"; 23.0;"Etablissement de soins"
609079;4.04306;49.24750;"04° 02' 35.00'' Est, 49° 14' 51.00'' Nord";"51454";;"130, R PONSARDIN MAISON DE RETRAITE";"51100";"REIMS";"Immeuble"; 19.0;"Copropriété, Syndic, SCI"
609084;4.03472;49.26861;"04° 02' 05.00'' Est, 49° 16' 07.00'' Nord";"51454";;"R PHILIPPE";"51100";"REIMS";"Pylône autostable"; 30.0;"SNCF Réseau"
609086;4.04889;49.21278;"04° 02' 56.00'' Est, 49° 12' 46.00'' Nord";"51172";;"R LUCIEN TROUSSET";"51350";"CORMONTREUIL";"Pylône autostable"; 27.0;"FPS TOWERS"
609092;4.05250;49.28139;"04° 03' 09.00'' Est, 49° 16' 53.00'' Nord";"51055";;"ALL DES PAQUERETTES TERRAIN DE SPORT";"51450";"BETHENY";"Pylône autostable"; 28.0;"FPS TOWERS"
609094;4.04833;49.24611;"04° 02' 54.00'' Est, 49° 14' 46.00'' Nord";"51454";;"2 R GÉRARD PHILIPPE";"51100";"REIMS";"Immeuble"; 28.0;"Etat, Ministère"
611279;3.97472;49.23556;"03° 58' 29.00'' Est, 49° 14' 08.00'' Nord";"51418";"LA CROIX BLANCHE";"PYLÔNE RTE";"51370";"ORMES";"Pylône autostable"; 43.0;"RTE"
615231;4.86972;49.08500;"04° 52' 11.00'' Est, 49° 05' 06.00'' Nord";"51507";;"AIRE D'ACCUEIL DES GENS DU VOYAGE";"51800";"SAINTE-MENEHOULD";"Pylône autostable"; 45.0;"Towercast"
620761;3.77750;49.10444;"03° 46' 39.00'' Est, 49° 06' 16.00'' Nord";"51136";"MONTIGNY";"VC N°17 DITE DE LA VOIE DES VACHES PRÈS DU TRANSFORMATEUR";"51700";"CHATILLON-SUR-MARNE";"Pylône autostable"; 12.0;"ORANGE"
621038;4.37500;49.29389;"04° 22' 30.00'' Est, 49° 17' 38.00'' Nord";"51054";"SORTIE EST";"RD 380";"51490";"BETHENIVILLE";"Pylône autostable"; 42.0;"ORANGE"
628356;4.43611;49.03389;"04° 26' 10.00'' Est, 49° 02' 02.00'' Nord";"51203";;"PÉAGE ST ETIENNE AU TEMPLE A 4 PK 179,3 ÉCHANGEUR DE CHALONS";"51400";"CUPERLY";"Pylône autostable"; 51.0;"Sociétés d'Autoroutes"
629798;3.83500;48.93889;"03° 50' 06.00'' Est, 48° 56' 20.00'' Nord";"51381";"L'ETANG PRESTAT";;"51270";"MONTMORT-LUCY";"Pylône autostable"; 49.0;"SFR"
631896;4.03889;49.05861;"04° 02' 20.00'' Est, 49° 03' 31.00'' Nord";"51347";"MIGREMINE";;"51160";"MAREUIL-SUR-AY";"Pylône autostable"; 22.0;"SNCF Réseau"
632476;4.34944;49.09389;"04° 20' 58.00'' Est, 49° 05' 38.00'' Nord";"51078";"LES CHEMS DE MOURMELON";"PARCELLE YK N°13";"51400";"BOUY";"Pylône autostable"; 25.0;"SNCF Réseau"
632480;4.21639;49.18139;"04° 12' 59.00'' Est, 49° 10' 53.00'' Nord";"51571";"LA COUTURE";"PARCELLE N°32 SECTION ZH";"51360";"VAL-DE-VESLE";"Pylône autostable"; 25.0;"SNCF Réseau"
632482;4.07167;49.24361;"04° 04' 18.00'' Est, 49° 14' 37.00'' Nord";"51454";"LES VOIERIES";"PARCELLE ZN N°33";"51100";"REIMS";"Pylône autostable"; 20.0;"SNCF Réseau"
632484;4.02500;49.31444;"04° 01' 30.00'' Est, 49° 18' 52.00'' Nord";"51183";"SOUS LES POTANEAUX";"PARCELLE Y N° 316";"51220";"COURCY";"Pylône autostable"; 20.0;"SNCF Réseau"
632486;4.16528;49.33250;"04° 09' 55.00'' Est, 49° 19' 57.00'' Nord";"51439";"LES NOËLS";;"51110";"POMACLE";"Pylône autostable"; 30.0;"SNCF Réseau"
632488;4.03917;49.10917;"04° 02' 21.00'' Est, 49° 06' 33.00'' Nord";"51266";"LES TOUROISES";"PARCELLE B N°23";"51160";"GERMAINE";"Pylône autostable"; 30.0;"SNCF Réseau"
632490;4.01417;49.24222;"04° 00' 51.00'' Est, 49° 14' 32.00'' Nord";"51454";;"AV D'EPERNAY";"51100";"REIMS";"Pylône autostable"; 10.0;"SNCF Réseau"
632492;4.03444;49.22194;"04° 02' 04.00'' Est, 49° 13' 19.00'' Nord";"51454";"LA HAUTE FAYERE";"R EDMOND MICHELET";"51100";"REIMS";"Pylône autostable"; 10.0;"SNCF Réseau"
632494;3.98778;49.35778;"03° 59' 16.00'' Est, 49° 21' 28.00'' Nord";"51051";"LE BUISSON";;"51220";"BERMERICOURT";"Pylône autostable"; 20.0;"SNCF Réseau"
632801;4.03250;49.26667;"04° 01' 57.00'' Est, 49° 15' 60.00'' Nord";"51454";;"COUR MARCHANDISE, R PHILIPPE";"51100";"REIMS";"Pylône autostable"; 30.0;"SNCF Réseau"
632803;4.34972;49.03694;"04° 20' 59.00'' Est, 49° 02' 13.00'' Nord";"51617";"LE MONT DE L'HOPITET";"EMBRANCHEMENT GIEA";"51520";"LA VEUVE";"Pylône autostable"; 35.0;"SNCF Réseau"
632805;4.04222;49.16944;"04° 02' 32.00'' Est, 49° 10' 10.00'' Nord";"51461";"RILLY";;"51500";"RILLY-LA-MONTAGNE";"Pylône autostable"; 12.0;"SNCF Réseau"
632807;4.03944;49.16361;"04° 02' 22.00'' Est, 49° 09' 49.00'' Nord";"51461";"TUNNEL DE RILLY";;"51500";"RILLY-LA-MONTAGNE";"Tunnel"; 6.0;"SNCF Réseau"
632809;4.02389;49.13444;"04° 01' 26.00'' Est, 49° 08' 04.00'' Nord";"51629";"LE BOIS DE ST REMY";;"51500";"VILLERS-ALLERAND";"Pylône autostable"; 23.0;"SNCF Réseau"
632811;4.02222;49.12917;"04° 01' 20.00'' Est, 49° 07' 45.00'' Nord";"51266";;"R DE VILLERS ALLERAND";"51160";"GERMAINE";"Pylône autostable"; 12.0;"SNCF Réseau"
632813;4.02917;49.14444;"04° 01' 45.00'' Est, 49° 08' 40.00'' Nord";"51629";"TUNNEL DE RILLY";;"51500";"VILLERS-ALLERAND";"Tunnel"; 6.0;"SNCF Réseau"
632815;4.03417;49.15389;"04° 02' 03.00'' Est, 49° 09' 14.00'' Nord";"51461";"TUNNEL DE RILLY";;"51500";"RILLY-LA-MONTAGNE";"Tunnel"; 6.0;"SNCF Réseau"
632817;4.30361;49.13667;"04° 18' 13.00'' Est, 49° 08' 12.00'' Nord";"51389";"LE CHÂTEAU D'EAU";"PARCELLE ZB N°115";"51400";"MOURMELON-LE-PETIT";"Pylône autostable"; 30.0;"SNCF Réseau"
633475;4.84972;48.68722;"04° 50' 59.00'' Est, 48° 41' 14.00'' Nord";"51654";"LE PARC";"CHEM RURAL";"51340";"VOUILLERS";"Pylône autostable"; 30.0;"SNCF Réseau"
636788;4.12000;49.18861;"04° 07' 12.00'' Est, 49° 11' 19.00'' Nord";"51450";"LE PARC";"CHEM COMMUNAL N°3";"51500";"PUISIEULX";"Château d'eau - réservoir"; 18.0;"Commune, communauté de commune"
639537;4.06778;49.28306;"04° 04' 04.00'' Est, 49° 16' 59.00'' Nord";"51055";"COURTEMONT";;"51450";"BETHENY";"Pylône autostable"; 12.0;"SNCF Réseau"
640510;3.75417;49.30167;"03° 45' 15.00'' Est, 49° 18' 06.00'' Nord";"51086";"LA GALLIPIERRE";"CHEM RURAL";"51140";"BREUIL";"Pylône autostable"; 31.0;"ORANGE"
641066;4.24750;49.11639;"04° 14' 51.00'' Est, 49° 06' 59.00'' Nord";"51061";"LES GRAND CHAMPS";;"51400";"BILLY-LE-GRAND";"Pylône autostable"; 36.0;"Voies navigables de France"
641485;3.98222;49.11389;"03° 58' 56.00'' Est, 49° 06' 50.00'' Nord";"51488";"LE CHENE LA VIERGE";"CHEM COMMUNAL 71";"51160";"SAINT-IMOGES";"Pylône autostable"; 273.0;"Syndicat des eaux, Adduction"
642078;4.50750;48.98722;"04° 30' 27.00'' Est, 48° 59' 14.00'' Nord";"51193";"LES OUCHES ST MARTIN";"SILOS";"51460";"COURTISOLS";"Silo"; 42.0;"Coopérative Agricole, Vinicole"
651965;3.55889;48.87111;"03° 33' 32.00'' Est, 48° 52' 16.00'' Nord";"51380";;"R DE LA GUINOTERIE ZI DE MONDANT";"51210";"MONTMIRAIL";"Pylône tubulaire"; 32.0;"FPS TOWERS"
653619;3.88028;49.24056;"03° 52' 49.00'' Est, 49° 14' 26.00'' Nord";"51305";"DESSUS L'AUNAIE";;"51390";"JANVRY";"Ouvrage d'art (pont, viaduc)"; 10.0;"SNCF Réseau"
654261;4.52250;48.80972;"04° 31' 21.00'' Est, 48° 48' 35.00'' Nord";"51001";"ECLUSE D'ABLANCOURTR";"R PERROT D'ABLANCOURT";"51240";"ABLANCOURT";"Pylône autostable"; 20.0;"Voies navigables de France"
654274;4.02278;49.20361;"04° 01' 22.00'' Est, 49° 12' 13.00'' Nord";"51115";"SOUS LE MONT";"CHEM D'EXPLOITATION N°5";"51500";"CHAMPFLEURY";"Pylône autostable"; 18.0;"ORANGE"
654332;4.18306;49.04056;"04° 10' 59.00'' Est, 49° 02' 26.00'' Nord";"51161";;"5 ALLÉE DE L'USINE USINE HYDROÉLECTRIQUE";"51150";"CONDE-SUR-MARNE";"Bâtiment"; 16.0;"Voies navigables de France"
669068;4.12611;49.01972;"04° 07' 34.00'' Est, 49° 01' 11.00'' Nord";"51018";"LE VILLAGE OUEST";"CHEM DIT DE LA GARE";"51150";"ATHIS";"Pylône tubulaire"; 20.0;"ORANGE"
677930;4.07722;49.24333;"04° 04' 38.00'' Est, 49° 14' 36.00'' Nord";"51454";"LA CROIX BLANDIN";"POP DE REIMS MÉTROPOLE";"51100";"REIMS";"Local technique"; 9.5;"Commune, communauté de commune"
683897;4.38583;48.95722;"04° 23' 09.00'' Est, 48° 57' 26.00'' Nord";"51506";;"2 ALL BAUDELAIRE";"51470";"SAINT-MEMMIE";"Immeuble"; 60.0;"Société HLM"
698060;4.05667;49.24139;"04° 03' 24.00'' Est, 49° 14' 29.00'' Nord";"51454";"CENTRAL POMMERY";"2 R JANKEL SEGAL";"51100";"REIMS";"Bâtiment"; 25.0;"ORANGE Services Fixes"
700867;4.39917;48.94167;"04° 23' 57.00'' Est, 48° 56' 30.00'' Nord";"51108";"LES ESCARNOTIÈRES";"R FRANÇOIS ARAGO - D.1 PARC D'ACTIVITÉS DES ESCARNOTIÈRES";"51000";"CHALONS-EN-CHAMPAGNE";"Pylône tubulaire"; 18.3;"ORANGE"
707755;4.38389;48.94556;"04° 23' 02.00'' Est, 48° 56' 44.00'' Nord";"51506";;"CHEM DE LA TRUSSONNERIE";"51470";"SAINT-MEMMIE";"Pylône autostable"; 12.0;"ORANGE"
709208;4.01083;49.24667;"04° 00' 39.00'' Est, 49° 14' 48.00'' Nord";"51454";;"25 R FRANÇOIS DOR RES  LES CAPUCINS";"51100";"REIMS";"Immeuble"; 30.0;"Société HLM"
719790;3.72250;49.07611;"03° 43' 21.00'' Est, 49° 04' 34.00'' Nord";"51585";"BRISEFER";;"51700";"TROISSY";"Pylône autostable"; 43.0;"TDF"
724468;4.04028;49.06861;"04° 02' 25.00'' Est, 49° 04' 07.00'' Nord";"51028";"LE FEUILLIS";;"51160";"AVENAY-VAL-D'OR";"Pylône autostable"; 36.0;"Itas Tim"
726002;3.83139;48.87750;"03° 49' 53.00'' Est, 48° 52' 39.00'' Nord";"51247";"LES PATIS DES ROQUILLETTES";"D.933 PRÈS DU RÉSERVOIR";"51270";"FEREBRIANGES";"Pylône autostable"; 39.0;"ORANGE"
726488;3.72500;48.71639;"03° 43' 30.00'' Est, 48° 42' 59.00'' Nord";"51535";;"7 AV JEAN JAURÈS";"51120";"SEZANNE";"Pylône tubulaire"; 16.0;"ORANGE"
726913;4.14611;49.07972;"04° 08' 46.00'' Est, 49° 04' 47.00'' Nord";"51079";;"R PASTEUR";"51150";"BOUZY";"Monument religieux"; 39.0;"Commune, communauté de commune"
737915;3.86083;49.27500;"03° 51' 39.00'' Est, 49° 16' 30.00'' Nord";"51391";"LES BALAIS";"N. 31";"51140";"MUIZON";"Pylône autostable"; 36.0;"ORANGE"
740769;3.87667;49.06167;"03° 52' 36.00'' Est, 49° 03' 42.00'' Nord";"51597";;"LA CHAUSSEE DE DAMERY PK 134.583 DE LA LIGNE 70000";"51480";"VAUCIENNES";"Pylône autostable"; 34.0;"Société Privée SA"
743055;3.90028;49.00667;"03° 54' 01.00'' Est, 49° 00' 24.00'' Nord";"51643";"LES PRÉS L'ORGE FLEUR";"CHEM RURAL DIT DE LA PILE";"51530";"VINAY";"Pylône autostable"; 20.4;"ORANGE"
744950;3.99556;49.26722;"03° 59' 44.00'' Est, 49° 16' 02.00'' Nord";"51474";;"CHEM DU MAIRE";"51370";"SAINT-BRICE-COURCELLES";"Pylône tubulaire"; 26.0;"ORANGE"
751966;4.00028;49.28167;"04° 00' 01.00'' Est, 49° 16' 54.00'' Nord";"51474";"LA CROIX MAURENCIENNE";"HYPERMARCHÉ LECLERC";"51370";"SAINT-BRICE-COURCELLES";"Pylône tubulaire"; 31.0;"Société Privée SA"
752557;3.92694;48.99333;"03° 55' 37.00'' Est, 48° 59' 36.00'' Nord";"51378";"LES PATIS";"CHEM VICINAL N°8 DIT DE LA R DES VACHES";"51530";"MONTHELON";"Pylône autostable"; 25.0;"ORANGE"
754832;4.36861;48.95639;"04° 22' 07.00'' Est, 48° 57' 23.00'' Nord";"51108";;"46 R PASTEUR HOTEL PASTEUR";"51000";"CHALONS-EN-CHAMPAGNE";"Immeuble"; 17.0;"Société Privée SA"
756427;4.00583;49.22361;"04° 00' 21.00'' Est, 49° 13' 25.00'' Nord";"51058";;"R LOUIS RENAUD";"51430";"BEZANNES";"Bâtiment"; 15.0;"Société Privée SA"
756429;4.01528;49.22417;"04° 00' 55.00'' Est, 49° 13' 27.00'' Nord";"51454";;"5 ALLÉE YVES GANDON";"51000";"REIMS";"Immeuble"; 50.0;"Société Privée SA"
756431;4.01028;49.27528;"04° 00' 37.00'' Est, 49° 16' 31.00'' Nord";"51454";;"5 - 7 R AUGUSTE WALBAUM";"51100";"REIMS";"Immeuble"; 39.0;"Société Privée SA"
758714;4.35861;48.96944;"04° 21' 31.00'' Est, 48° 58' 10.00'' Nord";"51108";;"8 R LAVOISIER";"51000";"CHALONS-EN-CHAMPAGNE";"Immeuble"; 54.0;"Société HLM"
760824;4.84639;49.01250;"04° 50' 47.00'' Est, 49° 00' 45.00'' Nord";"51537";"LA QUEUE DES YVARTS";"CHEM D'EXPLOITATION N°23";"51800";"SIVRY-ANTE";"Pylône autostable"; 34.0;"SNCF Réseau"
760854;4.93194;49.01139;"04° 55' 55.00'' Est, 49° 00' 41.00'' Nord";"51632";"LA VOIE AUX ANES";"CHEM D'EXPLOITATION 23 PYLÔNE RFF 188";"51800";"VILLERS-EN-ARGONNE";"Pylône autostable"; 30.0;"SNCF Réseau"
763370;4.29556;49.30389;"04° 17' 44.00'' Est, 49° 18' 14.00'' Nord";"51529";"FOSSE NOIRE";"RTE DÉPART. 20";"51490";"SELLES";"Pylône autostable"; 38.0;"FPS TOWERS"
763386;3.69389;48.72722;"03° 41' 38.00'' Est, 48° 43' 38.00'' Nord";"51535";"LES TUILERIES";"LA LUNE";"51120";"SEZANNE";"Pylône autostable"; 22.0;"Société Privée SA"
767685;4.89833;49.11056;"04° 53' 54.00'' Est, 49° 06' 38.00'' Nord";"51507";"LA HOCARDERIE";;"51800";"SAINTE-MENEHOULD";"Pylône autostable"; 26.0;"Titulaire programme Radio/TV"
777936;4.25222;48.99111;"04° 15' 08.00'' Est, 48° 59' 28.00'' Nord";"51357";"LE GRAVIER DES COCHONS";"CHEM RURAL DIT DE LA BARRIÈRE";"51510";"MATOUGUES";"Pylône autostable"; 20.0;"ORANGE"
786058;4.18111;49.10972;"04° 10' 52.00'' Est, 49° 06' 35.00'' Nord";"51580";"LA CARRIÈRE";"R DU STADE";"51380";"TREPAIL";"Pylône autostable"; 25.0;"TDF"
793418;4.88083;49.01639;"04° 52' 51.00'' Est, 49° 00' 59.00'' Nord";"51138";"FERME DE FAILLY";"PRÈS D.382";"51800";"CHATRICES";"Pylône tubulaire"; 30.0;"SFR"
793490;4.38278;48.95250;"04° 22' 58.00'' Est, 48° 57' 09.00'' Nord";"51506";;"AV JACQUES SIMON";"51470";"SAINT-MEMMIE";"Monument religieux"; 32.0;"Commune, communauté de commune"
793500;4.07889;49.21250;"04° 04' 44.00'' Est, 49° 12' 45.00'' Nord";"51562";"LE CHÂTEAU";"CHEM D'EXPLOITATION PRÈS A4";"51500";"TAISSY";"Pylône autostable"; 34.0;"Sociétés d'Autoroutes"
793504;4.34556;48.93306;"04° 20' 44.00'' Est, 48° 55' 59.00'' Nord";"51160";"LA VALLÉE ST-PIERRE";"CHEM RURAL DU VOYEUX";"51510";"COMPERTRIX";"Pylône autostable"; 34.0;"ORANGE"
793506;4.34722;48.95250;"04° 20' 50.00'' Est, 48° 57' 09.00'' Nord";"51108";;"7 R DU 372ÈME RALVF R D'ORLÉANS";"51000";"CHALONS-EN-CHAMPAGNE";"Immeuble"; 49.0;"Société Privée SA"
793508;4.36361;48.96444;"04° 21' 49.00'' Est, 48° 57' 52.00'' Nord";"51108";;"AV DE VALMY R DU GÉNÉRAL JANSEN CASERNE CHANZY - FORGEOT";"51000";"CHALONS-EN-CHAMPAGNE";"Pylône autostable"; 67.0;"Autres"
793514;4.00083;49.28250;"04° 00' 03.00'' Est, 49° 16' 57.00'' Nord";"51474";"LA CROIX MAURENCIENNE";"CCAL E.LECLERC";"51370";"SAINT-BRICE-COURCELLES";"Pylône tubulaire"; 30.0;"Société Privée SA"
793520;3.96028;49.04111;"03° 57' 37.00'' Est, 49° 02' 28.00'' Nord";"51230";;"3-5, R LOCHET";"51200";"EPERNAY";"Immeuble"; 25.0;"Copropriété, Syndic, SCI"
793526;4.35472;48.96167;"04° 21' 17.00'' Est, 48° 57' 42.00'' Nord";"51108";;"43 CHAUSSÉE DU PORT";"51000";"CHALONS-EN-CHAMPAGNE";"Pylône tubulaire"; 25.0;"ORANGE"
793543;4.34639;48.94944;"04° 20' 47.00'' Est, 48° 56' 58.00'' Nord";"51108";;"16, R HENRI DUNANT";"51000";"CHALONS-EN-CHAMPAGNE";"Immeuble"; 36.0;"Société HLM"
793577;4.38056;48.93750;"04° 22' 50.00'' Est, 48° 56' 15.00'' Nord";"51108";;"9, R DU GOUPE LIBÉRATION NORD";"51000";"CHALONS-EN-CHAMPAGNE";"Immeuble"; 31.0;"Société HLM"
793583;4.36944;48.95083;"04° 22' 10.00'' Est, 48° 57' 03.00'' Nord";"51108";;"5 AV DU GÉNÉRAL CHARLES DE GAULLE";"51000";"CHALONS-EN-CHAMPAGNE";"Immeuble"; 15.0;"Particulier"
793587;3.96944;49.05444;"03° 58' 10.00'' Est, 49° 03' 16.00'' Nord";"51663";"LE PRÉ DES PAUVRES";"COMPLEXE SPORTIF ROGER POINTURIER";"51530";"MAGENTA";"Pylône tubulaire"; 20.0;"ORANGE"
793593;3.95472;49.04333;"03° 57' 17.00'' Est, 49° 02' 36.00'' Nord";"51230";;"1 PL HUGUES PLOMB";"51200";"EPERNAY";"Bâtiment"; 24.0;"ORANGE"
793601;3.81028;49.30361;"03° 48' 37.00'' Est, 49° 18' 13.00'' Nord";"51379";"PARFONDEVAL D'EN BAS";"PRÈS D.28";"51140";"MONTIGNY-SUR-VESLE";"Pylône tubulaire"; 49.0;"SFR"
793608;3.96250;49.03111;"03° 57' 45.00'' Est, 49° 01' 52.00'' Nord";"51230";;"4 ALLÉE DU ROUERGUES";"51200";"EPERNAY";"Immeuble"; 29.0;"Copropriété, Syndic, SCI"
793620;4.58139;48.72417;"04° 34' 53.00'' Est, 48° 43' 27.00'' Nord";"51649";;"1, R JULES GUESDE SALLE DES SPORTS";"51300";"VITRY-LE-FRANCOIS";"Immeuble"; 20.0;"Commune, communauté de commune"
793622;4.37333;48.94444;"04° 22' 24.00'' Est, 48° 56' 40.00'' Nord";"51108";;"2,BLD KENNEDY";"51000";"CHALONS-EN-CHAMPAGNE";"Immeuble"; 33.0;"Société HLM"
793624;4.37444;48.96417;"04° 22' 28.00'' Est, 48° 57' 51.00'' Nord";"51108";;"2-4 R DE CHAMPAGNE OPAC";"51000";"CHALONS-EN-CHAMPAGNE";"Immeuble"; 33.0;"Société HLM"
793634;4.34500;48.98444;"04° 20' 42.00'' Est, 48° 59' 04.00'' Nord";"51504";;"R CHARLES MARIE RAVEL 2 R ANNE MARIE TERRIERE";"51520";"SAINT-MARTIN-SUR-LE-PRE";"Pylône autostable"; 38.0;"FPS TOWERS"
793636;4.59611;48.72639;"04° 35' 46.00'' Est, 48° 43' 35.00'' Nord";"51649";;"R DU PORT DE GIVRET SILO";"51300";"VITRY-LE-FRANCOIS";"Silo"; 50.0;"Coopérative Agricole, Vinicole"
793638;3.61778;48.88222;"03° 37' 04.00'' Est, 48° 52' 56.00'' Nord";"51596";"L'ÉTANG DE SARRECHAMPS";"RD.11 - SILO CHAMPAGNE CÉRÉALES 154 R DE L'ETANG DE SARRECHAMPS";"51210";"VAUCHAMPS";"Silo"; 55.0;"Coopérative Agricole, Vinicole"
793811;4.33694;48.97528;"04° 20' 13.00'' Est, 48° 58' 31.00'' Nord";"51504";;"PL DU GÉNÉRAL DE GAULLE";"51520";"SAINT-MARTIN-SUR-LE-PRE";"Monument religieux"; 30.0;"Commune, communauté de commune"
793813;3.95222;49.05722;"03° 57' 08.00'' Est, 49° 03' 26.00'' Nord";"51230";;"ALLÉE DES CUMIERS STADE PAUL CHARDON MOËT";"51200";"EPERNAY";"Mât béton"; 36.0;"Commune, communauté de commune"
793815;4.33306;48.95250;"04° 19' 59.00'' Est, 48° 57' 09.00'' Nord";"51108";;"AV PIERRE SEMARD 56 R DES ARTISANS";"51000";"CHALONS-EN-CHAMPAGNE";"Pylône autostable"; 32.0;"Association"
795016;3.98139;49.25944;"03° 58' 53.00'' Est, 49° 15' 34.00'' Nord";"51573";;"9 R MARCEL DASSAULT Z.A. MONT ST-PIERRE";"51100";"TINQUEUX";"Bâtiment"; 25.0;"Société Privée SA"
795941;4.67028;48.55611;"04° 40' 13.00'' Est, 48° 33' 22.00'' Nord";"51419";"LA VOIE DU CHAUDRON";;"51290";"OUTINES";"Château d'eau - réservoir"; 54.0;"Syndicat des eaux, Adduction"
795986;4.53167;48.56000;"04° 31' 54.00'' Est, 48° 33' 36.00'' Nord";"51349";"LA GARENNE";"CHEM D'EXPLOITATION  N°19 CHEM RURAL DIT DES NOYERS";"51290";"MARGERIE-HANCOURT";"Pylône autostable"; 35.0;"SFR"
796656;3.87139;49.23694;"03° 52' 17.00'' Est, 49° 14' 13.00'' Nord";"51364";"LA PLANTE AUX PIERRES";"LES COURBES A4";"51390";"MERY-PREMECY";"Pylône autostable"; 68.5;"Sociétés d'Autoroutes"
798346;3.51528;48.85917;"03° 30' 55.00'' Est, 48° 51' 33.00'' Nord";"51359";;"CHEM RURAL DE LA FOSSE AUX PAUVRES";"51210";"MECRINGES";"Pylône autostable"; 21.0;"ORANGE"
799009;4.94500;49.10222;"04° 56' 42.00'' Est, 49° 06' 08.00'' Nord";"51507";"LA GRANDE AUX BOIS";"CHÂTEAU D'EAU";"51800";"SAINTE-MENEHOULD";"Château d'eau - réservoir"; 36.0;"Commune, communauté de commune"
799075;4.40139;49.05806;"04° 24' 05.00'' Est, 49° 03' 29.00'' Nord";"51587";"LES CHAMPS D'AVISE";"LE MONT GRAVONNE EMPRISE LGV - PYLÔNE RFF P.K. N°149";"51400";"VADENAY";"Pylône autostable"; 34.0;"SNCF Réseau"
801790;4.48694;48.82000;"04° 29' 13.00'' Est, 48° 49' 12.00'' Nord";"51502";"LA COTE DES VIGNES";;"51240";"SAINT-MARTIN-AUX-CHAMPS";"Pylône autostable"; 12.0;"ORANGE"
802218;3.84278;49.23389;"03° 50' 34.00'' Est, 49° 14' 02.00'' Nord";"51073";"LES LIMONS";"SITE 101 PK 101.830 LIGNE 5000";"51170";"BOULEUSE";"Pylône autostable"; 20.0;"SNCF Réseau"
802250;4.48889;49.03778;"04° 29' 20.00'' Est, 49° 02' 16.00'' Nord";"51147";"LE FOSSÉ LANGRELAINE";"LIGNE TGV E PK 155.804 SITE 155 LIGNE 5000";"51600";"LA CHEPPE";"Pylône autostable"; 25.0;"SNCF Réseau"
802256;3.80083;49.21778;"03° 48' 03.00'' Est, 49° 13' 04.00'' Nord";"51577";"LE PETIT MARAIS";"CHEM D'EXPLOITATION N°12";"51170";"TRAMERY";"Pylône tubulaire"; 21.0;"SFR"
802501;4.22111;49.13278;"04° 13' 16.00'' Est, 49° 07' 58.00'' Nord";"51636";"LES CYGNETS";"CHEM DÉPARTEMENTAN N°3 A4PK 133 SENS PARIS METZ";"51380";"VILLERS-MARMERY";"Pylône autostable"; 20.0;"SNCF Réseau"
802511;3.65972;49.14861;"03° 39' 35.00'' Est, 49° 08' 55.00'' Nord";"51480";"LES TERRES D'HEURTEBISE";"A4 SENS PARIS-REIMS";"51700";"SAINTE-GEMME";"Pylône autostable"; 55.0;"Sociétés d'Autoroutes"
802521;4.87278;48.87083;"04° 52' 22.00'' Est, 48° 52' 15.00'' Nord";"51130";"LE MOULIN À VENT";"CHEM D'EXPLOITATION N°17";"51330";"CHARMONT";"Pylône autostable"; 32.0;"SFR"
802523;3.95194;49.03722;"03° 57' 07.00'' Est, 49° 02' 14.00'' Nord";"51230";;"SQ RAOUL CHANDON";"51200";"EPERNAY";"Monument religieux"; 47.0;"Commune, communauté de commune"
802525;3.95889;49.06417;"03° 57' 32.00'' Est, 49° 03' 51.00'' Nord";"51210";;"CHEM DES BAS JARDINS PRÈS N.51";"51530";"DIZY";"Pylône autostable"; 35.0;"ORANGE"
802540;3.72111;48.72306;"03° 43' 16.00'' Est, 48° 43' 23.00'' Nord";"51535";;"MAIL DU MONT BLANC";"51120";"SEZANNE";"Immeuble"; 16.0;"ORANGE Services Fixes"
802552;3.86972;49.07611;"03° 52' 11.00'' Est, 49° 04' 34.00'' Nord";"51204";;"CHEM VICINAL N°5 DE ARTY À DAMERY";"51480";"DAMERY";"Pylône autostable"; 42.0;"RTE"
802570;3.65306;48.69917;"03° 39' 11.00'' Est, 48° 41' 57.00'' Nord";"51360";"LE COLOMBIER";"CHEM RURAL";"51120";"LE MEIX-SAINT-EPOING";"Pylône autostable"; 42.0;"SFR"
804085;4.66139;48.67250;"04° 39' 41.00'' Est, 48° 40' 21.00'' Nord";"51356";"LES GRANDS CHICHERONS";"CHEM DES GRAVIERES";"51300";"MATIGNICOURT-GONCOURT";"Local technique"; 6.0;"Société Privée SA"
804087;4.34389;48.96083;"04° 20' 38.00'' Est, 48° 57' 39.00'' Nord";"51108";;"CHEM DES GRÈVES PRÈS GARE DE TRIAGE";"51000";"CHALONS-EN-CHAMPAGNE";"Bâtiment"; 2.0;"Société Privée SA"
807070;4.53444;48.76306;"04° 32' 04.00'' Est, 48° 45' 47.00'' Nord";"51328";;"8 R LA CHEVRUE  PICARD S.A.";"51300";"LOISY-SUR-MARNE";"Pylône tubulaire"; 28.0;"ORANGE"
808351;3.75861;49.19806;"03° 45' 31.00'' Est, 49° 11' 53.00'' Nord";"51321";;"A4/AIRE DE REPOS DE LHÉRY PR 116,5 SENS METZ-PARIS";"51170";"LHERY";"Pylône autostable"; 38.0;"Sociétés d'Autoroutes"
819314;4.54944;48.98667;"04° 32' 58.00'' Est, 48° 59' 12.00'' Nord";"51193";;"521 R DU GUE";"51460";"COURTISOLS";"Bâtiment"; 10.0;"Commune, communauté de commune"
822110;4.02583;49.25500;"04° 01' 33.00'' Est, 49° 15' 18.00'' Nord";"51454";;"28 R BUIRETTE PARC AUTO BUIRETTE";"51100";"REIMS";"Bâtiment"; 26.0;"Société Privée SA"
822498;4.03139;49.25667;"04° 01' 53.00'' Est, 49° 15' 24.00'' Nord";"51454";;"R POUILLY PARKING HOTEL DE VILLE";"51100";"REIMS";"Intérieur galerie"; 0.0;"Société Privée SA"
822504;4.02639;49.25722;"04° 01' 35.00'' Est, 49° 15' 26.00'' Nord";"51454";;"BD DU GAL LECLERC PARKING ERLON";"51100";"REIMS";"Intérieur galerie"; 0.0;"Société Privée SA"
822513;4.02889;49.25250;"04° 01' 44.00'' Est, 49° 15' 09.00'' Nord";"51454";;"R DES CAPUCINS PARKING CATHEDRALE";"51100";"REIMS";"Intérieur galerie"; 0.0;"Société Privée SA"
822519;4.03583;49.25000;"04° 02' 09.00'' Est, 49° 15' 00.00'' Nord";"51454";;"R GAMBETTA PARKING GAMBETTA";"51100";"REIMS";"Intérieur galerie"; 0.0;"Société Privée SA"
826111;4.07861;49.12667;"04° 04' 43.00'' Est, 49° 07' 36.00'' Nord";"51623";"LE CHAMP HARDI";"RUELLE DES BEAUX ARTS";"51500";"VILLE-EN-SELVE";"Pylône autostable"; 20.0;"SFR"
831019;4.17861;49.16694;"04° 10' 43.00'' Est, 49° 10' 01.00'' Nord";"51044";"LA VOIE DES VIGNES";"LA CROIX GUIGNON  SENS PARIS";"51360";"BEAUMONT-SUR-VESLE";"Pylône autostable"; 24.0;"SNCF Réseau"
831022;4.53500;49.03306;"04° 32' 06.00'' Est, 49° 01' 59.00'' Nord";"51097";"VOIE VARNIER";"RD 79 LIGNE TGV EST PK 159.217";"51600";"BUSSY-LE-CHATEAU";"Pylône autostable"; 34.0;"SNCF Réseau"
839968;4.44139;48.70528;"04° 26' 29.00'' Est, 48° 42' 19.00'' Nord";"51550";"LES GROSSES BORNES";"L'ORME PICOT";"51320";"SOMPUIS";"Tour hertzienne"; 57.0;"TDF"
851494;4.44611;48.85444;"04° 26' 46.00'' Est, 48° 51' 16.00'' Nord";"51574";"LES GRANDES PÂTURES";"D.202";"51240";"TOGNY-AUX-BOEUFS";"Pylône autostable"; 20.0;"ORANGE"
857137;4.00639;48.89917;"04° 00' 23.00'' Est, 48° 53' 57.00'' Nord";"51612";;"R DES LORIOTS";"51130";"VERTUS";"Pylône tubulaire"; 10.0;"ORANGE Services Fixes"
857184;4.10444;49.22194;"04° 06' 16.00'' Est, 49° 13' 19.00'' Nord";"51493";"LE CALVAIRE";"BD  DU VAL DE VESLE PROLONGÉ PYLÔNE SNCF";"51500";"SAINT-LEONARD";"Pylône autostable"; 30.0;"SNCF Réseau"
857186;3.95639;49.03472;"03° 57' 23.00'' Est, 49° 02' 05.00'' Nord";"51230";;"10, R D'AUVERGNE IMM  LE TOIT CHAMPENOIS";"51200";"EPERNAY";"Immeuble"; 18.0;"Copropriété, Syndic, SCI"
857196;3.98389;49.32111;"03° 59' 02.00'' Est, 49° 19' 16.00'' Nord";"51183";;"A26 SENS LILLE/REIMS PK 254.000 GARE PEAGE PYLONE SANEF";"51220";"COURCY";"Pylône autostable"; 56.0;"Sociétés d'Autoroutes"
872334;4.04750;49.22500;"04° 02' 51.00'' Est, 49° 13' 30.00'' Nord";"51172";;"R SIMON DAUPHINOT STADE MUNICIPAL LÉCRINIER";"51350";"CORMONTREUIL";"Pylône tubulaire"; 19.0;"ORANGE"
875440;4.60194;48.72056;"04° 36' 07.00'' Est, 48° 43' 14.00'' Nord";"51649";;"53 FAUBOURG DE ST-DIZIER CHEMÉE ENTREPOTS";"51300";"VITRY-LE-FRANCOIS";"Bâtiment"; 31.0;"Société Privée SA"
876253;4.77694;48.89806;"04° 46' 37.00'' Est, 48° 53' 53.00'' Nord";"51098";"LE MONTANT DES PRÉS";"RD 1";"51330";"BUSSY-LE-REPOS";"Pylône autostable"; 30.0;"BOUYGUES"
879813;4.49250;48.79778;"04° 29' 33.00'' Est, 48° 47' 52.00'' Nord";"51552";"LA VIGNE LA DAME";"ROUTE DE COOLE CHEM D'EXPLOITATION 30";"51240";"SONGY";"Silo"; 42.0;"Coopérative Agricole, Vinicole"
880502;3.71389;48.72139;"03° 42' 50.00'' Est, 48° 43' 17.00'' Nord";"51535";"LA GUETTE";"SENTE RURALE DITE DES ROUGEMONTS";"51120";"SEZANNE";"Pylône tubulaire"; 12.0;"ORANGE"
885190;4.37722;48.97917;"04° 22' 38.00'' Est, 48° 58' 45.00'' Nord";"51108";;"LA RUELLE DU CHEM DE SUIPPES";"51000";"CHALONS-EN-CHAMPAGNE";"Pylône autostable"; 24.0;"ORANGE"
885796;4.48639;48.85333;"04° 29' 11.00'' Est, 48° 51' 12.00'' Nord";"51436";;"39 R CHARLES LEMAIRE FRANCE LUZERNE";"51240";"POGNY";"Bâtiment"; 25.0;"Société Privée SA"
885798;3.96056;49.04250;"03° 57' 38.00'' Est, 49° 02' 33.00'' Nord";"51230";;"20 AV DE CHAMPAGNE MOET ET CHANDON";"51200";"EPERNAY";"Bâtiment"; 3.0;"Société Privée SA"
886888;4.16028;48.87833;"04° 09' 37.00'' Est, 48° 52' 42.00'' Nord";"51268";;"R DES GIRAUX";"51130";"GERMINON";"Mât"; 11.0;"Société Privée SA"
894765;4.02361;49.26889;"04° 01' 25.00'' Est, 49° 16' 08.00'' Nord";"51454";;"AV DE LAON 200";"51100";"REIMS";"Immeuble"; 22.7;"Copropriété, Syndic, SCI"
894907;4.03583;49.24889;"04° 02' 09.00'' Est, 49° 14' 56.00'' Nord";"51454";;"R DE VENISE 10";"51100";"REIMS";"Immeuble"; 25.0;"Société HLM"
902565;4.58500;48.71639;"04° 35' 06.00'' Est, 48° 42' 59.00'' Nord";"51649";;"11 R DE LA PÉPINIÈRE BÂT CHAMPAGNE CÉRÉALES";"51300";"VITRY-LE-FRANCOIS";"Silo"; 23.5;"Coopérative Agricole, Vinicole"
911106;4.60861;48.83222;"04° 36' 31.00'' Est, 48° 49' 56.00'' Nord";"51472";"LA CENSE DES PRÉS";"R RENÉ OUDINOT";"51300";"SAINT-AMAND-SUR-FION";"Mât"; 7.0;"ORANGE Services Fixes"
911108;4.65694;48.84806;"04° 39' 25.00'' Est, 48° 50' 53.00'' Nord";"51589";"FERME DE MAIGNEUX";;"51330";"VANAULT-LE-CHATEL";"Bâtiment"; 9.0;"Particulier"
911110;4.37694;49.05694;"04° 22' 37.00'' Est, 49° 03' 25.00'' Nord";"51485";"POULAILLIER";"VAU PRISIÈRE";"51400";"SAINT-HILAIRE-AU-TEMPLE";"Mât"; 7.0;"ORANGE Services Fixes"
915375;4.06556;49.26111;"04° 03' 56.00'' Est, 49° 15' 40.00'' Nord";"51454";;"2-16 RTE DE CERNAY - CC CARREFOUR";"51100";"REIMS";"Bâtiment"; 9.0;"Société Privée SA"
921075;4.03139;48.96167;"04° 01' 53.00'' Est, 48° 57' 42.00'' Nord";"51411";"NAU LA BUCHE";;"51190";"OGER";"Pylône tubulaire"; 26.0;"ORANGE"
923206;3.67917;48.55722;"03° 40' 45.00'' Est, 48° 33' 26.00'' Nord";"51162";;"R ISIDORE ROQUEBIN";"51260";"CONFLANS-SUR-SEINE";"Château d'eau - réservoir"; 55.0;"Syndicat des eaux, Adduction"
932441;4.30056;48.97667;"04° 18' 02.00'' Est, 48° 58' 36.00'' Nord";"51483";"LE PATÉ";"CHEM D'EXPLOITATION PYLÔNE RFF";"51510";"SAINT-GIBRIEN";"Pylône autostable"; 25.0;"SNCF Réseau"
932883;3.67028;49.30972;"03° 40' 13.00'' Est, 49° 18' 35.00'' Nord";"51250";;"7 ALLÉE DES MISSIONS ZI";"51170";"FISMES";"Pylône tubulaire"; 20.0;"ORANGE"
944235;4.37083;48.94472;"04° 22' 15.00'' Est, 48° 56' 41.00'' Nord";"51108";;"15 AV DU 29 AOUT 1944";"51000";"CHALONS-EN-CHAMPAGNE";"Immeuble"; 51.5;"Société HLM"
950747;4.07139;48.80667;"04° 04' 17.00'' Est, 48° 48' 24.00'' Nord";"51248";"NOIRPRUN";;"51230";"FERE-CHAMPENOISE";"Pylône autostable"; 37.0;"Conseil Départemental"
954786;4.03000;48.77444;"04° 01' 48.00'' Est, 48° 46' 28.00'' Nord";"51248";;"FERME DE LA CROIX BLANCHE";"51230";"FERE-CHAMPENOISE";"Mât"; 11.0;"Société Privée SA"
955102;4.37111;48.95444;"04° 22' 16.00'' Est, 48° 57' 16.00'' Nord";"51108";;"20 R HYPPOLITE FAURE";"51000";"CHALONS-EN-CHAMPAGNE";"Bâtiment"; 18.0;"SDIS, secours, incendie"
957877;3.69083;48.65417;"03° 41' 27.00'' Est, 48° 39' 15.00'' Nord";"51036";;"CHEMION RURAL N°6 DIT DE LA STATION DE POMPAGE";"51120";"BARBONNE-FAYEL";"Mât"; 8.0;"ORANGE"
958392;4.91556;49.09889;"04° 54' 56.00'' Est, 49° 05' 56.00'' Nord";"51507";"LES MONTS L'HERMITE";"CHEM D'EXPLOITATION N°79";"51800";"SAINTE-MENEHOULD";"Pylône autostable"; 36.0;"ORANGE"
960450;3.98139;49.34778;"03° 58' 53.00'' Est, 49° 20' 52.00'' Nord";"51329";"ECLUSE DE LOIVRE";"RUE DES FONTAINES";"51220";"LOIVRE";"Bâtiment"; 15.0;"Voies navigables de France"
960688;4.05861;49.24250;"04° 03' 31.00'' Est, 49° 14' 33.00'' Nord";"51454";"MOULIN DE LA HOUSE";"RUE DOCTEUR SEGAL";"51100";"REIMS";"Bâtiment"; 12.0;"Titulaire programme Radio/TV"
961180;4.18278;49.01472;"04° 10' 58.00'' Est, 49° 00' 53.00'' Nord";"51303";"LE JARDIN DES PRES";;"51150";"JALONS";"Pylône autostable"; 41.4;"SFR"
961594;4.61611;48.57750;"04° 36' 58.00'' Est, 48° 34' 39.00'' Nord";"51219";;"RUE DU CHÂTEAU";"51290";"DROSNAY";"Château d'eau - réservoir"; 25.0;"Syndicat des eaux, Adduction"
968680;4.35889;48.96194;"04° 21' 32.00'' Est, 48° 57' 43.00'' Nord";"51108";;"FAUBOURG ST-ANTOINE";"51000";"CHALONS-EN-CHAMPAGNE";"Bâtiment"; 10.0;"EDF ou GDF"
974968;4.31694;49.17000;"04° 19' 01.00'' Est, 49° 10' 12.00'' Nord";"51031";;"LE MONT DE PIERRE SILO A GRAINS";"51400";"BACONNES";"Silo"; 50.0;"Particulier"
983932;4.07083;49.23556;"04° 04' 15.00'' Est, 49° 14' 08.00'' Nord";"51454";;"RUE G. VOISIN AGENCE D'EXPLOITATION FARMAN";"51100";"REIMS";"Bâtiment"; 14.0;"EDF ou GDF"
990300;4.58806;48.72028;"04° 35' 17.00'' Est, 48° 43' 13.00'' Nord";"51649";;"AV DE LA RÉPUBLIQUE";"51300";"VITRY-LE-FRANCOIS";"Bâtiment"; 15.0;"EDF ou GDF"
998682;3.96194;49.04972;"03° 57' 43.00'' Est, 49° 02' 59.00'' Nord";"51230";;"RUE MARCEL PAUL AGENCE D'EXPLOITATION";"51200";"EPERNAY";"Mât"; 6.0;"EDF ou GDF"
998687;4.02306;49.26139;"04° 01' 23.00'' Est, 49° 15' 41.00'' Nord";"51454";;"3 RUE DES ROMAINS AGENCE D'EXPLOITATION";"51100";"REIMS";"Bâtiment"; 16.0;"EDF ou GDF"
998702;4.00417;49.26083;"04° 00' 15.00'' Est, 49° 15' 39.00'' Nord";"51454";;"2 RUE ST CHARLES";"51100";"REIMS";"Mât métallique"; 12.0;"EDF ou GDF"
999280;4.02611;49.25972;"04° 01' 34.00'' Est, 49° 15' 35.00'' Nord";"51454";;"28 BD MARÉCHAL JOFFRE LES PROMENADES BP 1094";"51100";"REIMS";"Bâtiment"; 22.0;"Société Privée SA"
1000141;4.52944;49.12444;"04° 31' 46.00'' Est, 49° 07' 28.00'' Nord";"51559";"ST JACQUES";"CHEMIN HAUTE VOIE DE CHALONS";"51600";"SUIPPES";"Bâtiment"; 12.0;"EDF ou GDF"
1000168;4.51167;48.83778;"04° 30' 42.00'' Est, 48° 50' 16.00'' Nord";"51141";"MUTIGNY";"RUE DU COLONEL CAILLOT D60";"51240";"LA CHAUSSEE-SUR-MARNE";"Mât métallique"; 14.0;"EDF ou GDF"
1000668;4.80556;48.91306;"04° 48' 20.00'' Est, 48° 54' 47.00'' Nord";"51166";"LONGE VAU";"D269 LE CAMP";"51330";"CONTAULT";"Mât"; 10.0;"EDF ou GDF"
1000789;4.09833;49.22722;"04° 05' 54.00'' Est, 49° 13' 38.00'' Nord";"51454";"LA CROIX FAILLE";"CHEMIN DE ST LEONARD";"51100";"REIMS";"Bâtiment"; 7.0;"EDF ou GDF"
1000836;4.89667;49.08250;"04° 53' 48.00'' Est, 49° 04' 57.00'' Nord";"51507";"LE ROMARIN";"D63 ROUTE DE VERRIRES";"51800";"SAINTE-MENEHOULD";"Mât"; 11.0;"EDF ou GDF"
1000847;3.97028;48.81833;"03° 58' 13.00'' Est, 48° 49' 06.00'' Nord";"51158";"LA GRANGE";"D18 LA SENTE EST";"51130";"VAL-DES-MARAIS";"Mât"; 12.0;"EDF ou GDF"
1000858;4.01806;48.90306;"04° 01' 05.00'' Est, 48° 54' 11.00'' Nord";"51612";"LA PIERRE QUI TOURNE";"ROUTE DE LA CENSE BIZET";"51130";"VERTUS";"Bâtiment"; 6.0;"EDF ou GDF"
1002241;3.96222;49.05028;"03° 57' 44.00'' Est, 49° 03' 01.00'' Nord";"51230";"MAGENTA";"QUAI DE MARNE";"51200";"EPERNAY";"Bâtiment"; 4.0;"EDF ou GDF"
1002247;4.03444;49.00806;"04° 02' 04.00'' Est, 49° 00' 29.00'' Nord";"51413";"LES DITS JOURNELS";"AV PIERRE MARIE CURIE";"51530";"OIRY";"Bâtiment"; 7.0;"EDF ou GDF"
1002249;4.26111;49.14444;"04° 15' 40.00'' Est, 49° 08' 40.00'' Nord";"51530";"LA PIECE CHAMPIGNY";"LA PIECE CHAMPIGNY";"51400";"SEPT-SAULX";"Bâtiment"; 10.0;"EDF ou GDF"
1002670;4.15694;49.36528;"04° 09' 25.00'' Est, 49° 21' 55.00'' Nord";"51074";"LE TERME BASSIN";"RUE DE BAZANCOURT";"51110";"BOULT-SUR-SUIPPE";"Bâtiment"; 6.0;"EDF ou GDF"
1002675;4.01806;49.21722;"04° 01' 05.00'' Est, 49° 13' 02.00'' Nord";"51454";"MURIGNY";"IMPASSE DE LA CHAUFFERIE";"51100";"REIMS";"Bâtiment"; 7.0;"EDF ou GDF"
1002683;3.55444;48.87083;"03° 33' 16.00'' Est, 48° 52' 15.00'' Nord";"51380";"FONTAINE ESSARTS";"RUE DE BEAUMONT";"51210";"MONTMIRAIL";"Mât"; 12.0;"EDF ou GDF"
1002982;3.69111;49.30639;"03° 41' 28.00'' Est, 49° 18' 23.00'' Nord";"51250";"LE CHANOIS";"ROUTE DE REIMS";"51170";"FISMES";"Bâtiment"; 8.0;"EDF ou GDF"
1008767;4.03528;49.25528;"04° 02' 07.00'' Est, 49° 15' 19.00'' Nord";"51454";;"1 RUE EUGÈNE DESTEUQUE";"51100";"REIMS";"Bâtiment"; 18.0;"ORANGE Services Fixes"
1010239;3.75889;49.20278;"03° 45' 32.00'' Est, 49° 12' 10.00'' Nord";"51321";"FOND DE BOUDIN";"CHEM D'EXPLOIT N°28 / N°29";"51170";"LHERY";"Pylône autostable"; 25.0;"SNCF Réseau"
1016690;4.01944;49.27917;"04° 01' 10.00'' Est, 49° 16' 45.00'' Nord";"51454";;"15 RUE RAYMOND POINCARE";"51100";"REIMS";"Immeuble"; 21.4;"Société HLM"
1019399;4.02000;49.27917;"04° 01' 12.00'' Est, 49° 16' 45.00'' Nord";"51454";;"4 PL PIERRE FERMAT";"51100";"REIMS";"Immeuble"; 22.0;"Copropriété, Syndic, SCI"
1019411;4.01889;49.27444;"04° 01' 08.00'' Est, 49° 16' 28.00'' Nord";"51454";;"340 AV LAON";"51100";"REIMS";"Immeuble"; 43.6;"BOUYGUES"
1027263;4.02194;49.25917;"04° 01' 19.00'' Est, 49° 15' 33.00'' Nord";"51454";;"17 RUE ANDRÉ PINGAT IMMEUBLE L E PARVIS";"51100";"REIMS";"Tour hertzienne"; 15.0;"Société Privée SA"
1029347;4.03528;49.24500;"04° 02' 07.00'' Est, 49° 14' 42.00'' Nord";"51454";;"23 R DES MOULINS";"51050";"REIMS";"Bâtiment"; 20.0;"Etablissement de soins"
1035664;4.63778;49.04000;"04° 38' 16.00'' Est, 49° 02' 24.00'' Nord";"51572";"LA NACELLE";;"51460";"TILLOY-ET-BELLAY";"Pylône autostable"; 42.9;"FPS TOWERS"
1037172;4.04639;49.19139;"04° 02' 47.00'' Est, 49° 11' 29.00'' Nord";"51375";"LE FOSSÉ PRUNIER";;"51500";"MONTBRE";"Pylône autostable"; 11.8;"SFR"
1038399;4.71611;48.89444;"04° 42' 58.00'' Est, 48° 53' 40.00'' Nord";"51098";;"LA MOTTE HERITON D1";"51330";"BUSSY-LE-REPOS";"Mât"; 12.0;"Société Privée SA"
1083755;4.85667;49.16556;"04° 51' 24.00'' Est, 49° 09' 56.00'' Nord";"51620";;"CHEMIN DU CIMETIÈRE";"51800";"VIENNE-LA-VILLE";"Pylône autostable"; 32.0;"Conseil Départemental"
1166894;3.68583;49.31028;"03° 41' 09.00'' Est, 49° 18' 37.00'' Nord";"51250";;"AVENUE DE LA GARE TERRAIN NU COMMUNAL";"51170";"FISMES";"Pylône tubulaire"; 24.0;"ORANGE"
1166896;3.68472;49.30139;"03° 41' 05.00'' Est, 49° 18' 05.00'' Nord";"51250";"LES FOURCHES";"CHEMIN DE LA PETITE MONTAGNE";"51170";"FISMES";"Pylône autostable"; 18.0;"ORANGE"
1173739;4.69694;49.25000;"04° 41' 49.00'' Est, 49° 15' 00.00'' Nord";"51280";"LES AITRAIS";"CHEM D'EXPLOITATION N°6 DIT TARÈGLE";"51800";"GRATREUIL";"Pylône autostable"; 27.0;"Conseil Départemental"
1213644;4.47167;49.25222;"04° 28' 18.00'' Est, 49° 15' 08.00'' Nord";"51517";;"CHEMIN DE RONDE";"51600";"SAINT-SOUPLET-SUR-PY";"Bâtiment"; 6.0;"Particulier"
1213646;4.15417;49.27111;"04° 09' 15.00'' Est, 49° 16' 16.00'' Nord";"51052";;"RUE DE BEINE";"51420";"BERRU";"Bâtiment"; 8.0;"Particulier"
1213648;4.17778;49.04694;"04° 10' 40.00'' Est, 49° 02' 49.00'' Nord";"51161";;"RUE DU 11 NOVEMBRE";"51150";"CONDE-SUR-MARNE";"Bâtiment"; 8.0;"Particulier"
1214404;3.99139;49.27972;"03° 59' 29.00'' Est, 49° 16' 47.00'' Nord";"51518";;"CHEMIN DES TEMPLES STATION D EPURATION DE REIMS";"51220";"SAINT-THIERRY";"Bâtiment"; 20.0;"Société Privée SA"
1216719;4.01444;49.28528;"04° 00' 52.00'' Est, 49° 17' 07.00'' Nord";"51454";;"R LEON BLUM";"51100";"REIMS";"Pylône autostable"; 17.0;"Société Privée SA"
1277111;4.22028;48.82250;"04° 13' 13.00'' Est, 48° 49' 21.00'' Nord";"51556";"L ABREUVOIR";"USINE COOPERATIVE DESHYDRATATION";"51320";"SOUDRON";"Bâtiment"; 30.0;"Société Privée SA"
1277627;3.77000;49.28306;"03° 46' 12.00'' Est, 49° 16' 59.00'' Nord";"51294";;"1 RUE MASSENA";"51140";"HOURGES";"Bâtiment"; 10.0;"Société Privée SA"
1281690;4.42444;49.02250;"04° 25' 28.00'' Est, 49° 01' 21.00'' Nord";"51476";;"RUE DE COURTISOLS";"51460";"SAINT-ETIENNE-AU-TEMPLE";"Château d'eau - réservoir"; 17.5;"Commune, communauté de commune"
1285864;4.03333;49.26167;"04° 01' 60.00'' Est, 49° 15' 42.00'' Nord";"51454";;"6 RUE DU CHAMP DE MARS";"51100";"REIMS";"Bâtiment"; 20.0;"Particulier"
1286244;4.02972;49.25222;"04° 01' 47.00'' Est, 49° 15' 08.00'' Nord";"51454";;"12 RUE LIBERGIER BÂTIMENT ESAD";"51100";"REIMS";"Bâtiment"; 20.0;"Commune, communauté de commune"
1287129;4.00306;49.26111;"04° 00' 11.00'' Est, 49° 15' 40.00'' Nord";"51454";"LES MARAIS DE REIMS";"3 ROUTE DE LA VICTOIRE";"51100";"REIMS";"Bâtiment"; 26.0;"EDF ou GDF"
1287539;4.64972;48.54639;"04° 38' 59.00'' Est, 48° 32' 47.00'' Nord";"51419";"LE SAULE PREVOT";;"51290";"OUTINES";"Pylône autostable"; 42.0;"BOUYGUES"
1316155;4.04222;49.25750;"04° 02' 32.00'' Est, 49° 15' 27.00'' Nord";"51454";;"16 RUE DE CERNAY";"51100";"REIMS";"Immeuble"; 26.0;"Copropriété, Syndic, SCI"
1330851;4.32167;49.04083;"04° 19' 18.00'' Est, 49° 02' 27.00'' Nord";"51617";"CHEMIN DES VIGNES";"PÉAGE DE LA VEUVE A4 PYLÔNE SANEF";"51520";"LA VEUVE";"Pylône autostable"; 30.0;"Sociétés d'Autoroutes"
1365964;3.97083;49.03806;"03° 58' 15.00'' Est, 49° 02' 17.00'' Nord";"51230";;"AV MIDDELKERKE SQUARE MAURICE RAVEL";"51200";"EPERNAY";"Immeuble"; 37.0;"Société HLM"
1370996;4.02889;49.23806;"04° 01' 44.00'' Est, 49° 14' 17.00'' Nord";"51454";;"36 RUE MAISON BLANCHE";"51100";"REIMS";"Immeuble"; 18.3;"Société HLM"
1381455;4.05611;49.26028;"04° 03' 22.00'' Est, 49° 15' 37.00'' Nord";"51454";;"132 BOULEVARD DAUPHINOT";"51100";"REIMS";"Pylône autostable"; 27.0;"ORANGE"
1397430;4.52028;48.90694;"04° 31' 13.00'' Est, 48° 54' 25.00'' Nord";"51354";"SUR LES FOSSES";"CHEMIN D'EXPLOITATION DIT DE VESIGNEUL SUR MARNE";"51240";"MARSON";"Pylône tubulaire"; 14.0;"Commune, communauté de commune"
1397448;4.71556;49.17417;"04° 42' 56.00'' Est, 49° 10' 27.00'' Nord";"51368";"SUR LA CÔTE";"CHEMIN D'EXPLOITATION N°17";"51800";"MINAUCOURT-LE-MESNIL-LES-HURLUS";"Pylône autostable"; 25.0;"Conseil Départemental"
1397529;4.63056;48.90444;"04° 37' 50.00'' Est, 48° 54' 16.00'' Nord";"51179";"LES SAVARTS";;"51240";"COUPEVILLE";"Pylône tubulaire"; 19.0;"Commune, communauté de commune"
1402462;4.58528;48.89778;"04° 35' 07.00'' Est, 48° 53' 52.00'' Nord";"51490";"LA VALLEE LE MAUVAIS";"CHEMIN DE LA CHAUSSÉE";"51240";"SAINT-JEAN-SUR-MOIVRE";"Pylône autostable"; 22.0;"BOUYGUES"
1403242;4.03556;49.25000;"04° 02' 08.00'' Est, 49° 15' 00.00'' Nord";"51454";;"20 RUE GAMBETTA CONSERVATOIRE";"51100";"REIMS";"Bâtiment"; 24.0;"Commune, communauté de commune"
1404154;3.98028;48.75972;"03° 58' 49.00'' Est, 48° 45' 35.00'' Nord";"51248";;"LES LOGES";"51230";"FERE-CHAMPENOISE";"Pylône autostable"; 49.0;"TDF"
1407155;4.04278;49.07306;"04° 02' 34.00'' Est, 49° 04' 23.00'' Nord";"51028";"LE FEUILLIS";"SITE ITAS TIM";"51160";"AVENAY-VAL-D'OR";"Pylône autostable"; 36.0;"Itas Tim"
1410037;4.63861;49.03917;"04° 38' 19.00'' Est, 49° 02' 21.00'' Nord";"51572";"AU DESSUS DES GOULOTS";;"51460";"TILLOY-ET-BELLAY";"Pylône autostable"; 31.0;"Sociétés d'Autoroutes"
1411409;4.30028;49.00694;"04° 18' 01.00'' Est, 49° 00' 25.00'' Nord";"51312";"LES GRANDS TRAQUIERS";;"51150";"JUVIGNY";"Pylône autostable"; 25.0;"Sociétés d'Autoroutes"
1415958;3.69861;49.29861;"03° 41' 55.00'' Est, 49° 17' 55.00'' Nord";"51250";"BOIS DE VILLETTE";"PYL TWC";"51170";"FISMES";"Pylône autostable"; 40.0;"Towercast"
1417633;3.47972;48.73639;"03° 28' 47.00'' Est, 48° 44' 11.00'' Nord";"51402";;"LA FERME D'ARTILLOT D 934";"51310";"NEUVY";"Mât"; 10.0;"Société Privée SA"
1425823;4.05944;49.23500;"04° 03' 34.00'' Est, 49° 14' 06.00'' Nord";"51454";"PARC DES EXPOSITIONS";"ESPLANADE ROLAND GARROS SITE HENRI FARMAN";"51100";"REIMS";"Bâtiment"; 9.0;"Commune, communauté de commune"
1435720;4.73861;48.68583;"04° 44' 19.00'' Est, 48° 41' 09.00'' Nord";"51567";"LES ROISES";"RTE DÉPART. 60";"51300";"THIEBLEMONT-FAREMONT";"Pylône autostable"; 37.3;"TDF"
1435750;4.85583;48.76778;"04° 51' 21.00'' Est, 48° 46' 04.00'' Nord";"51423";"LE BOIS DU ROI";"LE BOIS DU ROI";"51340";"PARGNY-SUR-SAULX";"Pylône autostable"; 40.0;"TDF"
1440335;3.97111;49.34583;"03° 58' 16.00'' Est, 49° 20' 45.00'' Nord";"51329";"LE BAUCHET";"CHEM D'EXPLOITATION N°31";"51220";"LOIVRE";"Pylône tubulaire"; 44.0;"TDF"
1444267;4.04333;49.27417;"04° 02' 36.00'' Est, 49° 16' 27.00'' Nord";"51055";;"184, R LEON FAUCHER";"51450";"BETHENY";"Pylône autostable"; 46.0;"SFR"
1445496;4.90250;49.07278;"04° 54' 09.00'' Est, 49° 04' 22.00'' Nord";"51507";"POIRIER LA MOTTE";"RD 63";"51800";"SAINTE-MENEHOULD";"Pylône autostable"; 39.0;"TDF"
1446093;4.99778;49.01000;"04° 59' 52.00'' Est, 49° 00' 36.00'' Nord";"51222";"LE GRAND BRÛLIS";"CHEMIN D'EXPLOITATION DES EPINETTES";"51800";"ECLAIRES";"Pylône autostable"; 31.0;"ORANGE"
1446106;4.02778;49.24472;"04° 01' 40.00'' Est, 49° 14' 41.00'' Nord";"51454";;"5 RUE LÉO LAGRANGE AGRE-CIGT";"51100";"REIMS";"Mât"; 15.0;"Conseil Départemental"
1456036;3.95444;49.02722;"03° 57' 16.00'' Est, 49° 01' 38.00'' Nord";"51230";;"PLACE DU 13 EME REGIMENT DU GÉ NIE COM COM EPERNAY";"51200";"EPERNAY";"Bâtiment"; 16.0;"Commune, communauté de commune"
1456372;3.96333;49.03500;"03° 57' 48.00'' Est, 49° 02' 06.00'' Nord";"51230";;"58 AV DE FRANCHE COMTE";"51200";"EPERNAY";"Immeuble"; 32.0;"Copropriété, Syndic, SCI"
1456380;3.99528;49.05583;"03° 59' 43.00'' Est, 49° 03' 21.00'' Nord";"51030";;"1 ESPACE LA TOUR";"51160";"AY";"Immeuble"; 33.0;"Copropriété, Syndic, SCI"
1456738;3.99972;49.29056;"03° 59' 59.00'' Est, 49° 17' 26.00'' Nord";"51454";"LA NEUVILETTE";"CHEM LATERAL DU CANAL";"51100";"REIMS";"Pylône tubulaire"; 28.0;"TDF"
1465411;4.13806;48.91583;"04° 08' 17.00'' Est, 48° 54' 57.00'' Nord";"51435";;"LA GARENNE DU BEAU LIEU";"51130";"POCANCY";"Pylône autostable"; 41.9;"TDF"
1466556;4.00972;49.19694;"04° 00' 35.00'' Est, 49° 11' 49.00'' Nord";"51115";"LE BAS CLOS";"CHEM RURAL N°41";"51500";"CHAMPFLEURY";"Pylône autostable"; 29.0;"TDF"
1466781;4.73417;48.86194;"04° 44' 03.00'' Est, 48° 51' 43.00'' Nord";"51589";"LES RIGOLES";"D61";"51330";"VANAULT-LE-CHATEL";"Pylône autostable"; 27.0;"CELLNEX"
1468608;3.99833;49.27250;"03° 59' 54.00'' Est, 49° 16' 21.00'' Nord";"51454";;"6/8 R DU COMMANDANT BARBIER SEVP AUTO";"51100";"REIMS";"Pylône autostable"; 25.0;"SFR"
1469048;4.43389;48.60917;"04° 26' 02.00'' Est, 48° 36' 33.00'' Nord";"51508";"LE BUISSON L'AIGUILLE";"DÉPARTEMENTALE 78-USINE DE DESHYDRATATION";"51320";"SAINT-OUEN-DOMPROT";"Pylône autostable"; 29.0;"Conseil Départemental"
1469052;4.66083;48.92722;"04° 39' 39.00'' Est, 48° 55' 38.00'' Nord";"51371";"SUR LES BEAUX";"D 54";"51240";"MOIVRE";"Pylône autostable"; 12.5;"Commune, communauté de commune"
1469067;3.79778;48.96639;"03° 47' 52.00'' Est, 48° 57' 59.00'' Nord";"51033";;"CHEMIN DE LA CROISÉE RD 11";"51270";"LE BAIZIL";"Pylône autostable"; 27.0;"Conseil Départemental"
1469076;3.61778;48.94194;"03° 37' 04.00'' Est, 48° 56' 31.00'' Nord";"51607";"LE BAILLY";"RD 23";"51210";"VERDON";"Pylône autostable"; 29.0;"Conseil Départemental"
1469505;3.71944;49.03000;"03° 43' 10.00'' Est, 49° 01' 48.00'' Nord";"51396";"NEUVILLE";"RD 23";"51700";"NESLE-LE-REPONS";"Pylône autostable"; 29.0;"Conseil Départemental"
1471441;4.88806;49.09333;"04° 53' 17.00'' Est, 49° 05' 36.00'' Nord";"51507";"PRAIRIE DE LA COMMUNE";"TERRAIN DE SPORT";"51800";"SAINTE-MENEHOULD";"Pylône tubulaire"; 29.0;"FPS TOWERS"
1474028;4.03306;49.27361;"04° 01' 59.00'' Est, 49° 16' 25.00'' Nord";"51454";;"RUE BRIMONTEL";"51100";"REIMS";"Immeuble"; 30.0;"Copropriété, Syndic, SCI"
1474537;4.30778;49.23889;"04° 18' 28.00'' Est, 49° 14' 20.00'' Nord";"51440";;"D64 CAMP DE MORONVILLIERS CEA 51";"51490";"PONTFAVERGER-MORONVILLIERS";"Pylône autostable"; 35.0;"Etat, Ministère"
1474539;4.30778;49.23889;"04° 18' 28.00'' Est, 49° 14' 20.00'' Nord";"51440";;"D64 CAMP DE MORONVILLIERS CEA 51";"51490";"PONTFAVERGER-MORONVILLIERS";"Bâtiment"; 6.0;"Etat, Ministère"
1481596;4.70583;48.72306;"04° 42' 21.00'' Est, 48° 43' 23.00'' Nord";"51246";;"DOMAINE DE TOURNAY D 16";"51300";"FAVRESSE";"Mât"; 12.0;"Société Privée SA"
1481598;3.99111;48.98861;"03° 59' 28.00'' Est, 48° 59' 19.00'' Nord";"51196";;"85 R NEUVE";"51530";"CRAMANT";"Mât"; 8.0;"Société Privée SA"
1482523;3.97056;49.04778;"03° 58' 14.00'' Est, 49° 02' 52.00'' Nord";"51230";;"54 RUE DE LA RÉPUBLIQUE";"51200";"EPERNAY";"Immeuble"; 21.0;"Copropriété, Syndic, SCI"
1484656;4.35917;48.95583;"04° 21' 33.00'' Est, 48° 57' 21.00'' Nord";"51108";;"3, R JULIETTE RÉCAMIER";"51000";"CHALONS-EN-CHAMPAGNE";"Immeuble"; 18.8;"Copropriété, Syndic, SCI"
1487200;3.97639;49.25056;"03° 58' 35.00'' Est, 49° 15' 02.00'' Nord";"51573";;"2 AV ANDRE BOURVIL";"51430";"TINQUEUX";"Immeuble"; 12.5;"Société Privée SA"
1491572;4.56667;49.14278;"04° 33' 60.00'' Est, 49° 08' 34.00'' Nord";"51559";"LE MONT DES VIGNES";"CAMP MILITAIRE";"51600";"SUIPPES";"Tour de contrôle"; 25.0;"Autres"
1495878;4.03167;49.22444;"04° 01' 54.00'' Est, 49° 13' 28.00'' Nord";"51454";;"AVENUE EDMOND MICHELET COMPLEXE SPORTIF";"51100";"REIMS";"Pylône tubulaire"; 15.0;"ORANGE"
1496222;4.04444;49.25500;"04° 02' 40.00'' Est, 49° 15' 18.00'' Nord";"51454";;"26 RUE HOUZEAU MUIRON";"51050";"REIMS";"Bâtiment"; 15.0;"Association"
1497585;4.02111;49.28111;"04° 01' 16.00'' Est, 49° 16' 52.00'' Nord";"51454";;"RUE DU 106ÈME RÉGIMENT D'INFANTERIE CHEMINÉE INDUSTRIELLE";"51100";"REIMS";"Bâtiment"; 30.0;"Société Privée SA"
1499107;4.62472;48.72333;"04° 37' 29.00'' Est, 48° 43' 24.00'' Nord";"51352";;"R SAINT JACQUES STADE";"51300";"MAROLLES";"Pylône tubulaire"; 38.0;"FPS TOWERS"
1502204;4.04472;49.25500;"04° 02' 41.00'' Est, 49° 15' 18.00'' Nord";"51454";;"26 RUE HOUZEAU MUIRON";"51050";"REIMS";"Immeuble"; 15.0;"Association"
1502206;4.02083;49.22889;"04° 01' 15.00'' Est, 49° 13' 44.00'' Nord";"51454";;"HOPITAL MAISON BLANCHE 45 RUE COGNACQ-JAY";"51050";"REIMS";"Immeuble"; 15.0;"Etablissement de soins"
1502575;4.01889;49.22750;"04° 01' 08.00'' Est, 49° 13' 39.00'' Nord";"51454";;"HOPITAL ROBERT DEBRE RUE DU GENERAL KOENIG";"51050";"REIMS";"Immeuble"; 30.0;"Etablissement de soins"
1508693;4.41861;48.90500;"04° 25' 07.00'' Est, 48° 54' 18.00'' Nord";"51372";"LA PETITE RANGÉE";;"51470";"MONCETZ-LONGEVAS";"Pylône autostable"; 33.0;"FPS TOWERS"
1511352;4.17694;49.37250;"04° 10' 37.00'' Est, 49° 22' 21.00'' Nord";"51043";"LE CHAMPS CHARBON";;"51110";"BAZANCOURT";"Pylône autostable"; 39.0;"FPS TOWERS"
1534917;4.55667;49.24889;"04° 33' 24.00'' Est, 49° 14' 56.00'' Nord";"51544";;"RUE DE LA CROIX HENRION CENTRAL TÉLÉPHONIQUE";"51600";"SOMMEPY-TAHURE";"Mât béton"; 12.0;"ORANGE"
1535222;4.52139;49.28000;"04° 31' 17.00'' Est, 49° 16' 48.00'' Nord";"51544";"LA BERRIÈRE";"CTRE HERTZIEN DE L'ARMEE DE L'AIR";"51600";"SOMMEPY-TAHURE";"Pylône autostable"; 48.0;"Autres"
1539176;4.72722;49.02194;"04° 43' 38.00'' Est, 49° 01' 19.00'' Nord";"51498";"LE BULLETIER";;"51800";"SAINT-MARD-SUR-AUVE";"Pylône autostable"; 30.0;"ORANGE"
1545629;3.76500;48.75861;"03° 45' 54.00'' Est, 48° 45' 31.00'' Nord";"51092";;"PLACE DE L'EGLISE";"51120";"BROYES";"Pylône tubulaire"; 12.0;"ORANGE Services Fixes"
1551013;3.94833;49.05750;"03° 56' 54.00'' Est, 49° 03' 27.00'' Nord";"51230";;"44 ALL CUMIERE";"51200";"EPERNAY";"Bâtiment"; 9.5;"Société Privée SA"
1551466;4.08194;48.83028;"04° 04' 55.00'' Est, 48° 49' 49.00'' Nord";"51154";;"CHEMIN DE LA HAYETTE SUD";"51130";"CLAMANGES";"Mât béton"; 20.0;"ORANGE Services Fixes"
1562204;4.89472;48.94417;"04° 53' 41.00'' Est, 48° 56' 39.00'' Nord";"51272";"LA JUSTICE";;"51330";"GIVRY-EN-ARGONNE";"Pylône tubulaire"; 25.0;"ORANGE"
1572660;3.89556;49.30528;"03° 53' 44.00'' Est, 49° 18' 19.00'' Nord";"51582";;"LES SAUCOURTS";"51140";"TRIGNY";"Pylône autostable"; 18.5;"FPS TOWERS"
1597426;4.02722;49.22556;"04° 01' 38.00'' Est, 49° 13' 32.00'' Nord";"51454";;"1 R PIERRE MEHAULT";"51050";"REIMS";"Bâtiment"; 4.0;"Société Privée SA"
1602696;4.52444;48.55444;"04° 31' 28.00'' Est, 48° 33' 16.00'' Nord";"51349";;"4 RUE DES CLOS";"51290";"MARGERIE-HANCOURT";"Bâtiment"; 12.0;"Société Privée SA"
1602698;3.76611;48.75944;"03° 45' 58.00'' Est, 48° 45' 34.00'' Nord";"51092";;"D 39";"51120";"BROYES";"Bâtiment"; 8.0;"Société Privée SA"
1603005;4.02778;49.25333;"04° 01' 40.00'' Est, 49° 15' 12.00'' Nord";"51454";;"60 R DE VESLE";"51100";"REIMS";"Immeuble"; 27.0;"Société Privée SA"
1603565;4.88722;48.93833;"04° 53' 14.00'' Est, 48° 56' 18.00'' Nord";"51500";;"RUE ST PIERRE";"51330";"SAINT-MARD-SUR-LE-MONT";"Bâtiment"; 10.0;"Conseil Régional"
1613935;4.52139;49.28000;"04° 31' 17.00'' Est, 49° 16' 48.00'' Nord";"51544";"LA BERRIÈRE";"STATION HERTZIENNE";"51600";"SOMMEPY-TAHURE";"Pylône autostable"; 50.0;"Autres"
1619352;4.60611;48.70417;"04° 36' 22.00'' Est, 48° 42' 15.00'' Nord";"51262";"LA CORRE";"CHEM EXPLOIT N°6 DIT DES MOUTONS À LA CORRE";"51300";"FRIGNICOURT";"Pylône autostable"; 30.0;"ORANGE"
1620470;3.68472;48.97361;"03° 41' 05.00'' Est, 48° 58' 25.00'' Nord";"51639";;"CHEMIN DIT DE LA VILLE SOUS ORBAIS";"51270";"LA VILLE-SOUS-ORBAIS";"Pylône autostable"; 42.0;"Conseil Départemental"
1622168;4.90944;48.77583;"04° 54' 34.00'' Est, 48° 46' 33.00'' Nord";"51531";"LA RUELLOTTE";;"51250";"SERMAIZE-LES-BAINS";"Pylône autostable"; 40.0;"BOUYGUES"
1622950;4.37028;48.94972;"04° 22' 13.00'' Est, 48° 56' 59.00'' Nord";"51108";;"14 AVENUE CHARLES DE GAULLE";"51000";"CHALONS-EN-CHAMPAGNE";"Immeuble"; 25.3;"Copropriété, Syndic, SCI"
1623383;4.01861;49.29056;"04° 01' 07.00'' Est, 49° 17' 26.00'' Nord";"51454";;"1 R LOUIS VEREL";"51050";"REIMS";"Bâtiment"; 6.0;"Société Privée SA"
1624250;4.36083;48.95611;"04° 21' 39.00'' Est, 48° 57' 22.00'' Nord";"51108";;"25 R DE LA MARNE";"51000";"CHALONS-EN-CHAMPAGNE";"Immeuble"; 24.0;"Copropriété, Syndic, SCI"
1625395;4.43639;49.18083;"04° 26' 11.00'' Est, 49° 10' 51.00'' Nord";"51486";"FERME DU MONT LEVRAT";;"51600";"SAINT-HILAIRE-LE-GRAND";"Pylône autostable"; 35.0;"FPS TOWERS"
1625517;4.46028;48.84167;"04° 27' 37.00'' Est, 48° 50' 30.00'' Nord";"51648";;"2 AV DE LA GARE";"51240";"VITRY-LA-VILLE";"Bâtiment"; 10.0;"Particulier"
1626476;4.38111;48.93806;"04° 22' 52.00'' Est, 48° 56' 17.00'' Nord";"51108";;"8 RUE DU GROUPE LIBERATION NORD";"51000";"CHALONS-EN-CHAMPAGNE";"Immeuble"; 30.0;"Copropriété, Syndic, SCI"
1629514;4.40500;48.94278;"04° 24' 18.00'' Est, 48° 56' 34.00'' Nord";"51108";;"3 RUE DENIS PAPIN - ZAC DES ESCARNOTIÈRES";"51000";"CHALONS-EN-CHAMPAGNE";"Pylône autostable"; 22.8;"Société Privée SA"
1630663;3.88583;48.98056;"03° 53' 09.00'' Est, 48° 58' 50.00'' Nord";"51093";"LES SAVARTS";;"51530";"BRUGNY-VAUDANCOURT";"Pylône autostable"; 40.0;"SFR"
1632809;4.58417;48.72083;"04° 35' 03.00'' Est, 48° 43' 15.00'' Nord";"51649";;"25 AVENUE DU COLONEL MOLL";"51300";"VITRY-LE-FRANCOIS";"Immeuble"; 22.0;"Copropriété, Syndic, SCI"
1634510;4.04306;49.01056;"04° 02' 35.00'' Est, 49° 00' 38.00'' Nord";"51413";;"LA VIEILLE GARENNE";"51200";"OIRY";"Silo"; 39.1;"Coopérative Agricole, Vinicole"
1635140;4.58917;48.73306;"04° 35' 21.00'' Est, 48° 43' 59.00'' Nord";"51649";"LES MARTINETS";"RUE EMILE PAILLARD";"51300";"VITRY-LE-FRANCOIS";"Immeuble"; 36.4;"Copropriété, Syndic, SCI"
1635510;4.73167;48.69639;"04° 43' 54.00'' Est, 48° 41' 47.00'' Nord";"51567";"LE PONCELOT";"SILO CHAMPAGNE CÉRÉALES GRANDE RUE";"51300";"THIEBLEMONT-FAREMONT";"Bâtiment"; 55.0;"Coopérative Agricole, Vinicole"
1635937;4.37194;48.95417;"04° 22' 19.00'' Est, 48° 57' 15.00'' Nord";"51108";;"38 BD HYPPOLYTE FAURE";"51000";"CHALONS-EN-CHAMPAGNE";"Immeuble"; 22.1;"Copropriété, Syndic, SCI"
1642365;3.75778;48.75611;"03° 45' 28.00'' Est, 48° 45' 22.00'' Nord";"51092";;"RUE DE SEZANNE PYLONE DDE";"51120";"BROYES";"Pylône autostable"; 45.0;"Conseil Régional"
1642367;4.03722;49.26556;"04° 02' 14.00'' Est, 49° 15' 56.00'' Nord";"51454";;"11 RUE GOSSET";"51050";"REIMS";"Bâtiment"; 6.0;"Conseil Régional"
1644679;4.11222;49.15083;"04° 06' 44.00'' Est, 49° 09' 03.00'' Nord";"51338";;"20 R KELLERMANN";"51500";"MAILLY-CHAMPAGNE";"Pylône tubulaire"; 12.0;"FPS TOWERS"
1650104;3.67583;48.55472;"03° 40' 33.00'' Est, 48° 33' 17.00'' Nord";"51162";;"ROUTE DE BÉHON";"51260";"CONFLANS-SUR-SEINE";"Pylône autostable"; 33.0;"TDF"
1652638;3.72222;48.79806;"03° 43' 20.00'' Est, 48° 47' 53.00'' Nord";"51542";"LE CHÊNE BARNABÉ";;"51120";"SOIZY-AUX-BOIS";"Pylône autostable"; 40.0;"TDF"
1652642;3.75639;48.85694;"03° 45' 23.00'' Est, 48° 51' 25.00'' Nord";"51042";"LES SENTES BLANCHES";"D 343";"51270";"BAYE";"Pylône autostable"; 47.0;"TDF"
1658178;3.64361;48.73028;"03° 38' 37.00'' Est, 48° 43' 49.00'' Nord";"51407";"LA NOUE VEZIERS";"CHEM DIT DU TOUR DES BOIS PROCHE N4";"51310";"LA NOUE";"Pylône autostable"; 39.4;"TDF"
1658215;4.01167;49.15611;"04° 00' 42.00'' Est, 49° 09' 22.00'' Nord";"51629";"LE MONT DES CORPS";"RN51";"51500";"VILLERS-ALLERAND";"Pylône tubulaire"; 13.9;"CELLNEX"
1661369;3.85083;49.33167;"03° 51' 03.00'' Est, 49° 19' 54.00'' Nord";"51077";"NIVART";"LA FONTAINE AUX CORBEA";"51140";"BOUVANCOURT";"Pylône autostable"; 32.0;"FPS TOWERS"
1663169;4.32917;49.06972;"04° 19' 45.00'' Est, 49° 04' 11.00'' Nord";"51078";"LE MONT DES VIGNETTES";"SILO ROSACE";"51400";"BOUY";"Silo"; 54.2;"Coopérative Agricole, Vinicole"
1664067;4.91972;48.89361;"04° 55' 11.00'' Est, 48° 53' 37.00'' Nord";"51130";"LE CHAMP FRANC";;"51330";"CHARMONT";"Pylône autostable"; 35.0;"SFR"
1664239;4.71056;48.62139;"04° 42' 38.00'' Est, 48° 37' 17.00'' Nord";"51016";"LA GRANDE CÔTE";;"51290";"ARRIGNY";"Pylône autostable"; 30.0;"SFR"
1671862;3.97306;49.22000;"03° 58' 23.00'' Est, 49° 13' 12.00'' Nord";"51365";"LES FORGES";;"51370";"LES MESNEUX";"Pylône autostable"; 42.0;"RTE"
1675627;3.84306;49.28056;"03° 50' 35.00'' Est, 49° 16' 50.00'' Nord";"51181";"L'ÉTANG";"94  CHEMIN VICINAL ORDINAIRE RD 575";"51140";"COURCELLES-SAPICOURT";"Pylône autostable"; 42.2;"TDF"
1679208;4.12694;49.29944;"04° 07' 37.00'' Est, 49° 17' 58.00'' Nord";"51662";;"17 R DU MOULIN FLORENT VICKERS SA";"51420";"WITRY-LES-REIMS";"Pylône autostable"; 25.0;"SFR"
1679223;3.87667;49.19306;"03° 52' 36.00'' Est, 49° 11' 35.00'' Nord";"51072";"LES DIX HOMMES";"CHEM RURAL N° 4 DE CHAUMUZY";"51390";"BOUILLY";"Pylône tubulaire"; 13.6;"SFR"
1679882;4.10556;49.26667;"04° 06' 20.00'' Est, 49° 15' 60.00'' Nord";"51105";"LE TROU GELIN";"CHEM VC N° 22";"51420";"CERNAY-LES-REIMS";"Pylône autostable"; 22.0;"SFR"
1681346;4.54056;49.12083;"04° 32' 26.00'' Est, 49° 07' 15.00'' Nord";"51559";;"RUE DU BOIS PATIN CED";"51600";"SUIPPES";"Bâtiment"; 6.0;"Conseil Régional"
1681348;4.00667;48.89944;"04° 00' 24.00'' Est, 48° 53' 58.00'' Nord";"51612";;"RUE DES LORIOTS CED";"51130";"VERTUS";"Bâtiment"; 8.0;"Conseil Régional"
1681350;4.07139;49.35583;"04° 04' 17.00'' Est, 49° 21' 21.00'' Nord";"51075";;"RUE ALFRED BOELLE CED";"51110";"BOURGOGNE";"Bâtiment"; 8.0;"Conseil Régional"
1681352;4.00083;48.75306;"04° 00' 03.00'' Est, 48° 45' 11.00'' Nord";"51248";;"AV DE VITRY CED";"51230";"FERE-CHAMPENOISE";"Bâtiment"; 6.0;"Conseil Régional"
1681354;4.91361;48.78583;"04° 54' 49.00'' Est, 48° 47' 09.00'' Nord";"51531";;"PARC DE LA FORGE";"51250";"SERMAIZE-LES-BAINS";"Bâtiment"; 10.0;"Conseil Régional"
1682827;4.22750;49.14000;"04° 13' 39.00'' Est, 49° 08' 24.00'' Nord";"51428";;"D37";"51400";"LES PETITES-LOGES";"Pylône autostable"; 8.0;"Société Privée SA"
1687137;4.21389;49.16139;"04° 12' 50.00'' Est, 49° 09' 41.00'' Nord";"51571";"LES MALS FOSSÉS";"RUE LAPIE HENRION SILO DE LA COOPÉRATIVE AGRICOLE DE COURMELOIS";"51360";"VAL-DE-VESLE";"Silo"; 56.0;"Coopérative Agricole, Vinicole"
1691487;3.95583;49.04278;"03° 57' 21.00'' Est, 49° 02' 34.00'' Nord";"51230";;"12 RUE EUGENE MERCIER";"51200";"EPERNAY";"Immeuble"; 22.0;"Société HLM"
1697883;4.02944;49.25278;"04° 01' 46.00'' Est, 49° 15' 10.00'' Nord";"51454";;"15 RUE JADART";"51100";"REIMS";"Bâtiment"; 22.6;"Copropriété, Syndic, SCI"
1703942;4.04722;48.74694;"04° 02' 50.00'' Est, 48° 44' 49.00'' Nord";"51164";"LA FONTAINE DU VAU COUCHAR";"CHEM RURAL DES CERISIERS";"51230";"CONNANTRAY-VAUREFROY";"Pylône autostable"; 32.0;"SFR"
1704638;3.63694;48.79556;"03° 38' 13.00'' Est, 48° 47' 44.00'' Nord";"51129";"LE LONG GÉRARD";"LE CLOS LE ROI";"51120";"CHARLEVILLE";"Pylône autostable"; 32.0;"SFR"
1706627;3.98667;48.98417;"03° 59' 12.00'' Est, 48° 59' 03.00'' Nord";"51196";;"ALL DES GÊNETS";"51530";"CRAMANT";"Château d'eau - réservoir"; 28.5;"Syndicat des eaux, Adduction"
1707634;3.60000;49.04694;"03° 36' 00.00'' Est, 49° 02' 49.00'' Nord";"51192";;"LA VIOLETTE";"51700";"COURTHIEZY";"Pylône autostable"; 23.4;"TDF"
1712390;4.58639;48.98306;"04° 35' 11.00'' Est, 48° 58' 59.00'' Nord";"51548";"LES ARCIS";"CHEMIN D'EXPLOITATION N°61";"51460";"SOMME-VESLE";"Pylône autostable"; 31.0;"Commune, communauté de commune"
1712555;3.95389;49.05861;"03° 57' 14.00'' Est, 49° 03' 31.00'' Nord";"51230";;"RUE DES GRAVIERS STADE PAUL CHARDON STADE D'ENTRAINEMENT";"51200";"EPERNAY";"Pylône autostable"; 41.0;"FPS TOWERS"
1712580;3.97083;49.03639;"03° 58' 15.00'' Est, 49° 02' 11.00'' Nord";"51230";;"4 SQ FRÉDÉRIC CHOPIN";"51200";"EPERNAY";"Immeuble"; 27.9;"Société HLM"
1712604;3.84389;49.08389;"03° 50' 38.00'' Est, 49° 05' 02.00'' Nord";"51605";;"TERRAIN DE FOOTBALL";"51480";"VENTEUIL";"Pylône tubulaire"; 12.0;"SFR"
1713579;4.02361;49.04778;"04° 01' 25.00'' Est, 49° 02' 52.00'' Nord";"51347";"LES DIX HUITS ARPENTS";"TERRAIN DE TENNIS - STADE MUNICIPAL";"51160";"MAREUIL-SUR-AY";"Pylône tubulaire"; 21.0;"SFR"
1714419;3.97361;49.09139;"03° 58' 25.00'' Est, 49° 05' 29.00'' Nord";"51119";"LE VERTIN";"NATIONALE 51";"51160";"CHAMPILLON";"Pylône autostable"; 12.0;"CELLNEX"
1719109;4.21500;48.78250;"04° 12' 54.00'' Est, 48° 46' 57.00'' Nord";"51099";"LA NAUGENIAT";"CHEMIN DU VAUBOURDIN  ZAC N°1 EUROPORT";"51320";"BUSSY-LETTREE";"Pylône autostable"; 27.8;"IFW-FREE"
1722192;4.85028;48.74917;"04° 51' 01.00'' Est, 48° 44' 57.00'' Nord";"51358";;"PL DU GENERAL TOULORGE";"51340";"MAURUPT-LE-MONTOIS";"Bâtiment"; 12.0;"Commune, communauté de commune"
1722616;4.06861;49.04806;"04° 04' 07.00'' Est, 49° 02' 53.00'' Nord";"51347";"LE HAUT LIERY";;"51160";"MAREUIL-SUR-AY";"Pylône tubulaire"; 12.0;"SFR"
1727497;4.82111;49.01389;"04° 49' 16.00'' Est, 49° 00' 50.00'' Nord";"51206";"LES ARCONS";;"51330";"DAMPIERRE-LE-CHATEAU";"Pylône autostable"; 30.0;"ORANGE"
1731413;4.55306;49.24722;"04° 33' 11.00'' Est, 49° 14' 50.00'' Nord";"51544";;"RTE DE STE MARIE À PY";"51600";"SOMMEPY-TAHURE";"Pylône tubulaire"; 40.5;"SFR"
1733892;4.93861;49.03861;"04° 56' 19.00'' Est, 49° 02' 19.00'' Nord";"51138";"LE VILLAGE";"GRANDE RUE";"51800";"CHATRICES";"Bâtiment"; 8.7;"Commune, communauté de commune"
1734092;4.13139;49.22417;"04° 07' 53.00'' Est, 49° 13' 27.00'' Nord";"51450";;"FERME D ALGER";"51500";"PUISIEULX";"Bâtiment"; 12.0;"Société Privée SA"
1736538;4.37722;49.14278;"04° 22' 38.00'' Est, 49° 08' 34.00'' Nord";"51388";;"RUE DU TUMOY (RD 19)";"51400";"MOURMELON-LE-GRAND";"Silo"; 28.8;"Coopérative Agricole, Vinicole"
1739747;4.27167;48.95806;"04° 16' 18.00'' Est, 48° 57' 29.00'' Nord";"51634";"SILO LA MARNAISE";"PRÈS D537";"51510";"VILLERS-LE-CHATEAU";"Silo"; 58.0;"Coopérative Agricole, Vinicole"
1748484;4.06667;48.76667;"04° 03' 60.00'' Est, 48° 45' 60.00'' Nord";"51164";;"1 R DU CAMP";"51230";"CONNANTRAY-VAUREFROY";"Bâtiment"; 8.0;"Autres"
1748868;3.84639;49.13889;"03° 50' 47.00'' Est, 49° 08' 20.00'' Nord";"51398";"LES CLOS";"LES MOQUE BOUTEILLES";"51480";"LA NEUVILLE-AUX-LARRIS";"Pylône autostable"; 19.5;"TDF"
1749462;3.97250;49.09083;"03° 58' 21.00'' Est, 49° 05' 27.00'' Nord";"51119";"LES BOIS COMMUNAUX";"NATIONALE 51 VOIE COMMUNALE N°6 DIT DE LA VIEILLE ROUTE";"51160";"CHAMPILLON";"Pylône tubulaire"; 13.0;"FPS TOWERS"
1752311;4.97167;49.01167;"04° 58' 18.00'' Est, 49° 00' 42.00'' Nord";"51143";"LES PRÉS DE LA VARENNE";"ROUTE DE VILLERS";"51800";"LE CHEMIN";"Pylône autostable"; 30.0;"ORANGE"
1760064;4.76917;49.01750;"04° 46' 09.00'' Est, 49° 01' 03.00'' Nord";"51452";"LA BLANCHE CÔTE";;"51330";"RAPSECOURT";"Pylône autostable"; 30.0;"ORANGE"
1760353;4.88028;49.01056;"04° 52' 49.00'' Est, 49° 00' 38.00'' Nord";"51537";"LES SARTHES";"BORD DE LA LIGNE TGV";"51800";"SIVRY-ANTE";"Pylône autostable"; 30.0;"ORANGE"
1766919;4.27750;48.80167;"04° 16' 39.00'' Est, 48° 48' 06.00'' Nord";"51099";"LE CHEMIN DE COUPETZ";"CHEMIN D'EXPLOITATION N°23 CHEMIN D'EXPLOITATION N°23";"51320";"BUSSY-LETTREE";"Pylône autostable"; 37.7;"TDF"
1768430;3.97306;49.22167;"03° 58' 23.00'' Est, 49° 13' 18.00'' Nord";"51365";"LES FORGES";"DÉLAISSÉ AGRICOLE - D6";"51370";"LES MESNEUX";"Pylône autostable"; 12.0;"ORANGE"
1768436;4.27472;49.10194;"04° 16' 29.00'' Est, 49° 06' 07.00'' Nord";"51326";"LA NOUE DE BILLY";"CHEMIN D'EXPLOITATION";"51400";"LIVRY-LOUVERCY";"Pylône autostable"; 30.0;"ORANGE"
1769719;4.06278;49.21306;"04° 03' 46.00'' Est, 49° 12' 47.00'' Nord";"51172";;"AVENUE DES GOISSES - ZAC LES BLANCS MONTS";"51350";"CORMONTREUIL";"Bâtiment"; 11.0;"Société Privée SA"
1769763;3.96083;49.26528;"03° 57' 39.00'' Est, 49° 15' 55.00'' Nord";"51118";"LA CHARME";;"51370";"CHAMPIGNY";"Pylône tubulaire"; 12.0;"Commune, communauté de commune"
1771304;4.32000;49.10306;"04° 19' 12.00'' Est, 49° 06' 11.00'' Nord";"51326";"L'ARBRISSET";"RD 394 DÉCHETTERIE";"51400";"LIVRY-LOUVERCY";"Pylône autostable"; 28.0;"ORANGE"
1781658;3.75500;49.25306;"03° 45' 18.00'' Est, 49° 15' 11.00'' Nord";"51534";"LES SABLONS";"D 386 SILO CHAMPAGNE CEREALES";"51170";"SERZY-ET-PRIN";"Silo"; 49.2;"Coopérative Agricole, Vinicole"
1786969;4.07722;49.23639;"04° 04' 38.00'' Est, 49° 14' 11.00'' Nord";"51454";"VANDEMOORTELE";"1 RUE DE MACECLIERS";"51100";"REIMS";"Bâtiment"; 16.0;"Société Privée SA"
1798122;3.76889;49.16861;"03° 46' 08.00'' Est, 49° 10' 07.00'' Nord";"51466";"LE JENSOIE";"SILO C.A.A.R. RTE DE DORMANS";"51170";"ROMIGNY";"Silo"; 52.0;"Société Privée SA"
1801139;4.02167;49.23194;"04° 01' 18.00'' Est, 49° 13' 55.00'' Nord";"51454";;"63 BOULEVARD DOCTEUR ROUX";"51100";"REIMS";"Immeuble"; 23.3;"Copropriété, Syndic, SCI"
1802028;4.34722;49.07528;"04° 20' 50.00'' Est, 49° 04' 31.00'' Nord";"51078";"LA RÉGALE";"CHEMIN D'EXPLOITATION SNCF";"51400";"BOUY";"Pylône autostable"; 30.0;"ORANGE"
1812172;4.59028;49.03000;"04° 35' 25.00'' Est, 49° 01' 48.00'' Nord";"51515";"LA VOIE DE SOMME VESLE";;"51600";"SAINT-REMY-SUR-BUSSY";"Pylône autostable"; 30.0;"ORANGE"
1812206;4.06556;49.26750;"04° 03' 56.00'' Est, 49° 16' 03.00'' Nord";"51454";"LE TIR AUX PIGEONS";"CHEMIN DE LA PETITE ROUTE";"51100";"REIMS";"Bâtiment"; 8.0;"EDF ou GDF"
1816444;3.80222;49.18750;"03° 48' 08.00'' Est, 49° 11' 15.00'' Nord";"51624";"LE NID DE CHAT";"ROUTE D'AULNAY";"51170";"VILLE-EN-TARDENOIS";"Pylône tubulaire"; 14.0;"Société Privée SA"
1820418;4.00306;49.25972;"04° 00' 11.00'' Est, 49° 15' 35.00'' Nord";"51454";"LES MARAIS DE REIMS";"3 ROUTE DE LA VICTOIRE";"51100";"REIMS";"Bâtiment"; 26.0;"EDF ou GDF"
1830696;4.07972;49.15222;"04° 04' 47.00'' Est, 49° 09' 08.00'' Nord";"51333";"LE VILLAGE";"RUE PASTEUR";"51500";"LUDES";"Monument religieux"; 24.3;"Commune, communauté de commune"
1834474;4.02639;49.26000;"04° 01' 35.00'' Est, 49° 15' 36.00'' Nord";"51454";;"26 BOULEVARD JOFFRE";"51100";"REIMS";"Immeuble"; 30.4;"Copropriété, Syndic, SCI"
1835171;4.07306;49.23722;"04° 04' 23.00'' Est, 49° 14' 14.00'' Nord";"51454";;"ALL ALBERTO SANTOS DUMONT";"51100";"REIMS";"Pylône autostable"; 19.0;"BOUYGUES"
1843323;3.54056;48.72083;"03° 32' 26.00'' Est, 48° 43' 15.00'' Nord";"51237";;"RUE DE ARBRE HAUT";"51310";"ESTERNAY";"Pylône autostable"; 33.3;"TDF"
1844196;4.06000;49.23333;"04° 03' 36.00'' Est, 49° 14' 00.00'' Nord";"51454";;"40 RUE ST-LÉONARD";"51100";"REIMS";"Pylône tubulaire"; 32.1;"IFW-FREE"
