Numéro du support;Longitude;Latitude;"Position";"Insee";"Lieu dit";"Adresse";"Code postal";"Commune";"Nature du support";Hauteur en m;"Propriétaire"
13522;2.18917;51.02472;"02° 11' 21.00'' Est, 51° 01' 29.00'' Nord";"59359";"DUNKERQUE-PORT OUEST";;"59279";"LOON-PLAGE";"Bâtiment"; 50.0;
13524;2.35111;51.05056;"02° 21' 04.00'' Est, 51° 03' 02.00'' Nord";"59183";"PORT EST ECLUSE WATTIER";;"59640";"DUNKERQUE";"Bâtiment"; 30.0;"CCI,Ch Metiers,Port Aut,Aérop"
13708;2.83222;50.57861;"02° 49' 56.00'' Est, 50° 34' 43.00'' Nord";"59303";"CANTON DE LA CLIQUETERIE";;"59134";"HERLIES";"Château d'eau - réservoir"; 55.0;"Syndicat des eaux, Adduction"
34717;3.14222;50.61722;"03° 08' 32.00'' Est, 50° 37' 02.00'' Nord";"59009";;"131 R YVES DECUGIS";"59650";"VILLENEUVE-D'ASCQ";"Immeuble"; 28.0;"Société HLM"
34799;3.10917;50.58889;"03° 06' 33.00'' Est, 50° 35' 20.00'' Nord";"59343";;"3 R DU CHÂTEAU RÉSIDENCE BOHIN";"59810";"LESQUIN";"Immeuble"; 32.0;"Société HLM"
35041;3.06194;50.63250;"03° 03' 43.00'' Est, 50° 37' 57.00'' Nord";"59350";;"20 B  PL DE BÉTHUNE";"59160";"LILLE";"Immeuble"; 20.0;"Etablissement de soins"
47339;3.02528;50.62444;"03° 01' 31.00'' Est, 50° 37' 28.00'' Nord";"59350";;"12ÈME RUE PORT DE LILLE";"59160";"LILLE";"Pylône tubulaire"; 30.0;"HIVORY"
47909;3.08222;50.36806;"03° 04' 56.00'' Est, 50° 22' 05.00'' Nord";"59178";;"1 PL D'ARMES";"59500";"DOUAI";"Bâtiment"; 20.0;"Titulaire programme Radio/TV"
56339;2.87056;50.68250;"02° 52' 14.00'' Est, 50° 40' 57.00'' Nord";"59017";;"37 R COLBERT STUDIO MONA";"59280";"ARMENTIERES";"Bâtiment"; 24.0;"Titulaire programme Radio/TV"
63393;2.37333;51.02333;"02° 22' 24.00'' Est, 51° 01' 24.00'' Nord";"59155";;"2, RTE DE BERGUES";"59210";"COUDEKERQUE-BRANCHE";"Immeuble"; 14.1;"Société Privée SA"
81132;3.24056;50.17278;"03° 14' 26.00'' Est, 50° 10' 22.00'' Nord";"59122";;"13 BD PAUL BEZIN  RES CHARLES QUINT";"59400";"CAMBRAI";"Immeuble"; 41.0;"Société Privée SA"
81214;3.12972;50.61778;"03° 07' 47.00'' Est, 50° 37' 04.00'' Nord";"59009";;"R DU VENTOUX CCAL PRES DE L'HOTEL DE VILLE";"59650";"VILLENEUVE-D'ASCQ";"Bâtiment"; 10.0;"Société Privée SA"
81232;3.06306;50.63389;"03° 03' 47.00'' Est, 50° 38' 02.00'' Nord";"59350";;"44 R DE BETHUNE";"59160";"LILLE";"Bâtiment"; 21.5;"Société Privée SA"
81342;3.60417;50.40917;"03° 36' 15.00'' Est, 50° 24' 33.00'' Nord";"59613";;"R DE L'EGLISE";"59970";"VICQ";"Monument religieux"; 38.0;"Commune, communauté de commune"
81376;2.22139;50.99972;"02° 13' 17.00'' Est, 50° 59' 59.00'' Nord";"59359";;"R BLANCHARD TERRAIN DE SPORT";"59279";"LOON-PLAGE";"Pylône autostable"; 36.0;"TDF"
94685;3.32333;50.28750;"03° 19' 24.00'' Est, 50° 17' 15.00'' Nord";"59092";;"RUE JEAN BAPTISTE BERLY";"59111";"BOUCHAIN";"Pylône autostable"; 42.0;"TDF"
99686;3.22639;50.17333;"03° 13' 35.00'' Est, 50° 10' 24.00'' Nord";"59122";;"PL EUGENE THOMAS";"59400";"CAMBRAI";"Immeuble"; 38.0;"ORANGE Services Fixes"
99860;3.12056;50.58500;"03° 07' 14.00'' Est, 50° 35' 06.00'' Nord";"59343";;"R DE IÉNA AUCHAN STOCKAGE";"59810";"LESQUIN";"Pylône tubulaire"; 32.0;"ORANGE"
99960;2.99556;50.63444;"02° 59' 44.00'' Est, 50° 38' 04.00'' Nord";"59350";"LOMME DELIVRANCE";"GARE LILLE DÉLIVRANCE";"59800";"LILLE";"Pylône autostable"; 30.0;"SNCF Réseau"
126880;4.11750;50.03222;"04° 07' 03.00'' Est, 50° 01' 56.00'' Nord";"59445";"TRIEUX QUI REVERSENT";;"59132";"OHAIN";"Pylône haubané"; 30.0;"EDF ou GDF"
135129;3.81194;50.12833;"03° 48' 43.00'' Est, 50° 07' 42.00'' Nord";"59583";"LA ROIE DE MAROILLES";"LE GRAND-FAYT";"59550";"TAISNIERES-EN-THIERACHE";"Bâtiment"; 17.0;"Météo"
145498;4.09611;50.22417;"04° 05' 46.00'' Est, 50° 13' 27.00'' Nord";"59066";"FERME DE LA BRIQUE";"RTE DE JEUMONT D963-BOUT D EN HAUT";"59740";"BERELLES";"Château d'eau - réservoir"; 33.0;"Commune, communauté de commune"
163480;2.63861;50.64250;"02° 38' 19.00'' Est, 50° 38' 33.00'' Nord";"59400";;"PLACE DE LA LIBÉRATION MAIRIE";"59660";"MERVILLE";"Bâtiment"; 40.0;"Commune, communauté de commune"
166732;2.96750;50.63222;"02° 58' 03.00'' Est, 50° 37' 56.00'' Nord";"59195";;"RN 352";"59320";"ENGLOS";"Support non décrit"; 10.0;
195087;3.52389;50.35778;"03° 31' 26.00'' Est, 50° 21' 28.00'' Nord";"59606";;"PLACE D'ARMES MAIRIE";"59300";"VALENCIENNES";"Bâtiment"; 40.0;"Commune, communauté de commune"
195135;2.25556;51.02194;"02° 15' 20.00'' Est, 51° 01' 19.00'' Nord";"59359";;"RTE DES DUNES ZI MARDYCK";"59279";"LOON-PLAGE";"Support non décrit"; 20.0;
195139;2.21861;50.99389;"02° 13' 07.00'' Est, 50° 59' 38.00'' Nord";"59359";;"ZI MARDYCK";"59279";"LOON-PLAGE";"Support non décrit"; 10.0;
195183;2.26083;51.01639;"02° 15' 39.00'' Est, 51° 00' 59.00'' Nord";"59359";;"RAFFINERIE DES FLANDRES";"59279";"LOON-PLAGE";"Support non décrit"; 20.0;
195205;3.51639;50.36750;"03° 30' 59.00'' Est, 50° 22' 03.00'' Nord";"59606";;"R GERARD DE PERFONTAINE RES  VERLEY";"59300";"VALENCIENNES";"Support non décrit"; 40.0;
195273;3.08056;50.36778;"03° 04' 50.00'' Est, 50° 22' 04.00'' Nord";"59178";;"83 RUE DE LA MAIRIE BEFFROI";"59500";"DOUAI";"Bâtiment"; 30.0;"Commune, communauté de commune"
195335;3.65944;50.41806;"03° 39' 34.00'' Est, 50° 25' 05.00'' Nord";"59160";;"293 R DES DEPORTES";"59154";"CRESPIN";"Support non décrit"; 18.0;
195405;3.50083;50.37000;"03° 30' 03.00'' Est, 50° 22' 12.00'' Nord";"59014";;"PLACE ROGER SALENGRO MAIRIE";"59410";"ANZIN";"Bâtiment"; 20.0;"Commune, communauté de commune"
195411;2.89000;50.68083;"02° 53' 24.00'' Est, 50° 40' 51.00'' Nord";"59017";;"104 R DU GL LECLERC";"59280";"ARMENTIERES";"Support non décrit";;
212794;3.10583;50.60667;"03° 06' 21.00'' Est, 50° 36' 24.00'' Nord";"59507";;"RST RONCHIN PK 007.475";"59790";"RONCHIN";"Mât"; 10.0;"SNCF Réseau"
212798;3.08250;50.63028;"03° 04' 57.00'' Est, 50° 37' 49.00'' Nord";"59350";;"RST LILLE PRCI 41 PK 010.694";"59160";"LILLE";"Mât"; 5.0;"SNCF Réseau"
212802;3.07000;50.64194;"03° 04' 12.00'' Est, 50° 38' 31.00'' Nord";"59350";;"RST LILLE EUROPE PK 011.990";"59160";"LILLE";"Tunnel"; 7.0;"SNCF Réseau"
212806;3.04194;50.65278;"03° 02' 31.00'' Est, 50° 39' 10.00'' Nord";"59328";;"RST ST ANDRE PK 014.655";"59130";"LAMBERSART";"Tunnel"; 7.0;"SNCF Réseau"
212810;2.93389;50.64556;"02° 56' 02.00'' Est, 50° 38' 44.00'' Nord";"59196";;"RST ENNETIERES PK 023.080";"59320";"ENNETIERES-EN-WEPPES";"Mât"; 15.0;"SNCF Réseau"
212814;2.82694;50.67056;"02° 49' 37.00'' Est, 50° 40' 14.00'' Nord";"59202";;"RST ERQUINGHEM PK 031.503";"59193";"ERQUINGHEM-LYS";"Mât"; 15.0;"SNCF Réseau"
212818;2.67750;50.72194;"02° 40' 39.00'' Est, 50° 43' 19.00'' Nord";"59399";;"RST MERIS CAI 43 PK 043.344";"59270";"MERRIS";"Mât"; 22.0;"SNCF Réseau"
212822;2.60444;50.73917;"02° 36' 16.00'' Est, 50° 44' 21.00'' Nord";"59469";;"RST PRADELLES PK 048.950";"59190";"PRADELLES";"Mât"; 10.0;"SNCF Réseau"
212826;2.51083;50.76528;"02° 30' 39.00'' Est, 50° 45' 55.00'' Nord";"59308";;"RST HONDEGHEM PK 056.214";"59190";"HONDEGHEM";"Mât"; 22.0;"SNCF Réseau"
212830;2.34889;50.80917;"02° 20' 56.00'' Est, 50° 48' 33.00'' Nord";"59119";;"RST BUYSSCHEURE PK 068.773";"59285";"BUYSSCHEURE";"Mât"; 22.0;"SNCF Réseau"
212834;2.25250;50.84167;"02° 15' 09.00'' Est, 50° 50' 30.00'' Nord";"59647";;"RST MILLAM PK 076.600";"59143";"WATTEN";"Mât"; 10.0;"SNCF Réseau"
212838;3.07250;50.54278;"03° 04' 21.00'' Est, 50° 32' 34.00'' Nord";"59034";;"RST AVELIN PRCI 28 PK 193.990";"59710";"AVELIN";"Mât"; 15.0;"SNCF Réseau"
212840;3.11944;50.55917;"03° 07' 10.00'' Est, 50° 33' 33.00'' Nord";"59256";;"RST SAINGHIN PK 197.830";"59273";"FRETIN";"Mât"; 15.0;"SNCF Réseau"
212844;3.27778;50.57972;"03° 16' 40.00'' Est, 50° 34' 47.00'' Nord";"59638";;"RST WANNEHAIN PK 208.695";"59830";"WANNEHAIN";"Mât"; 15.0;"SNCF Réseau"
213000;3.39667;50.44750;"03° 23' 48.00'' Est, 50° 26' 51.00'' Nord";"59526";;"RST LA WEMBERGUE PN 42 PK 033.250";"59230";"SAINT-AMAND-LES-EAUX";"Mât"; 5.0;"SNCF Réseau"
213112;2.97278;50.61500;"02° 58' 22.00'' Est, 50° 36' 54.00'' Nord";"59278";;"RST SEQUEDIN PK 013.000";"59320";"HALLENNES-LEZ-HAUBOURDIN";"Mât"; 5.0;"SNCF Réseau"
220453;2.37639;51.04306;"02° 22' 35.00'' Est, 51° 02' 35.00'' Nord";"59183";"PARC DE BALISAGE";"36 QUAI DES AMÉRICAINS";"59640";"DUNKERQUE";"Bâtiment"; 20.0;"Phares et balises"
222715;3.50778;50.37667;"03° 30' 28.00'' Est, 50° 22' 36.00'' Nord";"59014";;"7 B  R DU PROGRÈS";"59410";"ANZIN";"Immeuble"; 25.0;"Société HLM"
224237;2.12861;50.98111;"02° 07' 43.00'' Est, 50° 58' 52.00'' Nord";"59273";;"RUE DES JARDINS CD 11-POSTE HAUTE TENSION";"59820";"GRAVELINES";"Pylône autostable"; 12.0;"EDF ou GDF"
225881;2.98722;50.74861;"02° 59' 14.00'' Est, 50° 44' 55.00'' Nord";"59152";;"CHEM DU HEL";"59560";"COMINES";"Pylône tubulaire"; 20.0;"HIVORY"
259210;2.33056;50.99778;"02° 19' 50.00'' Est, 50° 59' 52.00'' Nord";"59016";"CRUPUTTE HOUCK";"FERME DU CRUPUTTE HOUCK";"59380";"ARMBOUTS-CAPPEL";"Pylône autostable"; 27.0;"ORANGE"
267326;3.92778;50.24472;"03° 55' 40.00'' Est, 50° 14' 41.00'' Nord";"59291";;"AV KALISZ RÉSIDENCE PICARDIE";"59330";"HAUTMONT";"Immeuble"; 23.4;"Société HLM"
273709;3.06583;50.63528;"03° 03' 57.00'' Est, 50° 38' 07.00'' Nord";"59350";;"80 R DE PARIS CCAL DES TANNEURS";"59160";"LILLE";"Bâtiment"; 19.5;
278368;3.06250;50.63667;"03° 03' 45.00'' Est, 50° 38' 12.00'' Nord";"59350";;"PL DU GÉNÉRAL DE GAULLE HÔTEL BELLEVUE";"59160";"LILLE";"Bâtiment"; 28.0;"Société Privée SA"
278897;3.20917;50.48139;"03° 12' 33.00'' Est, 50° 28' 53.00'' Nord";"59029";;"374 R MARTINACHE";"59310";"AUCHY-LEZ-ORCHIES";"Pylône autostable"; 12.0;"BOUYGUES"
278901;3.42056;50.16944;"03° 25' 14.00'' Est, 50° 10' 10.00'' Nord";"59485";;"25 B R DES JUIFS";"59214";"QUIEVY";"Pylône autostable"; 12.0;"BOUYGUES"
288716;3.04750;50.39750;"03° 02' 51.00'' Est, 50° 23' 51.00'' Nord";"59234";;"RN 43 CCAL CARREFOUR";"59128";"FLERS-EN-ESCREBIEUX";"Bâtiment"; 4.0;"Société Privée SA"
289470;4.11611;50.29583;"04° 06' 58.00'' Est, 50° 17' 45.00'' Nord";"59324";"LE PLAQUIS";"R ROGER SALENGRO";"59460";"JEUMONT";"Pylône tubulaire"; 24.0;"ORANGE"
289765;3.06306;50.63583;"03° 03' 47.00'' Est, 50° 38' 09.00'' Nord";"59350";;"20 R ST NICOLAS";"59160";"LILLE";"Immeuble"; 10.0;"Société Privée SA"
291960;3.06917;50.66917;"03° 04' 09.00'' Est, 50° 40' 09.00'' Nord";"59386";;"R GUYNEMER RÉSIDENCE GUYNEMER LES AVIATEURS";"59520";"MARQUETTE-LEZ-LILLE";"Immeuble"; 20.0;"Société Privée SA"
294021;2.83944;50.70417;"02° 50' 22.00'' Est, 50° 42' 15.00'' Nord";"59431";;"PL DU GÉNÉRAL DE GAULLE EGLISE";"59850";"NIEPPE";"Monument religieux"; 52.0;"Commune, communauté de commune"
294434;3.34417;50.05806;"03° 20' 39.00'' Est, 50° 03' 29.00'' Nord";"59631";;"LE COIN DU NEFLIER CITERNE RESERVOIR";"59127";"WALINCOURT-SELVIGNY";"Bâtiment"; 4.0;
302821;3.39750;50.13861;"03° 23' 51.00'' Est, 50° 08' 19.00'' Nord";"59063";;"RTE DE BEVILLERS";"59157";"BEAUVOIS-EN-CAMBRESIS";"Château d'eau - réservoir"; 30.0;"Syndicat des eaux, Adduction"
302837;3.06306;50.64667;"03° 03' 47.00'' Est, 50° 38' 48.00'' Nord";"59350";;"R DES BATELIERS CTRE DES BATELIERS";"59160";"LILLE";"Bâtiment"; 30.0;"Etablissement de soins"
302857;3.21139;50.68083;"03° 12' 41.00'' Est, 50° 40' 51.00'' Nord";"59512";;"R PIERRE DE COUBERTIN HOP VERT PRÉ";"59100";"ROUBAIX";"Bâtiment"; 30.0;"Etablissement de soins"
302879;3.12194;50.68639;"03° 07' 19.00'' Est, 50° 41' 11.00'' Nord";"59646";;"23 AV DE LA MARNE";"59290";"WASQUEHAL";"Bâtiment"; 15.0;"Société Privée SA"
302881;2.51778;50.78694;"02° 31' 04.00'' Est, 50° 47' 13.00'' Nord";"59536";;"R DU CHÂTEAU D'EAU";"59670";"SAINTE-MARIE-CAPPEL";"Château d'eau - réservoir"; 30.0;"Syndicat des eaux, Adduction"
305907;2.37333;51.04167;"02° 22' 24.00'' Est, 51° 02' 30.00'' Nord";"59183";"CAPITAINERIE/BUREAU GUILLAIN";"TERRE PLEIN GUILLAIN";"59640";"DUNKERQUE";"Bâtiment"; 35.0;"CCI,Ch Metiers,Port Aut,Aérop"
307099;2.19667;50.94667;"02° 11' 48.00'' Est, 50° 56' 48.00'' Nord";"59094";;"PL DU MARCHÉ AUX OISEAUX EGLISE";"59630";"BOURBOURG";"Monument religieux"; 44.0;"Commune, communauté de commune"
307116;3.84194;50.22944;"03° 50' 31.00'' Est, 50° 13' 46.00'' Nord";"59467";;"82 R DE BAVAY";"59138";"PONT-SUR-SAMBRE";"Pylône tubulaire"; 24.0;"ORANGE"
310512;3.03667;50.48583;"03° 02' 12.00'' Est, 50° 29' 09.00'' Nord";"59630";;"R JULES FERRY EGLISE ST BARTHELEMY";"59261";"WAHAGNIES";"Monument religieux"; 36.0;"Commune, communauté de commune"
315417;2.54889;50.71528;"02° 32' 56.00'' Est, 50° 42' 55.00'' Nord";"59295";;"232 R DU VIEUX BERQUIN Z.I. - ETS SENELAR LARSON JUHL";"59190";"HAZEBROUCK";"Pylône tubulaire"; 25.0;"ORANGE"
316032;2.34639;51.05583;"02° 20' 47.00'' Est, 51° 03' 21.00'' Nord";"59183";"ECLUSE CHARLES DE GAULLE";"PORT EST DE DUNKERQUE";"59640";"DUNKERQUE";"Fût"; 9.0;"Phares et balises"
316038;2.36750;51.04972;"02° 22' 03.00'' Est, 51° 02' 59.00'' Nord";"59183";"FEU  TRYSTRAM";"PORT EST DE DUNKERQUE POSTE DE COMMANDE DE L'ÉCLUSE TIXIER";"59640";"DUNKERQUE";"Local technique"; 3.0;"Phares et balises"
316040;2.35333;51.05417;"02° 21' 12.00'' Est, 51° 03' 15.00'' Nord";"59183";"FEU ECLUSE WATIER";"PORT EST DE DUNKERQUE";"59640";"DUNKERQUE";"Fût"; 9.0;"Phares et balises"
316042;2.35333;51.05972;"02° 21' 12.00'' Est, 51° 03' 35.00'' Nord";"59183";"FEU JETEE EST";"PORT EST DE DUNKERQUE";"59640";"DUNKERQUE";"Fût"; 9.0;"Phares et balises"
316096;2.17917;51.00056;"02° 10' 45.00'' Est, 51° 00' 02.00'' Nord";"59359";"FEU PONDEREUX OUEST";"PORT OUEST DE DUNKERQUE";"59279";"LOON-PLAGE";"Local technique"; 12.0;"Phares et balises"
316099;2.19861;51.02778;"02° 11' 55.00'' Est, 51° 01' 40.00'' Nord";"59359";"FEU ANTERIEUR 120°";;"59279";"LOON-PLAGE";"Fût"; 22.0;"Phares et balises"
316101;2.16306;51.03750;"02° 09' 47.00'' Est, 51° 02' 15.00'' Nord";"59359";"FEU JETEE OUEST DYCK";;"59279";"LOON-PLAGE";"Fût"; 33.0;"Phares et balises"
316103;2.16333;51.04389;"02° 09' 48.00'' Est, 51° 02' 38.00'' Nord";"59359";"FEU JETEE EST CLIPON";;"59279";"LOON-PLAGE";"Fût"; 33.0;"Phares et balises"
316105;2.20611;51.02528;"02° 12' 22.00'' Est, 51° 01' 31.00'' Nord";"59359";"FEU POSTERIEUR 120°";"PORT OUEST DE DUNKERQUE";"59279";"LOON-PLAGE";"Fût"; 34.0;"Phares et balises"
317024;3.96833;50.27167;"03° 58' 06.00'' Est, 50° 16' 18.00'' Nord";"59392";;"AV DE LA GARE RTE D'AVESNES TERRAIN SNCF";"59600";"MAUBEUGE";"Pylône tubulaire"; 22.0;"SNCF Réseau"
317217;3.05722;50.66556;"03° 03' 26.00'' Est, 50° 39' 56.00'' Nord";"59527";;"25 R EMILIE VANDAMNE";"59350";"SAINT-ANDRE-LEZ-LILLE";"Bâtiment"; 24.5;"Société Privée SA"
319540;3.11750;50.28194;"03° 07' 03.00'' Est, 50° 16' 55.00'' Nord";"59015";;"R ANDRE JOSEPH LEGLAY";"59151";"ARLEUX";"Bâtiment"; 11.0;"Commune, communauté de commune"
320515;3.06639;50.63694;"03° 03' 59.00'' Est, 50° 38' 13.00'' Nord";"59350";;"16, 18 R FAIDHERBE";"59160";"LILLE";"Immeuble"; 20.0;"Copropriété, Syndic, SCI"
321725;2.36222;51.01139;"02° 21' 44.00'' Est, 51° 00' 41.00'' Nord";"59183";;"R NOORT GRACHT ZI DU NOORT GRACHT TERRAIN ETS DISTRIPLAST";"59640";"DUNKERQUE";"Pylône tubulaire"; 22.0;"ORANGE"
321783;3.85194;50.13278;"03° 51' 07.00'' Est, 50° 07' 58.00'' Nord";"59374";;"CHEM DU MOULIN";"59440";"MARBAIX";"Bâtiment"; 5.0;"Particulier"
326141;3.05361;50.62000;"03° 03' 13.00'' Est, 50° 37' 12.00'' Nord";"59350";;"40 R KUHLMAN";"59160";"LILLE";"Immeuble"; 19.5;"Copropriété, Syndic, SCI"
346599;3.00139;50.63528;"03° 00' 05.00'' Est, 50° 38' 07.00'' Nord";"59350";;"GARE DE TRIAGE DE LILLE-DÉLIVRANCE LOMME";"59160";"LILLE";"Pylône autostable"; 33.0;"SNCF Réseau"
348631;2.34306;51.01028;"02° 20' 35.00'' Est, 51° 00' 37.00'' Nord";"59183";;"224 AV DE LA DORDOGNE";"59640";"DUNKERQUE";"Bâtiment"; 20.0;"Société Privée SA"
348635;3.15361;50.73806;"03° 09' 13.00'' Est, 50° 44' 17.00'' Nord";"59599";;"200 CHAUSSEE FERNAND FOREST";"59200";"TOURCOING";"Bâtiment"; 15.0;
348637;3.14056;50.71111;"03° 08' 26.00'' Est, 50° 42' 40.00'' Nord";"59421";;"51 R LORTHIOIS ZAC DES PEUPLIERS";"59420";"MOUVAUX";"Bâtiment"; 15.0;"Société Privée SA"
356993;3.19667;50.19833;"03° 11' 48.00'' Est, 50° 11' 54.00'' Nord";"59488";;"1542 AV DES DEUX VALLEES";"59554";"RAILLENCOURT-SAINTE-OLLE";"Bâtiment"; 15.0;
357603;4.13389;49.99250;"04° 08' 02.00'' Est, 49° 59' 33.00'' Nord";"59012";;"10 R DU ROI ALBERT PREMIER";"59186";"ANOR";"Bâtiment"; 8.0;"Titulaire programme Radio/TV"
365294;4.03639;50.01167;"04° 02' 11.00'' Est, 50° 00' 42.00'' Nord";"59249";;"R JEANNE III RÉSIDENCE JEANNE III";"59610";"FOURMIES";"Immeuble"; 42.0;"Société HLM"
368169;2.34333;51.01444;"02° 20' 36.00'' Est, 51° 00' 52.00'' Nord";"59183";;"AV.DU PONT LOBY";"59640";"DUNKERQUE";"Pylône tubulaire"; 15.0;"ORANGE"
368827;3.10833;50.65000;"03° 06' 30.00'' Est, 50° 38' 60.00'' Nord";"59410";;"56 AV LÉON BLUM CONFORT HOTEL";"59370";"MONS-EN-BAROEUL";"Immeuble"; 15.0;"Société Privée SA"
400320;2.09472;51.01472;"02° 05' 41.00'' Est, 51° 00' 53.00'' Nord";"59273";"FEU JETÉE EST";"PETIT FORT PHILIPPE";"59820";"GRAVELINES";"Fût"; 3.5;"Phares et balises"
400324;2.09333;51.01389;"02° 05' 36.00'' Est, 51° 00' 50.00'' Nord";"59273";"FEU JETÉE OUEST";"GRAND FORT PHILIPPE";"59820";"GRAVELINES";"Fût"; 3.5;"Phares et balises"
400414;2.15444;51.39806;"02° 09' 16.00'' Est, 51° 23' 53.00'' Nord";"59183";"BOUÉE FAIRY OUEST";"DUNKERQUE/BOUÉE FAIRY OUEST";"59640";"DUNKERQUE";"Pylône autostable"; 5.1;"Phares et balises"
400416;2.14917;51.15167;"02° 08' 57.00'' Est, 51° 09' 06.00'' Nord";"59183";"BOUEE RUYTINGEN SUD EST";"DUNKERQUE/BOUEE RUYTINGEN SUD";"59640";"DUNKERQUE";"Pylône autostable"; 4.3;"Phares et balises"
400420;2.32361;51.25167;"02° 19' 25.00'' Est, 51° 15' 06.00'' Nord";"59183";"BOUÉE BEGUES SUD";"DUNKERQUE/BOUÉE BEGUES SUD";"59640";"DUNKERQUE";"Pylône autostable"; 4.3;"Phares et balises"
400422;2.28861;51.35333;"02° 17' 19.00'' Est, 51° 21' 12.00'' Nord";"59107";"BOUÉE FAIRY SUD";"BRAY-DUNES/BOUÉE FAIRY SUD";"59123";"BRAY-DUNES";"Pylône autostable"; 5.1;"Phares et balises"
400424;2.16972;51.21944;"02° 10' 11.00'' Est, 51° 13' 10.00'' Nord";"59183";"BOUÉE RUYTINGEN";"DUNKERQUE/BOUÉE RUYTINGEN";"59640";"DUNKERQUE";"Pylône autostable"; 5.1;"Phares et balises"
402489;3.66250;50.40722;"03° 39' 45.00'' Est, 50° 24' 26.00'' Nord";"59160";;"PL DES ATELIERS";"59154";"CRESPIN";"Bâtiment"; 7.0;
402491;3.09417;50.67333;"03° 05' 39.00'' Est, 50° 40' 24.00'' Nord";"59378";;"103 AV DU MARECHAL FOCH";"59700";"MARCQ-EN-BAROEUL";"Bâtiment"; 24.0;
402519;1.90722;51.25028;"01° 54' 26.00'' Est, 51° 15' 01.00'' Nord";"59273";;"BOUÉE SANDETTIE OUEST PAS DE CALAIS";"59820";"GRAVELINES";"Pylône autostable"; 5.1;"Phares et balises"
402937;2.31028;51.28583;"02° 18' 37.00'' Est, 51° 17' 09.00'' Nord";"59183";"BOUÉE BERGUES";;"59140";"DUNKERQUE";"Pylône autostable"; 5.1;"Phares et balises"
402941;2.18250;51.34639;"02° 10' 57.00'' Est, 51° 20' 47.00'' Nord";"59183";"BOUÉE HINDER 1";;"59140";"DUNKERQUE";"Pylône autostable"; 5.1;"Phares et balises"
402951;2.29861;51.24250;"02° 17' 55.00'' Est, 51° 14' 33.00'' Nord";"59183";"BOUÉE RUYTINGEN EST";;"59140";"DUNKERQUE";"Pylône autostable"; 4.3;"Phares et balises"
403034;3.21306;50.19000;"03° 12' 47.00'' Est, 50° 11' 24.00'' Nord";"59428";;"R DE LILLE STADE JEAN BARATTE";"59554";"NEUVILLE-SAINT-REMY";"Pylône tubulaire"; 30.0;"ORANGE"
403158;3.07833;50.59722;"03° 04' 42.00'' Est, 50° 35' 50.00'' Nord";"59220";;"R LOUIS BERGOT RÉSIDENCE PROVENCE";"59155";"FACHES-THUMESNIL";"Immeuble"; 25.0;"Société HLM"
403222;2.04389;51.24778;"02° 02' 38.00'' Est, 51° 14' 52.00'' Nord";"59273";"BOUÉE SANDETTIE EST";;"59820";"GRAVELINES";"Pylône autostable"; 5.1;"Phares et balises"
424385;3.12139;50.35889;"03° 07' 17.00'' Est, 50° 21' 32.00'' Nord";"59569";;"R MAURICE MAHIEU";"59450";"SIN-LE-NOBLE";"Pylône tubulaire"; 26.0;"ORANGE"
425197;3.04556;50.64778;"03° 02' 44.00'' Est, 50° 38' 52.00'' Nord";"59350";"ECLUSE DE GRAND-CARRÉ";"SUBDIVISION DE LILLE 113 AV MAX DORMOY";"59800";"LILLE";"Mât métallique"; 17.0;"Voies navigables de France"
425562;3.01361;50.70500;"03° 00' 49.00'' Est, 50° 42' 18.00'' Nord";"59482";"ECLUSE";;"59890";"QUESNOY-SUR-DEULE";"Pylône autostable"; 17.0;"Voies navigables de France"
427675;3.95944;50.26139;"03° 57' 34.00'' Est, 50° 15' 41.00'' Nord";"59365";;"5 À 9 AV DE MONFORT EN CHALOSSE";"59720";"LOUVROIL";"Pylône tubulaire"; 23.0;"ORANGE"
427911;3.52694;50.39139;"03° 31' 37.00'' Est, 50° 23' 29.00'' Nord";"59112";;"10 R DES FRANCS TIREURS";"59860";"BRUAY-SUR-L'ESCAUT";"Pylône tubulaire"; 23.0;"ORANGE"
428308;3.92972;50.25583;"03° 55' 47.00'' Est, 50° 15' 21.00'' Nord";"59291";;"117 R DE LOUVROIL ESPACE CHAUWEL";"59330";"HAUTMONT";"Pylône tubulaire"; 25.0;"ORANGE"
432220;2.91889;50.54639;"02° 55' 08.00'' Est, 50° 32' 47.00'' Nord";"59670";"ECLUSE DE DON";;"59272";"DON";"Mât métallique"; 18.0;"CCI,Ch Metiers,Port Aut,Aérop"
432222;2.89889;50.69278;"02° 53' 56.00'' Est, 50° 41' 34.00'' Nord";"59017";"ECLUSE D'ARMENTIÈRE";"CHEM DE HALAGE";"59280";"ARMENTIERES";"Bâtiment"; 5.0;"Voies navigables de France"
435485;2.50389;50.79806;"02° 30' 14.00'' Est, 50° 47' 53.00'' Nord";"59135";;"1938 ROUTE DE LILLE - D.916 DISCOTHÈQUE LA GRANDE MAISON";"59670";"CASSEL";"Pylône tubulaire"; 25.0;"ORANGE"
435879;3.35944;50.43639;"03° 21' 34.00'' Est, 50° 26' 11.00'' Nord";"59100";"LE ROUCHASMEZ";;"59178";"BOUSIGNIES";"Pylône autostable"; 40.0;"HIVORY"
436578;3.22194;50.20083;"03° 13' 19.00'' Est, 50° 12' 03.00'' Nord";"59597";"MT BLANC";"R MARQUETTE D49 TOUR DTRN";"59554";"TILLOY-LEZ-CAMBRAI";"Pylône autostable"; 70.0;"TDF"
436601;3.18611;50.35889;"03° 11' 10.00'' Est, 50° 21' 32.00'' Nord";"59414";;"CHE DES DORMOIRES MOULINS DE MONTIGNY";"59182";"MONTIGNY-EN-OSTREVENT";"Château d'eau - réservoir"; 31.3;"Syndicat des eaux, Adduction"
436646;3.12694;50.78194;"03° 07' 37.00'' Est, 50° 46' 55.00'' Nord";"59279";;"1 R DE LA LIBÉRATION RÉSIDENCE LOGIS LE VAL DE LYS";"59250";"HALLUIN";"Immeuble"; 23.0;"Société Privée SA"
436876;3.37889;50.25472;"03° 22' 44.00'' Est, 50° 15' 17.00'' Nord";"59038";;"2 R DE NOYELLES";"59296";"AVESNES-LE-SEC";"Pylône tubulaire"; 25.0;"ORANGE"
437040;3.17972;50.66194;"03° 10' 47.00'' Est, 50° 39' 43.00'' Nord";"59299";;"155, BD  CLEMENCEAU S.A. DAMART SERVIPOSTE";"59510";"HEM";"Bâtiment"; 23.6;"Société Privée SA"
437047;3.11000;50.72000;"03° 06' 36.00'' Est, 50° 43' 12.00'' Nord";"59090";;"1830 AV DU GÉNÉRAL DE GAULLE CHÂTEAU D'EAU";"59910";"BONDUES";"Château d'eau - réservoir"; 35.6;"SFR"
437315;2.37806;51.03833;"02° 22' 41.00'' Est, 51° 02' 18.00'' Nord";"59183";"TOUR DE REUZE";"2 R JEAN JAURES 5 R FOCKEDEY";"59140";"DUNKERQUE";"Tour hertzienne"; 97.0;"TDF"
437512;3.33750;50.33361;"03° 20' 15.00'' Est, 50° 20' 01.00'' Nord";"59205";;"R CHARLES LEHUT TERRAIN DE SPORT";"59124";"ESCAUDAIN";"Pylône tubulaire"; 32.0;"ATC FRANCE"
437636;3.21611;50.18472;"03° 12' 58.00'' Est, 50° 11' 05.00'' Nord";"59428";"MOULIN SAVARY";"R DU MOULIN CHÂTEAU D'EAU";"59554";"NEUVILLE-SAINT-REMY";"Château d'eau - réservoir"; 32.0;"Commune, communauté de commune"
437766;2.95583;50.59194;"02° 57' 21.00'' Est, 50° 35' 31.00'' Nord";"59553";;"R NEUVE PRES DES TERRAINS DE SPORT";"59211";"SANTES";"Pylône autostable"; 35.0;"TDF"
437934;3.12667;50.36972;"03° 07' 36.00'' Est, 50° 22' 11.00'' Nord";"59569";;"R CENTRALE ELECTRIQUE DE DECHY TOUR BILS DEROO TRANSPORT BILS DEROO";"59450";"SIN-LE-NOBLE";"Pylône tubulaire"; 28.0;"BOUYGUES"
438720;3.20361;50.15444;"03° 12' 13.00'' Est, 50° 09' 16.00'' Nord";"59476";"LE BOIS DINOIR";"R DE NOYELLES - D29 ANCIENNE BRIQUETTERIE";"59267";"PROVILLE";"Bâtiment"; 25.2;"Société Privée SA"
438779;3.13333;50.69861;"03° 07' 60.00'' Est, 50° 41' 55.00'' Nord";"59421";;"PL D'ALSACE LORRAINE EGLISE ST GERMAIN";"59420";"MOUVAUX";"Monument religieux"; 55.0;"Commune, communauté de commune"
438833;3.03250;50.63389;"03° 01' 57.00'' Est, 50° 38' 02.00'' Nord";"59350";;"113 AV MAX DORMOY BP 56 SUBDIVISION DE LILLE";"59800";"LILLE";"Mât"; 25.0;"Voies navigables de France"
439194;3.07806;50.62722;"03° 04' 41.00'' Est, 50° 37' 38.00'' Nord";"59350";;"2 R LOUIS DUPIED CENTRAL FRANCE TELECOM BOITELLE";"59800";"LILLE";"Pylône autostable"; 27.0;"ORANGE Services Fixes"
439213;2.17667;50.89333;"02° 10' 36.00'' Est, 50° 53' 36.00'' Nord";"59539";"PONT LEVIS DE LA B TADE";"LA B TADE SUR LA D110";"59630";"SAINT-PIERRE-BROUCK";"Bâtiment"; 4.0;"Voies navigables de France"
439507;3.56250;50.34917;"03° 33' 45.00'' Est, 50° 20' 57.00'' Nord";"59383";;"R ROGER SALENGRO CHÂTEAU D'EAU";"59770";"MARLY";"Château d'eau - réservoir"; 82.0;"Syndicat des eaux, Adduction"
440564;3.07667;50.63806;"03° 04' 36.00'' Est, 50° 38' 17.00'' Nord";"59350";;"BD  DE TURIN TOUR LILLE EUROPE PARVIS DE ROTTERDAM";"59800";"LILLE";"Immeuble"; 95.0;"Société Privée SA"
440911;3.61028;50.35861;"03° 36' 37.00'' Est, 50° 21' 31.00'' Nord";"59215";"LE CHEM DE LA BUSE";"D.350A - PARC D'ACTIVITÉS VALLÉE ESCAUT PYLÔNE RTE";"59990";"ESTREUX";"Pylône autostable"; 38.0;"RTE"
440924;3.20639;50.33444;"03° 12' 23.00'' Est, 50° 20' 04.00'' Nord";"59390";;"R DE MONCHECOURT SOCIÉTÉ PET'S STORY";"59176";"MASNY";"Pylône tubulaire"; 25.0;"ORANGE"
440929;2.35611;51.03528;"02° 21' 22.00'' Est, 51° 02' 07.00'' Nord";"59540";;"4 R DE LA SAMMARITAINE";"59430";"SAINT-POL-SUR-MER";"Pylône autostable"; 35.0;"ATC FRANCE"
440934;3.46056;50.30306;"03° 27' 38.00'' Est, 50° 18' 11.00'' Nord";"59589";"LES CAILLOUX";"D 40";"59224";"THIANT";"Pylône autostable"; 39.1;"ATC FRANCE"
441183;3.30000;50.36361;"03° 17' 60.00'' Est, 50° 21' 49.00'' Nord";"59227";;"R JEAN JAURES EGLISE";"59179";"FENAIN";"Monument religieux"; 30.0;"Commune, communauté de commune"
441226;4.05389;50.01222;"04° 03' 14.00'' Est, 50° 00' 44.00'' Nord";"59249";;"R DES CHARBONNIERS QUARTIER DES VERRERIES";"59610";"FOURMIES";"Pylône autostable"; 35.0;"TDF"
441260;3.06111;50.47111;"03° 03' 40.00'' Est, 50° 28' 16.00'' Nord";"59592";;"RUE DE L'ENTREPOT PRÈS RD 9";"59239";"THUMERIES";"Pylône autostable"; 38.0;"TDF"
442513;2.50472;50.70111;"02° 30' 17.00'' Est, 50° 42' 04.00'' Nord";"59416";"LE CRINCHON";"RUE DU MOULIN CHEM RURAL DIT GROONE STRAETE RTE N°2 DIT DE ST OMER";"59190";"MORBECQUE";"Château d'eau - réservoir"; 32.0;"Syndicat des eaux, Adduction"
442564;3.17694;50.72333;"03° 10' 37.00'' Est, 50° 43' 24.00'' Nord";"59599";;"81 R DU TOUQUET TOUR DE LA COTONNERIE DU TOUQUET";"59200";"TOURCOING";"Bâtiment"; 32.0;"Commune, communauté de commune"
442586;3.07944;50.62139;"03° 04' 46.00'' Est, 50° 37' 17.00'' Nord";"59350";;"26, R GEORGES CLEMENCEAU IMM TOUR CLEMENCEAU";"59800";"LILLE";"Immeuble"; 49.9;"Société HLM"
442799;3.21389;50.57500;"03° 12' 50.00'' Est, 50° 34' 30.00'' Nord";"59168";"LA MUQUE";"RTE DE GRUSON";"59830";"CYSOING";"Pylône autostable"; 37.0;"BOUYGUES"
442833;2.52278;51.06250;"02° 31' 22.00'' Est, 51° 03' 45.00'' Nord";"59107";"PONT GHYVELDE";;"59123";"BRAY-DUNES";"Bâtiment"; 6.0;"Voies navigables de France"
443064;3.23583;50.61917;"03° 14' 09.00'' Est, 50° 37' 09.00'' Nord";"59044";;"1 R DE BREUZE";"59780";"BAISIEUX";"Pylône autostable"; 32.0;"ORANGE"
443097;3.36944;50.29444;"03° 22' 10.00'' Est, 50° 17' 40.00'' Nord";"59179";;"999, CHEM DE NEUVILLE";"59282";"DOUCHY-LES-MINES";"Château d'eau - réservoir"; 57.0;"Syndicat des eaux, Adduction"
443101;2.41111;51.05083;"02° 24' 40.00'' Est, 51° 03' 03.00'' Nord";"59183";;"190 R DE CAMBRAI RES AUTAN";"59140";"DUNKERQUE";"Immeuble"; 29.0;"Société HLM"
443382;3.39306;50.47583;"03° 23' 35.00'' Est, 50° 28' 33.00'' Nord";"59335";"LES AULNOIS";"R DE BLONDELLE";"59226";"LECELLES";"Pylône autostable"; 34.0;"ATC FRANCE"
444925;3.12417;50.64250;"03° 07' 27.00'' Est, 50° 38' 33.00'' Nord";"59009";;"65 R FAIDHERBE";"59491";"VILLENEUVE-D'ASCQ";"Tour hertzienne"; 140.0;"TDF"
445007;2.47639;50.80278;"02° 28' 35.00'' Est, 50° 48' 10.00'' Nord";"59135";"MONT CASSEL";"R DE WATTEN";"59670";"CASSEL";"Pylône autostable"; 50.0;"TDF"
445305;4.07611;50.15917;"04° 04' 34.00'' Est, 50° 09' 33.00'' Nord";"59572";"L'EPINE";"CHATEAU D'EAU COMMUNAL";"59740";"SOLRE-LE-CHATEAU";"Château d'eau - réservoir"; 53.0;"Syndicat des eaux, Adduction"
445795;3.04639;50.62278;"03° 02' 47.00'' Est, 50° 37' 22.00'' Nord";"59350";;"70,72 R D'ARCOLE";"59800";"LILLE";"Immeuble"; 49.0;"Société HLM"
446264;4.02389;50.28194;"04° 01' 26.00'' Est, 50° 16' 55.00'' Nord";"59021";;"100 R LÉON GAMBETTA CH EAU GLAVERBEL";"59600";"ASSEVENT";"Château d'eau - réservoir"; 46.0;"Société Privée SA"
446327;3.81806;50.20111;"03° 49' 05.00'' Est, 50° 12' 04.00'' Nord";"59033";"ECLUSE DE BERLAIMONT";;"59620";"AULNOYE-AYMERIES";"Pylône autostable"; 24.0;"Voies navigables de France"
446356;3.97417;50.27556;"03° 58' 27.00'' Est, 50° 16' 32.00'' Nord";"59392";;"QUAI DES HENNUYERS";"59600";"MAUBEUGE";"Bâtiment"; 18.0;"Voies navigables de France"
446978;3.64444;50.04861;"03° 38' 40.00'' Est, 50° 02' 55.00'' Nord";"59496";;"ECLUSE DE";"59360";"REJET-DE-BEAULIEU";"Pylône autostable"; 15.0;"Voies navigables de France"
446996;4.08583;50.29972;"04° 05' 09.00'' Est, 50° 17' 59.00'' Nord";"59324";;"ECLUSE DE MARPENT";"59460";"JEUMONT";"Pylône autostable"; 22.0;"Voies navigables de France"
447060;3.22944;50.18528;"03° 13' 46.00'' Est, 50° 11' 07.00'' Nord";"59428";"ATELIER DE CAMBRAI SELLES";"PARC DE CAMBRAI";"59554";"NEUVILLE-SAINT-REMY";"Bâtiment"; 8.0;"Voies navigables de France"
447066;3.22194;50.17778;"03° 13' 19.00'' Est, 50° 10' 40.00'' Nord";"59122";;"PL MARCELLIN BERTH";"59400";"CAMBRAI";"Pylône autostable"; 22.0;"Voies navigables de France"
447463;3.22167;50.17694;"03° 13' 18.00'' Est, 50° 10' 37.00'' Nord";"59122";"ECLUSE DE CANTIMPRÉ";;"59400";"CAMBRAI";"Ouvrage de signalisation (portique routier, panneau routier, panneau publicitaire)"; 9.0;"Voies navigables de France"
447707;3.25500;50.19528;"03° 15' 18.00'' Est, 50° 11' 43.00'' Nord";"59492";"ECLUSE D'ERRE";;"59161";"RAMILLIES";"Ouvrage de signalisation (portique routier, panneau routier, panneau publicitaire)"; 9.0;"Voies navigables de France"
447719;3.22778;50.18278;"03° 13' 40.00'' Est, 50° 10' 58.00'' Nord";"59122";"ECLUSE DE SELLES";;"59400";"CAMBRAI";"Ouvrage de signalisation (portique routier, panneau routier, panneau publicitaire)"; 9.0;"Voies navigables de France"
447765;3.28806;50.22444;"03° 17' 17.00'' Est, 50° 13' 28.00'' Nord";"59593";"ECLUSE DE THUN L EVEQUE";;"59141";"THUN-L'EVEQUE";"Ouvrage de signalisation (portique routier, panneau routier, panneau publicitaire)"; 9.0;"Voies navigables de France"
447956;3.15306;50.75028;"03° 09' 11.00'' Est, 50° 45' 01.00'' Nord";"59426";;"R DU CONTOUR DE L'EGLISE EGLISE";"59960";"NEUVILLE-EN-FERRAIN";"Monument religieux"; 33.8;"Commune, communauté de commune"
448664;2.41944;50.97056;"02° 25' 10.00'' Est, 50° 58' 14.00'' Nord";"59082";"LE PONT TOURNANT";"29 RTE DE BERGUES  SILO ESSOR AGRICOLE";"59380";"BIERNE";"Silo"; 37.7;"Société Privée SA"
448703;3.30833;50.23694;"03° 18' 30.00'' Est, 50° 14' 13.00'' Nord";"59593";"ECLUSE D'IWUY";;"59141";"THUN-L'EVEQUE";"Ouvrage de signalisation (portique routier, panneau routier, panneau publicitaire)"; 9.0;"Voies navigables de France"
448848;2.36722;51.02528;"02° 22' 02.00'' Est, 51° 01' 31.00'' Nord";"59183";"ECLUSE DU JEU DE MAIL";;"59140";"DUNKERQUE";"Bâtiment"; 12.0;"Voies navigables de France"
449145;2.36611;51.02778;"02° 21' 58.00'' Est, 51° 01' 40.00'' Nord";"59183";"TERRE PLEIN DU JEU DE MAIL";"ATELIERS";"59640";"DUNKERQUE";"Bâtiment"; 7.0;"Voies navigables de France"
449155;2.36611;51.02667;"02° 21' 58.00'' Est, 51° 01' 36.00'' Nord";"59183";"SUBDIVISION DE DUNKERQUE";"TERRE-PLEIN DU JEU DE MAIL BP 1008";"59140";"DUNKERQUE";"Bâtiment"; 12.0;"Voies navigables de France"
449519;2.41361;50.70167;"02° 24' 49.00'' Est, 50° 42' 06.00'' Nord";"59084";;"R CROQUET CH D'EAU";"59173";"BLARINGHEM";"Château d'eau - réservoir"; 31.0;"Syndicat des eaux, Adduction"
449525;3.07889;50.35694;"03° 04' 44.00'' Est, 50° 21' 25.00'' Nord";"59178";;"R DE FERIN STADE DEMENY";"59500";"DOUAI";"Pylône tubulaire"; 31.0;"ORANGE"
450030;2.21028;50.84083;"02° 12' 37.00'' Est, 50° 50' 27.00'' Nord";"59307";"ECLUSE HOLQUE WATTEN";;"59143";"HOLQUE";"Bâtiment"; 17.0;"Voies navigables de France"
450197;3.24944;50.16250;"03° 14' 58.00'' Est, 50° 09' 45.00'' Nord";"59122";;"187 R ST LADRE SUPERMARCHE CHAMPION";"59400";"CAMBRAI";"Pylône tubulaire"; 30.0;"ORANGE"
450855;3.13500;50.41528;"03° 08' 06.00'' Est, 50° 24' 55.00'' Nord";"59486";;"49 R DE L'ÉGLISE EGLISE";"59194";"RACHES";"Monument religieux"; 36.0;"Commune, communauté de commune"
451331;3.95694;50.27667;"03° 57' 25.00'' Est, 50° 16' 36.00'' Nord";"59392";"RÉSERVOIR LIBERTE";"63 R DE LA LIBERTE";"59600";"MAUBEUGE";"Château d'eau - réservoir"; 69.0;"Syndicat des eaux, Adduction"
451412;3.63167;50.29472;"03° 37' 54.00'' Est, 50° 17' 41.00'' Nord";"59626";"DESSUS DU PAVÉ";"CD 129 LA MAISON BLANCHE";"59530";"VILLERS-POL";"Tour hertzienne"; 110.0;"TDF"
451813;2.88333;50.68722;"02° 53' 00.00'' Est, 50° 41' 14.00'' Nord";"59017";;"PL ST VAAST EGLISE";"59280";"ARMENTIERES";"Monument religieux"; 84.0;"Commune, communauté de commune"
452008;3.03639;50.36972;"03° 02' 11.00'' Est, 50° 22' 11.00'' Nord";"59165";;"R DU CHAMP DE TIR ZA DE LA BRAGELLE";"59553";"CUINCY";"Pylône autostable"; 42.0;"SFR"
452238;2.46722;50.88500;"02° 28' 02.00'' Est, 50° 53' 06.00'' Nord";"59663";;"1 TER RUE ODOUL SILO  S.C.A. LA FLANDRE";"59470";"WORMHOUT";"Silo"; 36.0;"Coopérative Agricole, Vinicole"
453458;3.18750;50.41167;"03° 11' 15.00'' Est, 50° 24' 42.00'' Nord";"59239";;"150 ROUTE DE LALLAING USINE NUTRIPACK";"59148";"FLINES-LEZ-RACHES";"Pylône tubulaire"; 26.0;"ORANGE"
453483;3.83778;50.20444;"03° 50' 16.00'' Est, 50° 12' 16.00'' Nord";"59033";;"R DU FOYER CH D'EAU";"59620";"AULNOYE-AYMERIES";"Château d'eau - réservoir"; 61.0;"Commune, communauté de commune"
453495;2.90389;50.69222;"02° 54' 14.00'' Est, 50° 41' 32.00'' Nord";"59317";"LE CAZIER";"R D'ECOSSE(EN BOUT DE RUE)";"59116";"HOUPLINES";"Pylône autostable"; 36.0;"TDF"
453705;2.70778;50.71750;"02° 42' 28.00'' Est, 50° 43' 03.00'' Nord";"59043";;"RTE D'ESTAIRES RD 18  PRÈS DU PONT SNCF NORD 29";"59270";"BAILLEUL";"Pylône autostable"; 45.0;"CELLNEX"
453744;3.49639;50.37472;"03° 29' 47.00'' Est, 50° 22' 29.00'' Nord";"59014";;"ALL DES LILAS BAT 2";"59410";"ANZIN";"Immeuble"; 31.0;"Société Privée SA"
453750;3.46639;50.39139;"03° 27' 59.00'' Est, 50° 23' 29.00'' Nord";"59491";;"R JEAN JAURES STAND DE TIR MICHELIN";"59590";"RAISMES";"Pylône autostable"; 45.0;"TDF"
453765;2.28778;51.01056;"02° 17' 16.00'' Est, 51° 00' 38.00'' Nord";"59271";;"R CHOPIN-STADE DEBUSSY";"59760";"GRANDE-SYNTHE";"Pylône autostable"; 31.6;"TDF"
453836;3.50250;50.35472;"03° 30' 09.00'' Est, 50° 21' 17.00'' Nord";"59606";;"3 PL GAY LUSSAC";"59300";"VALENCIENNES";"Immeuble"; 31.9;"Société Privée SA"
453842;3.43000;50.32250;"03° 25' 48.00'' Est, 50° 19' 21.00'' Nord";"59288";"PAS DE CHEVAL";"RN 30";"59121";"HAULCHIN";"Silo"; 29.0;"Coopérative Agricole, Vinicole"
453905;2.12417;50.99889;"02° 07' 27.00'' Est, 50° 59' 56.00'' Nord";"59273";;"1 BOULEVARD DES SCILTEURS CSE SAPEURS POMPIERS";"59820";"GRAVELINES";"Bâtiment"; 35.0;"SDIS, secours, incendie"
453939;2.39889;51.01917;"02° 23' 56.00'' Est, 51° 01' 09.00'' Nord";"59155";;"2 R REMBRANDT  RES CYCLAMENS";"59210";"COUDEKERQUE-BRANCHE";"Immeuble"; 33.0;"Société HLM"
454447;3.26528;50.16250;"03° 15' 55.00'' Est, 50° 09' 45.00'' Nord";"59122";"CITÉ MARTIN-MARTINE";"R DE VIENNE CHÂTEAU D'EAU DE CAMBRAI";"59400";"CAMBRAI";"Château d'eau - réservoir"; 52.0;"Société Privée SA"
454993;3.99917;50.25389;"03° 59' 57.00'' Est, 50° 15' 14.00'' Nord";"59230";;"R JEAN JAURES STE STEEI";"59680";"FERRIERE-LA-GRANDE";"Pylône autostable"; 32.0;"ORANGE"
454999;3.54694;50.34000;"03° 32' 49.00'' Est, 50° 20' 24.00'' Nord";"59383";;"5 AV DES LILAS";"59770";"MARLY";"Immeuble"; 31.0;"Société Privée SA"
455128;3.30583;50.47306;"03° 18' 21.00'' Est, 50° 28' 23.00'' Nord";"59330";"COUTURE DE LA PIERRE";;"59310";"LANDAS";"Château d'eau - réservoir"; 41.0;"Syndicat des eaux, Adduction"
455406;3.42528;50.38500;"03° 25' 31.00'' Est, 50° 23' 06.00'' Nord";"59632";"LA FOSSE D'ARENBERG";"RUE DE CROY";"59135";"WALLERS";"Bâtiment"; 52.0;"Commune, communauté de commune"
457170;3.61778;50.36722;"03° 37' 04.00'' Est, 50° 22' 02.00'' Nord";"59447";;"PARC ACTIVITES VALLEE ESCAUT";"59264";"ONNAING";"Bâtiment"; 25.0;"Particulier"
458111;2.30556;51.02806;"02° 18' 20.00'' Est, 51° 01' 41.00'' Nord";"59183";;"R DU GAL DE GAULLE ÉGLISE ND DU FORT FORT-MARDYCK";"59140";"DUNKERQUE";"Monument religieux"; 20.0;"Commune, communauté de commune"
458639;3.21306;50.52833;"03° 12' 47.00'' Est, 50° 31' 42.00'' Nord";"59258";"LA CAMPAGNETTE";"R DU CDT BAYART";"59242";"GENECH";"Pylône tubulaire"; 38.5;"TDF"
459252;2.64167;50.64083;"02° 38' 30.00'' Est, 50° 38' 27.00'' Nord";"59400";"C.R DE MERVILLE";"QUAI DES ANGLAIS";"59660";"MERVILLE";"Bâtiment"; 11.0;"Voies navigables de France"
459429;2.28083;50.79750;"02° 16' 51.00'' Est, 50° 47' 51.00'' Nord";"59433";;"4 RTE DE BERGUES";"59143";"NIEURLET";"Pylône autostable"; 38.0;"TDF"
459491;3.54722;50.47194;"03° 32' 50.00'' Est, 50° 28' 19.00'' Nord";"59301";"LE PETIT QUESNOY";"CHEM ARTHUR LAMENDIN";"59199";"HERGNIES";"Pylône autostable"; 37.0;"TDF"
459653;3.16194;50.70500;"03° 09' 43.00'' Est, 50° 42' 18.00'' Nord";"59599";;"455 BD GAMBETTA TOUR MERCURE";"59200";"TOURCOING";"Immeuble"; 69.3;"Société Privée SA"
460188;3.13861;50.29639;"03° 08' 19.00'' Est, 50° 17' 47.00'' Nord";"59117";"MONT VERLET";"CHEM RURAL";"59151";"BUGNICOURT";"Pylône autostable"; 48.0;"TDF"
461527;3.79722;50.30528;"03° 47' 50.00'' Est, 50° 18' 19.00'' Nord";"59315";"LE LONG SAULE";;"59570";"HOUDAIN-LEZ-BAVAY";"Pylône autostable"; 42.0;"HIVORY"
462573;3.20444;50.70444;"03° 12' 16.00'' Est, 50° 42' 16.00'' Nord";"59650";;"29 R ST VINCENT DE PAUL IMM ABC EXPORT";"59150";"WATTRELOS";"Immeuble"; 17.0;"Copropriété, Syndic, SCI"
462725;3.11333;50.64500;"03° 06' 48.00'' Est, 50° 38' 42.00'' Nord";"59410";;"12 R DU LANGUEDOC MAIL LAMARTINE";"59370";"MONS-EN-BAROEUL";"Immeuble"; 50.0;"Société Privée SA"
462772;3.96556;50.28361;"03° 57' 56.00'' Est, 50° 17' 01.00'' Nord";"59392";;"17 R DE FEIGNIES COPRO LE HOME";"59600";"MAUBEUGE";"Immeuble"; 16.0;"Copropriété, Syndic, SCI"
462982;3.17361;50.72722;"03° 10' 25.00'' Est, 50° 43' 38.00'' Nord";"59599";;"106 R DE LA CROIX ROUGE/R DES PIATS RÉS DES PIATS";"59200";"TOURCOING";"Immeuble"; 32.1;"Société HLM"
463158;2.77750;50.70056;"02° 46' 39.00'' Est, 50° 42' 02.00'' Nord";"59581";;"PL DU GAL DE GAULLE EGLISE ST-JEAN BAPTISTE";"59181";"STEENWERCK";"Monument religieux"; 48.0;"Commune, communauté de commune"
464254;3.54167;50.28722;"03° 32' 30.00'' Est, 50° 17' 14.00'' Nord";"59019";;"R DE LA GARE";"59269";"ARTRES";"Château d'eau - réservoir"; 42.0;"Syndicat des eaux, Adduction"
464473;2.65306;50.64500;"02° 39' 11.00'' Est, 50° 38' 42.00'' Nord";"59400";;"R DE BARRA CH D'EAU";"59660";"MERVILLE";"Château d'eau - réservoir"; 49.0;"Syndicat des eaux, Adduction"
464491;3.55694;50.36583;"03° 33' 25.00'' Est, 50° 21' 57.00'' Nord";"59544";;"24 ALL DES FRERES LUMIERES RES LA PEPINIERE";"59880";"SAINT-SAULVE";"Immeuble"; 29.0;"Société Privée SA"
464571;3.05333;50.34861;"03° 03' 12.00'' Est, 50° 20' 55.00'' Nord";"59329";"C R COURCHELETTES";"R DE BERBIÈRES";"59552";"LAMBRES-LEZ-DOUAI";"Bâtiment"; 6.0;"Voies navigables de France"
464633;3.39417;50.37500;"03° 23' 39.00'' Est, 50° 22' 30.00'' Nord";"59632";;"R JEAN JAURÈS TERRAIN DE SPORT";"59135";"WALLERS";"Pylône tubulaire"; 35.0;"TDF"
464800;3.74722;50.07083;"03° 44' 50.00'' Est, 50° 04' 15.00'' Nord";"59474";;"1231 R DE LA COMTÉ";"59550";"PRISCHES";"Château d'eau - réservoir"; 52.2;"Syndicat des eaux, Adduction"
465246;3.94222;50.25972;"03° 56' 32.00'' Est, 50° 15' 35.00'' Nord";"59365";;"R JULES GALOIS";"59720";"LOUVROIL";"Château d'eau - réservoir"; 52.0;"Commune, communauté de commune"
465278;3.07528;50.61250;"03° 04' 31.00'' Est, 50° 36' 45.00'' Nord";"59350";;"79 R DU FAUBOURG DE DOUAI";"59800";"LILLE";"Immeuble"; 16.5;"Société HLM"
465326;2.96667;50.56361;"02° 58' 00.00'' Est, 50° 33' 49.00'' Nord";"59266";;"CHEM RURAL N°25 DIT DU BOIS LONG";"59147";"GONDECOURT";"Pylône autostable"; 44.0;"TDF"
465479;2.37306;51.02917;"02° 22' 23.00'' Est, 51° 01' 45.00'' Nord";"59183";;"43-45 R DE PARIS IMM ROBELET PARTENORD";"59140";"DUNKERQUE";"Immeuble"; 55.0;"Société HLM"
465485;3.34833;50.31500;"03° 20' 54.00'' Est, 50° 18' 54.00'' Nord";"59361";;"R BLANQUI";"59156";"LOURCHES";"Pylône autostable"; 35.0;"ATC FRANCE"
465489;3.08861;50.58306;"03° 05' 19.00'' Est, 50° 34' 59.00'' Nord";"59220";;"AV DU GANERAL LECLERC GIRATOIRE RD 917/952";"59155";"FACHES-THUMESNIL";"Pylône tubulaire"; 30.0;"ORANGE"
465501;3.16417;50.25917;"03° 09' 51.00'' Est, 50° 15' 33.00'' Nord";"59026";"C R AUBIGNY";"R LEO LAGRANGE";"59265";"AUBIGNY-AU-BAC";"Bâtiment"; 12.0;"Voies navigables de France"
465758;3.10139;50.39583;"03° 06' 05.00'' Est, 50° 23' 45.00'' Nord";"59178";;"132 R BRANLY ZAC DE DOUAI DORIGNIES";"59500";"DOUAI";"Pylône autostable"; 51.0;"BOUYGUES"
465794;3.08333;50.60972;"03° 05' 00.00'' Est, 50° 36' 35.00'' Nord";"59507";;"23/27 R DU COMMERCE";"59790";"RONCHIN";"Immeuble"; 23.0;"Société HLM"
465913;2.93083;50.71278;"02° 55' 51.00'' Est, 50° 42' 46.00'' Nord";"59252";;"20 RUE DU PONT";"59236";"FRELINGHIEN";"Pylône autostable"; 34.5;"CELLNEX"
467902;3.45194;50.39583;"03° 27' 07.00'' Est, 50° 23' 45.00'' Nord";"59027";;"R DU BOIS";"59494";"AUBRY-DU-HAINAUT";"Pylône tubulaire"; 26.0;"HIVORY"
469697;2.38833;51.03778;"02° 23' 18.00'' Est, 51° 02' 16.00'' Nord";"59183";"TOUR EMERY";"1B  R JACOBSEN RES ROOSEVELT";"59140";"DUNKERQUE";"Immeuble"; 65.0;"Copropriété, Syndic, SCI"
470428;4.11556;50.12528;"04° 06' 56.00'' Est, 50° 07' 31.00'' Nord";"59661";"LES BARAQUES";"CAMPING DU VAL JOLY";"59740";"WILLIES";"Pylône autostable"; 33.0;"HIVORY"
470632;3.93306;50.10500;"03° 55' 59.00'' Est, 50° 06' 18.00'' Nord";"59035";;"43 RTE D'ETROEUNGT ETS ROLAND";"59440";"AVESNELLES";"Pylône autostable"; 27.0;"ORANGE"
473604;2.24111;51.02778;"02° 14' 28.00'' Est, 51° 01' 40.00'' Nord";"59183";;"ROUTE DES DUNES UNITE ENSACHAGE MARDYCK";"59140";"DUNKERQUE";"Bâtiment"; 9.0;"Société Privée SA"
473630;3.42917;50.08472;"03° 25' 45.00'' Est, 50° 05' 05.00'' Nord";"59074";"FERVAQUE";"R GUSTAVE DELORY STADE DE FOOT";"59980";"BERTRY";"Pylône tubulaire"; 30.0;"ATC FRANCE"
473736;3.19278;50.37222;"03° 11' 34.00'' Est, 50° 22' 20.00'' Nord";"59456";;"AV DE BARROIS";"59146";"PECQUENCOURT";"Pylône tubulaire"; 33.0;"TDF"
473742;3.17333;50.67917;"03° 10' 24.00'' Est, 50° 40' 45.00'' Nord";"59512";;"11 BD LACORDAIRE HÔPITAL VICTOR PROVO";"59100";"ROUBAIX";"Immeuble"; 52.0;"Etablissement de soins"
474171;3.02694;50.51000;"03° 01' 37.00'' Est, 50° 30' 36.00'' Nord";"59462";"ALLÉE DE LA BEUVRIERE";;"59133";"PHALEMPIN";"Pylône autostable"; 37.0;"ORANGE"
474643;3.21722;50.68556;"03° 13' 02.00'' Est, 50° 41' 08.00'' Nord";"59339";;"R MIRABEAU USINE DE LEERS SOCIÉTÉ NOUVELLE DES BRIQUETTERIES DU NORD";"59115";"LEERS";"Pylône autostable"; 30.0;"HIVORY"
474671;2.20944;50.83750;"02° 12' 34.00'' Est, 50° 50' 15.00'' Nord";"59307";;"R DE L'AA SILO AGRICOLE  LA FLANDRE";"59143";"HOLQUE";"Pylône autostable"; 40.0;"HIVORY"
474681;3.04472;50.66111;"03° 02' 41.00'' Est, 50° 39' 40.00'' Nord";"59527";;"30/34 R PIERRE CURIE";"59350";"SAINT-ANDRE-LEZ-LILLE";"Immeuble"; 26.0;"Société HLM"
474738;3.18389;50.67667;"03° 11' 02.00'' Est, 50° 40' 36.00'' Nord";"59512";;"64 R CARPEAUX";"59100";"ROUBAIX";"Immeuble"; 29.0;"Société HLM"
474752;3.10083;50.34306;"03° 06' 03.00'' Est, 50° 20' 35.00'' Nord";"59569";;"11 PL JACQUES DUCLOS LES EPIS RES ALEXIA II";"59450";"SIN-LE-NOBLE";"Immeuble"; 44.0;"Copropriété, Syndic, SCI"
474780;2.74500;50.64083;"02° 44' 42.00'' Est, 50° 38' 27.00'' Nord";"59268";;"50 RUE DE LA LYS CHATEAU D'EAU";"59253";"LA GORGUE";"Château d'eau - réservoir"; 56.0;"Syndicat des eaux, Adduction"
474786;3.48694;50.37667;"03° 29' 13.00'' Est, 50° 22' 36.00'' Nord";"59459";"RUE LELEU";"CHEM DE LA BONNE ESPÉRANCE";"59494";"PETITE-FORET";"Pylône autostable"; 45.0;"HIVORY"
474796;3.06250;50.64917;"03° 03' 45.00'' Est, 50° 38' 57.00'' Nord";"59350";;"22,R PAUL RAMADIER RÉSIDENCE WINSTON CHURCHILL";"59800";"LILLE";"Immeuble"; 38.5;"Société HLM"
475685;3.26667;50.59917;"03° 15' 60.00'' Est, 50° 35' 57.00'' Nord";"59124";"LE LUCREUIL";"R DE LA PLAINE";"59780";"CAMPHIN-EN-PEVELE";"Pylône autostable"; 45.0;"HIVORY"
475698;2.57917;50.97694;"02° 34' 45.00'' Est, 50° 58' 37.00'' Nord";"59309";;"R DE BERGUES COMPLEXE SPORTIF";"59122";"HONDSCHOOTE";"Pylône tubulaire"; 31.0;"HIVORY"
475709;3.51750;50.31639;"03° 31' 03.00'' Est, 50° 18' 59.00'' Nord";"59221";;"126TER R ROGER SALENGRO";"59300";"FAMARS";"Château d'eau - réservoir"; 40.0;"Syndicat des eaux, Adduction"
476482;2.26583;50.91472;"02° 15' 57.00'' Est, 50° 54' 53.00'' Nord";"59358";;"RTE DE WATTEN SILO SCA LA FLANDRE";"59630";"LOOBERGHE";"Silo"; 30.0;"Société Privée SA"
476504;3.54389;50.37389;"03° 32' 38.00'' Est, 50° 22' 26.00'' Nord";"59606";;"R DE LA BLEUE DU NORD CENTRE TECHNIQUE MUNICIPAL";"59300";"VALENCIENNES";"Pylône autostable"; 35.0;"SFR"
476564;2.40111;51.04556;"02° 24' 04.00'' Est, 51° 02' 44.00'' Nord";"59183";;"125 R PASTEUR MALO LES BAINS";"59140";"DUNKERQUE";"Château d'eau - réservoir"; 40.0;"Syndicat des eaux, Adduction"
476578;3.00833;50.70917;"03° 00' 30.00'' Est, 50° 42' 33.00'' Nord";"59482";;"120, R DU MARÉCHAL FOCH SITE AGRICOLE LES HAUTS DE FRANCE";"59890";"QUESNOY-SUR-DEULE";"Silo"; 40.0;"Coopérative Agricole, Vinicole"
476592;2.37472;51.01611;"02° 22' 29.00'' Est, 51° 00' 58.00'' Nord";"59155";;"R DU TONKIN GARE";"59210";"COUDEKERQUE-BRANCHE";"Pylône autostable"; 36.0;"HIVORY"
476606;3.20639;50.66861;"03° 12' 23.00'' Est, 50° 40' 07.00'' Nord";"59367";;"1 T R JULES GUESDE";"59390";"LYS-LEZ-LANNOY";"Bâtiment"; 27.0;"Société Privée SA"
476616;2.97778;50.66694;"02° 58' 40.00'' Est, 50° 40' 01.00'' Nord";"59457";;"R DE LA GARE TERRAIN SNCF";"59840";"PERENCHIES";"Pylône tubulaire"; 40.0;"HIVORY"
476632;2.73333;50.74000;"02° 44' 00.00'' Est, 50° 44' 24.00'' Nord";"59043";;"PL ST VAAST EGLISE ST VAAST";"59270";"BAILLEUL";"Monument religieux"; 52.0;"Commune, communauté de commune"
476648;2.53611;50.93722;"02° 32' 10.00'' Est, 50° 56' 14.00'' Nord";"59499";;"R DE WEST-CAPPEL CHEMINÉE";"59122";"REXPOEDE";"Bâtiment"; 30.0;"Particulier"
477027;3.10222;50.41056;"03° 06' 08.00'' Est, 50° 24' 38.00'' Nord";"59509";;"AV LAMENDIN";"59286";"ROOST-WARENDIN";"Mât métallique"; 40.0;"Towercast"
477151;3.50278;50.35500;"03° 30' 10.00'' Est, 50° 21' 18.00'' Nord";"59606";;"2 PL GAY LUSSAC";"59300";"VALENCIENNES";"Immeuble"; 48.0;"Société HLM"
477308;3.61944;50.47694;"03° 37' 10.00'' Est, 50° 28' 37.00'' Nord";"59153";;"97 ROUTE DE BERNISSART";"59163";"CONDE-SUR-L'ESCAUT";"Pylône autostable"; 46.0;"Particulier"
477436;3.27722;50.35444;"03° 16' 38.00'' Est, 50° 21' 16.00'' Nord";"59574";;"PLACE DU GÉNÉRAL DE GAULLE CHATEAU D'EAU CITÉ DE LA SUCRERIE";"59490";"SOMAIN";"Château d'eau - réservoir"; 36.0;"SNCF Réseau"
477574;3.97167;50.11389;"03° 58' 18.00'' Est, 50° 06' 50.00'' Nord";"59035";"LES BOSQUETS MEURANT";;"59440";"AVESNELLES";"Pylône autostable"; 42.0;"TDF"
477601;3.99000;50.27194;"03° 59' 24.00'' Est, 50° 16' 19.00'' Nord";"59514";"CAMP DE LA FALISE";;"59131";"ROUSIES";"Pylône haubané"; 79.0;"TDF"
477720;3.10944;50.40389;"03° 06' 34.00'' Est, 50° 24' 14.00'' Nord";"59509";"CITÉ DE BELLEFORRIÈRES";"2 AV LAMENDIN";"59286";"ROOST-WARENDIN";"Bâtiment"; 90.0;"Société Privée SA"
477778;4.04750;50.02472;"04° 02' 51.00'' Est, 50° 01' 29.00'' Nord";"59249";;"6 R DE LA HOUPPE DU BOIS";"59610";"FOURMIES";"Château d'eau - réservoir"; 47.0;"Syndicat des eaux, Adduction"
477796;3.92194;50.26750;"03° 55' 19.00'' Est, 50° 16' 03.00'' Nord";"59392";;"R DE GRÉVAUX CHÂTEAU D'EAU";"59600";"MAUBEUGE";"Château d'eau - réservoir"; 56.0;"Syndicat des eaux, Adduction"
478474;3.15417;50.67056;"03° 09' 15.00'' Est, 50° 40' 14.00'' Nord";"59512";;"9001 AV. DE JUSSIEU TOUR DU FER À CHEVAL";"59100";"ROUBAIX";"Immeuble"; 61.0;"Société HLM"
478582;3.15806;50.72417;"03° 09' 29.00'' Est, 50° 43' 27.00'' Nord";"59599";;"15 R DE LA BIENFAISANCE LA CAISSE D'ÉPARGNE ET DE PRÉVOYANCE DE FLANDRES";"59200";"TOURCOING";"Immeuble"; 44.0;"Copropriété, Syndic, SCI"
479250;3.16361;50.73750;"03° 09' 49.00'' Est, 50° 44' 15.00'' Nord";"59599";;"169 CHAUSSÉE GRAMME";"59200";"TOURCOING";"Bâtiment"; 34.0;"Société Privée SA"
480809;2.57056;50.88167;"02° 34' 14.00'' Est, 50° 52' 54.00'' Nord";"59318";"MOULIN DU CHEM VERT";"R VERTE PROCHE RD17";"59470";"HOUTKERQUE";"Pylône autostable"; 35.0;"ATC FRANCE"
480815;3.49250;50.36778;"03° 29' 33.00'' Est, 50° 22' 04.00'' Nord";"59014";;"AV LÉO LAGRANGE PRÈS DU STADE";"59410";"ANZIN";"Pylône autostable"; 70.0;"TDF"
481296;4.15028;50.24000;"04° 09' 01.00'' Est, 50° 14' 24.00'' Nord";"59157";"LE BRAY";"CHEM DE L'ALGRAIN PYLÔNE TDF";"59149";"COUSOLRE";"Pylône autostable"; 28.4;"TDF"
481832;3.45194;50.49972;"03° 27' 07.00'' Est, 50° 29' 59.00'' Nord";"59418";;"R DU FORT EGLISE ST-NICOLAS";"59158";"MORTAGNE-DU-NORD";"Monument religieux"; 44.0;"Commune, communauté de commune"
481968;3.45694;50.24750;"03° 27' 25.00'' Est, 50° 14' 51.00'' Nord";"59558";"LES BARAQUES";"V COM. N°301 DE VERCHAIN-MAUGRÉ";"59227";"SAULZOIR";"Pylône autostable"; 33.0;"HIVORY"
482072;3.26556;50.29167;"03° 15' 56.00'' Est, 50° 17' 30.00'' Nord";"59387";;"R ROGER SALENGRO STADE MUNICIPAL NICOLAS MIENS";"59252";"MARQUETTE-EN-OSTREVANT";"Pylône tubulaire"; 20.0;"Commune, communauté de commune"
482881;2.29472;50.99917;"02° 17' 41.00'' Est, 50° 59' 57.00'' Nord";"59271";"ZAC DES REPDYCK";"A.16/D.131 - RTE LE SPYCKER PROCHE VOIES SNCF";"59760";"GRANDE-SYNTHE";"Pylône tubulaire"; 42.5;"HIVORY"
482953;3.49000;50.33139;"03° 29' 24.00'' Est, 50° 19' 53.00'' Nord";"59603";;"R AMBROISE CROIZAT ENCLAVE SNCF";"59125";"TRITH-SAINT-LEGER";"Pylône autostable"; 35.0;"ORANGE"
484554;4.06306;50.25500;"04° 03' 47.00'' Est, 50° 15' 18.00'' Nord";"59151";"LA FOSSE DU JARDIN";"4 RN - D.936 ETS RYEZ";"59680";"COLLERET";"Pylône tubulaire"; 23.0;"ORANGE"
485355;3.14417;50.66667;"03° 08' 39.00'' Est, 50° 39' 60.00'' Nord";"59009";;"202 R JEAN JAURÈS";"59491";"VILLENEUVE-D'ASCQ";"Bâtiment"; 39.0;"Copropriété, Syndic, SCI"
486194;3.52111;50.33444;"03° 31' 16.00'' Est, 50° 20' 04.00'' Nord";"59032";;"4 AVENUE MATISSE";"59300";"AULNOY-LEZ-VALENCIENNES";"Immeuble"; 30.3;"Société HLM"
486617;3.18833;50.42806;"03° 11' 18.00'' Est, 50° 25' 41.00'' Nord";"59239";"LES HUDREZ";"AV LEO LAGRANGE-STADE COMMUNAL STADE MUNICIPAL";"59148";"FLINES-LEZ-RACHES";"Pylône tubulaire"; 27.0;"ORANGE"
486621;2.70583;50.63639;"02° 42' 21.00'' Est, 50° 38' 11.00'' Nord";"59268";;"R DU 8 MAI 1945 MAIRIE";"59253";"LA GORGUE";"Bâtiment"; 27.0;"Commune, communauté de commune"
489835;4.10556;50.25944;"04° 06' 20.00'' Est, 50° 15' 34.00'' Nord";"59151";;"RTE DE SOLRE LE CHATEAU CD 963";"59680";"COLLERET";"Pylône autostable"; 38.0;"HIVORY"
490134;3.14556;50.71111;"03° 08' 44.00'' Est, 50° 42' 40.00'' Nord";"59421";;"R DE L'EPINETTE ZAC DES PEUPLIERS";"59420";"MOUVAUX";"Pylône tubulaire"; 23.0;"ORANGE"
491017;2.98306;50.62306;"02° 58' 59.00'' Est, 50° 37' 23.00'' Nord";"59566";;"R DU PONT PYL SNCF";"59320";"SEQUEDIN";"Pylône autostable"; 31.0;"SNCF Réseau"
492253;2.21472;50.98306;"02° 12' 53.00'' Est, 50° 58' 59.00'' Nord";"59359";"CANTON DU CAILLOUTIS";"R FRANÇOIS MITTERRAND TERRAIN NU";"59279";"LOON-PLAGE";"Pylône tubulaire"; 25.0;"CCI,Ch Metiers,Port Aut,Aérop"
493044;3.24139;50.36667;"03° 14' 29.00'' Est, 50° 22' 00.00'' Nord";"59113";"LAUTREMONT";"R DE LANOY";"59490";"BRUILLE-LEZ-MARCHIENNES";"Château d'eau - réservoir"; 31.0;"Syndicat des eaux, Adduction"
493306;2.13500;50.98333;"02° 08' 06.00'' Est, 50° 59' 00.00'' Nord";"59273";;"IMP DU CHATEAU D'EAU";"59820";"GRAVELINES";"Château d'eau - réservoir"; 73.0;"Syndicat des eaux, Adduction"
493492;3.64861;50.24722;"03° 38' 55.00'' Est, 50° 14' 50.00'' Nord";"59481";;"CHEM DES CROIX SILO COOPERATIVE A1";"59530";"LE QUESNOY";"Pylône autostable"; 45.0;"HIVORY"
493499;3.33639;50.06417;"03° 20' 11.00'' Est, 50° 03' 51.00'' Nord";"59631";;"R DU 8 MAI 1945 STADE MUNICIPAL";"59127";"WALINCOURT-SELVIGNY";"Pylône autostable"; 35.0;"ATC FRANCE"
494048;4.02250;50.16694;"04° 01' 21.00'' Est, 50° 10' 01.00'' Nord";"59555";;"41 R JEAN IMBERT";"59216";"SARS-POTERIES";"Pylône autostable"; 36.0;"ORANGE"
494075;2.46250;51.04944;"02° 27' 45.00'' Est, 51° 02' 58.00'' Nord";"59340";"USINE DES DUNES";"PRÉS DU CANAL DE DUNKERQUE À FURNES";"59495";"LEFFRINCKOUCKE";"Château d'eau - réservoir"; 41.7;"Société Privée SA"
494147;2.40639;50.89528;"02° 24' 23.00'' Est, 50° 53' 43.00'' Nord";"59210";"CROCHTE HOUCK";"8 R DU CHEMIN DE FER FERME DE CROCHTE HOUCK";"59470";"ESQUELBECQ";"Pylône tubulaire"; 32.0;"HIVORY"
494189;3.45917;50.03583;"03° 27' 33.00'' Est, 50° 02' 09.00'' Nord";"59118";"A LA RUELLE BRUNEHAUT";"R DE LA GARE STADE LOUIS COLPIN";"59137";"BUSIGNY";"Pylône tubulaire"; 32.0;"ORANGE"
494203;2.54111;50.72667;"02° 32' 28.00'' Est, 50° 43' 36.00'' Nord";"59295";;"101 BD DE L'ABBÉ LEMIRE";"59190";"HAZEBROUCK";"Bâtiment"; 33.0;"ORANGE Services Fixes"
494741;2.89417;50.51639;"02° 53' 39.00'' Est, 50° 30' 59.00'' Nord";"59052";;"R JEAN JAURES EGLISE";"59221";"BAUVIN";"Monument religieux"; 27.0;"Commune, communauté de commune"
495326;2.15639;50.99944;"02° 09' 23.00'' Est, 50° 59' 58.00'' Nord";"59273";;"RTE DU COLOMBIER ZIP DES HUTTES PYLÔNE ARTERIA NE 119 N°2";"59820";"GRAVELINES";"Pylône autostable"; 78.0;"RTE"
496152;3.32722;50.26278;"03° 19' 38.00'' Est, 50° 15' 46.00'' Nord";"59313";;"R LUCIEN SAMPAIX ST AMAND";"59111";"HORDAIN";"Pylône tubulaire"; 28.0;"ATC FRANCE"
496153;3.14944;50.56028;"03° 08' 58.00'' Est, 50° 33' 37.00'' Nord";"59256";;"5 TER, R GEORGES CLÉMENCEAU";"59273";"FRETIN";"Pylône tubulaire"; 30.0;"ATC FRANCE"
496182;3.28389;50.37694;"03° 17' 02.00'' Est, 50° 22' 37.00'' Nord";"59574";"LES ROUISSOIRS";"R ROGER SALENGRO CHÂTEAU D'EAU RD 957";"59490";"SOMAIN";"Château d'eau - réservoir"; 53.0;"Commune, communauté de commune"
496502;3.20972;50.11889;"03° 12' 35.00'' Est, 50° 07' 08.00'' Nord";"59389";;"71 R NATIONALE";"59241";"MASNIERES";"Pylône autostable"; 40.0;"TDF"
496683;4.10028;50.29806;"04° 06' 01.00'' Est, 50° 17' 53.00'' Nord";"59324";"RÉSIDENCE JOFFRE";"QUAI DE LA SAMBRE PRES DE LA PISCINE ET PATINOIRE";"59460";"JEUMONT";"Immeuble"; 39.2;"Société HLM"
497280;2.32417;51.01833;"02° 19' 27.00'' Est, 51° 01' 06.00'' Nord";"59183";;"3555 AV PETITE SYNTHE EGLISE ST NICOLAS";"59140";"DUNKERQUE";"Monument religieux"; 38.0;"Commune, communauté de commune"
497400;3.39639;50.19306;"03° 23' 47.00'' Est, 50° 11' 35.00'' Nord";"59037";"TRANSVAAL";"COMPLEXE SPORTIF DANJOU STADE";"59129";"AVESNES-LES-AUBERT";"Pylône autostable"; 38.0;"ATC FRANCE"
498439;3.93778;50.13111;"03° 56' 16.00'' Est, 50° 07' 52.00'' Nord";"59036";;"65 AV STROH MAGASIN MUSIC CENTER";"59440";"AVESNES-SUR-HELPE";"Pylône tubulaire"; 18.0;"ORANGE"
498649;4.10778;50.04278;"04° 06' 28.00'' Est, 50° 02' 34.00'' Nord";"59445";"BURETTE";"R DU GROS TILLEUL TOUR TDF";"59132";"OHAIN";"Tour hertzienne"; 98.0;"TDF"
500044;3.20083;50.64972;"03° 12' 03.00'' Est, 50° 38' 59.00'' Nord";"59299";;"AV ANTOINE PINAY ZA LES 4 VENTS";"59510";"HEM";"Bâtiment"; 4.0;"BOUYGUES"
500539;3.45306;50.36278;"03° 27' 11.00'' Est, 50° 21' 46.00'' Nord";"59302";;"R VICTOR HUGO PROCHE CIMETIÈRE";"59195";"HERIN";"Pylône autostable"; 33.5;"TDF"
500543;3.53861;50.35889;"03° 32' 19.00'' Est, 50° 21' 32.00'' Nord";"59606";;"1 R CORNEILLE THEUNISSEN RES PIERRARD";"59300";"VALENCIENNES";"Bâtiment"; 41.0;"Société HLM"
500547;2.48250;51.06750;"02° 28' 57.00'' Est, 51° 04' 03.00'' Nord";"59668";;"BD VANCAUWENBERGHE CHEMÉE DE L'HÔPITAL MARITIME";"59123";"ZUYDCOOTE";"Bâtiment"; 37.0;"Etablissement de soins"
501209;3.26639;50.18972;"03° 15' 59.00'' Est, 50° 11' 23.00'' Nord";"59206";;"R DE L'EPINETTE STADE MUNICIPAL";"59161";"ESCAUDOEUVRES";"Pylône tubulaire"; 36.2;"ATC FRANCE"
501261;3.90250;50.25583;"03° 54' 09.00'' Est, 50° 15' 21.00'' Nord";"59291";;"ALL D'HALVER IMM SEQUOIA";"59330";"HAUTMONT";"Immeuble"; 28.3;"Société HLM"
501376;3.98111;50.28556;"03° 58' 52.00'' Est, 50° 17' 08.00'' Nord";"59392";;"79 81 R D'ELESMES";"59600";"MAUBEUGE";"Bâtiment"; 28.7;"Société Privée SA"
501390;3.51167;50.40500;"03° 30' 42.00'' Est, 50° 24' 18.00'' Nord";"59491";"QUARTIER SABATIER";"AV DU PINSON/RUE ARAGON STADE FRANÇOIS TISON";"59590";"RAISMES";"Pylône autostable"; 38.0;"HIVORY"
501428;3.03306;50.57111;"03° 01' 59.00'' Est, 50° 34' 16.00'' Nord";"59437";;"110 R RENÉ CAUCHE ZI DE SECLIN";"59139";"NOYELLES-LES-SECLIN";"Pylône autostable"; 43.0;"ORANGE"
501429;3.51278;50.36889;"03° 30' 46.00'' Est, 50° 22' 08.00'' Nord";"59606";;"9/11 R GERARD DE PERFONTAINE";"59300";"VALENCIENNES";"Immeuble"; 46.0;"Société HLM"
501467;2.98917;50.66500;"02° 59' 21.00'' Est, 50° 39' 54.00'' Nord";"59356";;"R DU GRAND LOGIS ATELIERS MUNICIPAUX";"59840";"LOMPRET";"Pylône tubulaire"; 30.0;"ORANGE"
502226;2.44361;50.97444;"02° 26' 37.00'' Est, 50° 58' 28.00'' Nord";"59319";;"2 R DES MOULINS SILO FLANDRES MARITIMES";"59492";"HOYMILLE";"Silo"; 22.0;"Coopérative Agricole, Vinicole"
502906;3.55056;50.09917;"03° 33' 02.00'' Est, 50° 05' 57.00'' Nord";"59136";;"R DE FESMY PROCHE DU CH D'EAU";"59360";"LE CATEAU-CAMBRESIS";"pylône arbre"; 35.0;"ATC FRANCE"
502934;2.34444;51.00528;"02° 20' 40.00'' Est, 51° 00' 19.00'' Nord";"59183";;"816 AV DE LA GIRONDE";"59140";"DUNKERQUE";"Pylône autostable"; 36.0;"TDF"
504172;3.56639;50.42528;"03° 33' 59.00'' Est, 50° 25' 31.00'' Nord";"59253";"FRICHES CROMBEZ";"R JEAN JAURES";"59970";"FRESNES-SUR-ESCAUT";"Pylône autostable"; 27.0;"ORANGE"
505218;3.06278;50.37167;"03° 03' 46.00'' Est, 50° 22' 18.00'' Nord";"59178";;"305 R GUYNEMER R LOUIS BLERIOT";"59500";"DOUAI";"Château d'eau - réservoir"; 60.0;"Commune, communauté de commune"
506081;3.25306;50.33472;"03° 15' 11.00'' Est, 50° 20' 05.00'' Nord";"59008";;"48 RUE DU GÉNÉRAL DELESTRAINT";"59580";"ANICHE";"Château d'eau - réservoir"; 35.0;"Syndicat des eaux, Adduction"
508174;3.36333;50.31667;"03° 21' 48.00'' Est, 50° 19' 00.00'' Nord";"59361";;"16, R GAMBETTA CHATEAU D'EAU";"59156";"LOURCHES";"Château d'eau - réservoir"; 51.0;"Syndicat des eaux, Adduction"
508229;2.28250;50.85444;"02° 16' 57.00'' Est, 50° 51' 16.00'' Nord";"59397";"SCHRANS VELD";"RTE DE WATTEN  D226 CHATEAU D'EAU SIDEN";"59470";"MERCKEGHEM";"Château d'eau - réservoir"; 49.0;"Commune, communauté de commune"
508426;3.45639;50.44833;"03° 27' 23.00'' Est, 50° 26' 54.00'' Nord";"59526";"LA CROISETTE";"587 RTE DE THERMAL";"59230";"SAINT-AMAND-LES-EAUX";"Pylône autostable"; 30.0;"HIVORY"
508917;2.36944;50.81167;"02° 22' 10.00'' Est, 50° 48' 42.00'' Nord";"59436";;"CHEM DU MOULIN";"59670";"NOORDPEENE";"Château d'eau - réservoir"; 22.0;"Syndicat des eaux, Adduction"
508933;3.58806;50.33444;"03° 35' 17.00'' Est, 50° 20' 04.00'' Nord";"59557";;"9002 AV HENRI BARBUSSE";"59990";"SAULTAIN";"Château d'eau - réservoir"; 39.4;"Syndicat des eaux, Adduction"
509064;4.00889;50.32667;"04° 00' 32.00'' Est, 50° 19' 36.00'' Nord";"59627";"LES MOULINOTS";"CHEM LES MOULINOTS";"59600";"VILLERS-SIRE-NICOLE";"Château d'eau - réservoir"; 48.0;"Syndicat des eaux, Adduction"
509490;3.16194;50.12778;"03° 09' 43.00'' Est, 50° 07' 40.00'' Nord";"59377";;"9005 R DE PREMY";"59159";"MARCOING";"Château d'eau - réservoir"; 30.0;"Commune, communauté de commune"
509510;3.10556;50.38944;"03° 06' 20.00'' Est, 50° 23' 22.00'' Nord";"59654";"CTRE DE SECOURS DES POMPIERS";"R MAURICE FACON";"59119";"WAZIERS";"Tour hertzienne"; 39.0;"SDIS, secours, incendie"
509674;3.40694;50.11500;"03° 24' 25.00'' Est, 50° 06' 54.00'' Nord";"59139";;"42 R GUSTAVE DELORY";"59540";"CAUDRY";"Pylône autostable"; 42.0;"ORANGE Services Fixes"
510249;3.58694;50.45361;"03° 35' 13.00'' Est, 50° 27' 13.00'' Nord";"59153";;"R DU CHAMPS DE MARS/DES PEUPLIERS CHÂTEAU D'EAU DE LA STÉ. EAU ET FORCE";"59163";"CONDE-SUR-L'ESCAUT";"Château d'eau - réservoir"; 56.0;"Syndicat des eaux, Adduction"
510316;2.67111;50.78278;"02° 40' 16.00'' Est, 50° 46' 58.00'' Nord";"59073";"MT DES CATS";"4, CHEM DU MOULIN A HUILE";"59270";"BERTHEN";"Pylône haubané"; 200.4;"TDF"
510360;3.08111;50.53750;"03° 04' 52.00'' Est, 50° 32' 15.00'' Nord";"59034";;"R DE LILLE-EGLISE";"59710";"AVELIN";"Monument religieux"; 42.2;"Commune, communauté de commune"
510614;3.13944;50.34778;"03° 08' 22.00'' Est, 50° 20' 52.00'' Nord";"59276";;"240 BD PASTEUR";"59287";"GUESNAIN";"Pylône autostable"; 31.0;"ORANGE"
512625;3.10333;50.41167;"03° 06' 12.00'' Est, 50° 24' 42.00'' Nord";"59509";;"R DES GALERIES FOSSE N°9 DE L'ESCARPELLE";"59286";"ROOST-WARENDIN";"Monument historique"; 62.0;"Commune, communauté de commune"
512675;2.87472;50.68306;"02° 52' 29.00'' Est, 50° 40' 59.00'' Nord";"59017";;"27 R DE LA PAIX USINE TRP CHARVET";"59280";"ARMENTIERES";"Bâtiment"; 33.5;"Société Privée SA"
513557;3.13639;50.48028;"03° 08' 11.00'' Est, 50° 28' 49.00'' Nord";"59071";;"354 R NESTOR LONGUE EPÉE CENTRAL TÉLÉPHONIQUE";"59235";"BERSEE";"Pylône autostable"; 28.0;"ORANGE Services Fixes"
513640;3.93278;50.27417;"03° 55' 58.00'' Est, 50° 16' 27.00'' Nord";"59392";;"8 R DES BRIQUETTERIES R MONTPLAISIR";"59600";"MAUBEUGE";"Pylône autostable"; 38.5;"ATC FRANCE"
513754;3.40639;50.12361;"03° 24' 23.00'' Est, 50° 07' 25.00'' Nord";"59139";;"R JULES GUESDES CH D'EAU";"59540";"CAUDRY";"Château d'eau - réservoir"; 44.0;"Commune, communauté de commune"
513830;3.50722;50.38611;"03° 30' 26.00'' Est, 50° 23' 10.00'' Nord";"59079";;"1 RUE DE LA LIBERTÉ";"59192";"BEUVRAGES";"Immeuble"; 33.3;"Société HLM"
514410;3.95722;50.18000;"03° 57' 26.00'' Est, 50° 10' 48.00'' Nord";"59181";"CHAPELLE ST ANTOINE";"V COM. DE LA JUSTICE";"59440";"DOURLERS";"Pylône autostable"; 11.9;"BOUYGUES"
514793;2.30778;51.01556;"02° 18' 28.00'' Est, 51° 00' 56.00'' Nord";"59271";;"12/17/21 R SALVADOR ALLENDE";"59760";"GRANDE-SYNTHE";"Immeuble"; 36.0;"Société Privée SA"
515305;2.98972;50.64500;"02° 59' 23.00'' Est, 50° 38' 42.00'' Nord";"59350";;"9 R FERNAND GUILBERT CHÂTEAU D EAU";"59800";"LILLE";"Château d'eau - réservoir"; 31.0;"Syndicat des eaux, Adduction"
515761;2.98944;50.61250;"02° 59' 22.00'' Est, 50° 36' 45.00'' Nord";"59286";;"2 R DE BOCQUIAU CTRE FRANCE TÉLÉCOM";"59320";"HAUBOURDIN";"Pylône autostable"; 32.0;"ORANGE Services Fixes"
515773;3.02722;50.46472;"03° 01' 38.00'' Est, 50° 27' 53.00'' Nord";"59452";"CITÉ DU BOIS DION";"RUE J.B.LEBAS-PROLONGÉE ZONE D'ACTIVITÉ LE BOIS DION";"59162";"OSTRICOURT";"Pylône tubulaire"; 30.0;"ORANGE"
516055;2.96583;50.62639;"02° 57' 57.00'' Est, 50° 37' 35.00'' Nord";"59566";"LA GRANDE COUTURE";"CCAL LOMME-ENGLOS BD DU COMMERCE STATION SERVICE AUCHAN";"59320";"SEQUEDIN";"Pylône autostable"; 30.0;"ORANGE"
516070;3.11694;50.66611;"03° 07' 01.00'' Est, 50° 39' 58.00'' Nord";"59646";;"R DES FRERES GONTIERS CTRE FT";"59290";"WASQUEHAL";"Pylône autostable"; 27.0;"ORANGE"
516280;3.06250;50.63722;"03° 03' 45.00'' Est, 50° 38' 14.00'' Nord";"59350";;"1-3 R ESQUERMOISE";"59800";"LILLE";"Immeuble"; 19.3;"Copropriété, Syndic, SCI"
516691;3.27222;50.22889;"03° 16' 20.00'' Est, 50° 13' 44.00'' Nord";"59593";"AU-DESSUS BORNE À CHAPEAUX";"A.2 - PK 38 - PÉAGE";"59141";"THUN-L'EVEQUE";"Pylône autostable"; 32.0;"Sociétés d'Autoroutes"
518019;3.54194;50.36028;"03° 32' 31.00'' Est, 50° 21' 37.00'' Nord";"59383";;"R DE ST SAULVE";"59770";"MARLY";"Château d'eau - réservoir"; 52.0;"Syndicat des eaux, Adduction"
518968;3.30306;50.32889;"03° 18' 11.00'' Est, 50° 19' 44.00'' Nord";"59002";"CITÉ DE LA REPUBLIQUE";"ROUTE DE ROEULX D 330";"59215";"ABSCON";"Château d'eau - réservoir"; 47.0;"Syndicat des eaux, Adduction"
519979;4.18889;50.06472;"04° 11' 20.00'' Est, 50° 03' 53.00'' Nord";"59045";"LES MONTS";"ROUTE DE BAIVES";"59132";"BAIVES";"Château d'eau - réservoir"; 43.0;"Syndicat des eaux, Adduction"
520059;3.43694;50.27861;"03° 26' 13.00'' Est, 50° 16' 43.00'' Nord";"59407";"ENTRE DEUX BOIS";"RTE DÉPART. 88 DE CAMBRAI À VALENCIENNES";"59224";"MONCHAUX-SUR-ECAILLON";"Pylône autostable"; 42.0;"BOUYGUES"
520849;3.50500;50.19500;"03° 30' 18.00'' Est, 50° 11' 42.00'' Nord";"59571";"VOYETTE DE VERTAIN";"DÉPARTEMENTALE  942 ET D109( ENTRE LES 2 DÉPARTEME";"59730";"SOLESMES";"Pylône tubulaire"; 44.0;"TDF"
520933;2.89333;50.58333;"02° 53' 36.00'' Est, 50° 35' 00.00'' Nord";"59250";;"RTE DE LA BASSEE-CHATEAU D'EAU";"59134";"FOURNES-EN-WEPPES";"Château d'eau - réservoir"; 43.0;"Commune, communauté de commune"
521581;2.53556;50.72222;"02° 32' 08.00'' Est, 50° 43' 20.00'' Nord";"59295";;"30 R DU GAL LECLERC";"59190";"HAZEBROUCK";"Immeuble"; 7.8;"Société Privée SA"
523012;3.23750;50.47000;"03° 14' 15.00'' Est, 50° 28' 12.00'' Nord";"59449";"LE FAUBOURG DE DOUAI";"R VICTOR DELANNOY";"59310";"ORCHIES";"Pylône autostable"; 35.0;"ORANGE Services Fixes"
523448;3.52444;50.35806;"03° 31' 28.00'' Est, 50° 21' 29.00'' Nord";"59606";;"8 R DU QUESNOY";"59300";"VALENCIENNES";"Bâtiment"; 14.1;"Société Privée SA"
529437;3.06056;50.60694;"03° 03' 38.00'' Est, 50° 36' 25.00'' Nord";"59220";;"64 R JOFFRE";"59155";"FACHES-THUMESNIL";"Pylône tubulaire"; 12.5;"HIVORY"
530202;3.00972;50.62694;"03° 00' 35.00'' Est, 50° 37' 37.00'' Nord";"59350";"LOMME";"RUE PELOUZE 5 RUE JEAN BAPTISTE DUMAS";"59800";"LILLE";"Pylône tubulaire"; 30.0;"ORANGE"
531326;2.40694;51.03000;"02° 24' 25.00'' Est, 51° 01' 48.00'' Nord";"59155";;"RUE CÉLESTIN MALO FERME DES JÉSUITES CHEMIN DE DREVE DAULLE";"59210";"COUDEKERQUE-BRANCHE";"Pylône autostable"; 77.0;"TDF"
531438;2.51889;51.08028;"02° 31' 08.00'' Est, 51° 04' 49.00'' Nord";"59107";;"82 PL DE L'ESPLANADE";"59123";"BRAY-DUNES";"Immeuble"; 27.0;"Copropriété, Syndic, SCI"
534007;2.70528;50.80194;"02° 42' 19.00'' Est, 50° 48' 07.00'' Nord";"59086";;"1162 R DE LA ROUME";"59299";"BOESCHEPE";"Pylône autostable"; 12.2;"HIVORY"
536028;3.29306;50.23472;"03° 17' 35.00'' Est, 50° 14' 05.00'' Nord";"59219";"LE HAUT DES VEAUX";"D.61";"59295";"ESTRUN";"Château d'eau - réservoir"; 29.0;"Syndicat des eaux, Adduction"
536247;2.58444;50.75028;"02° 35' 04.00'' Est, 50° 45' 01.00'' Nord";"59120";;"CHEM DE ST OMER TOUR DE TIR À L'ARC";"59190";"CAESTRE";"Bâtiment"; 28.0;"Particulier"
536252;3.02750;50.61361;"03° 01' 39.00'' Est, 50° 36' 49.00'' Nord";"59350";;"R FRÉDÉRIC COMBEMALE FOURRIÈRE MUNICIPALE DE LILLE";"59000";"LILLE";"Pylône tubulaire"; 18.0;"ORANGE"
538625;3.45500;50.23972;"03° 27' 18.00'' Est, 50° 14' 23.00'' Nord";"59558";"LE DOIGNY";"R JEAN MERMOZ D 14 CHAUSSEE BRUNEHAUT";"59227";"SAULZOIR";"Château d'eau - réservoir"; 57.0;"Commune, communauté de commune"
538693;3.79917;50.29583;"03° 47' 57.00'' Est, 50° 17' 45.00'' Nord";"59053";"PORTE DE MONS";"D 961 RTE D'AVESNES SUR HELPE";"59570";"BAVAY";"Château d'eau - réservoir"; 60.0;"Syndicat des eaux, Adduction"
542672;3.13639;50.61722;"03° 08' 11.00'' Est, 50° 37' 02.00'' Nord";"59009";;"CROISEMENT BLD DE BREUCQ ET R DE LA TOISON D'OR";"59650";"VILLENEUVE-D'ASCQ";"Pylône tubulaire"; 26.7;"HIVORY"
542826;3.89583;50.24028;"03° 53' 45.00'' Est, 50° 14' 25.00'' Nord";"59291";;"198 R JULES CAMPAGNE";"59330";"HAUTMONT";"Pylône tubulaire"; 36.0;"ATC FRANCE"
545788;3.88111;50.30000;"03° 52' 52.00'' Est, 50° 17' 60.00'' Nord";"59225";;"26 R. ARDAUX";"59750";"FEIGNIES";"Pylône tubulaire"; 31.0;"ORANGE"
545959;3.11306;50.65694;"03° 06' 47.00'' Est, 50° 39' 25.00'' Nord";"59378";;"5 R DES CHÂTEAUX ZI DE LA PILATERIE";"59700";"MARCQ-EN-BAROEUL";"Pylône autostable"; 47.5;"SFR"
546361;3.08917;50.64306;"03° 05' 21.00'' Est, 50° 38' 35.00'' Nord";"59350";;"R DE LA BRIQUETERIE RÉSIDENCE LION D'OR";"59800";"LILLE";"Bâtiment"; 31.2;"Copropriété, Syndic, SCI"
547021;3.46111;50.15667;"03° 27' 40.00'' Est, 50° 09' 24.00'' Nord";"59614";;"R DU 8 MAI 1945 TERRAIN DE SPORT";"59271";"VIESLY";"Pylône tubulaire"; 21.0;"ORANGE"
547949;3.09444;50.63583;"03° 05' 40.00'' Est, 50° 38' 09.00'' Nord";"59350";;"2 R ST-JUST RUE DE LA CONVENTION";"59800";"LILLE";"Immeuble"; 31.1;"Société HLM"
548805;2.96056;50.56194;"02° 57' 38.00'' Est, 50° 33' 43.00'' Nord";"59266";;"R GAY LUSSAC ZI LE MARAIS";"59147";"GONDECOURT";"Pylône autostable"; 31.0;"ORANGE"
549255;3.01028;50.75889;"03° 00' 37.00'' Est, 50° 45' 32.00'' Nord";"59152";;"R ST EXUPERY PL KENNEDY IMM FLANDRE ET ARTOIS";"59560";"COMINES";"Immeuble"; 27.0;"Société HLM"
549788;3.04750;50.60389;"03° 02' 51.00'' Est, 50° 36' 14.00'' Nord";"59350";;"2, R ANDRÉ GIDE RES GIDE VALLES";"59800";"LILLE";"Immeuble"; 55.0;"Société HLM"
549902;3.16722;50.70028;"03° 10' 02.00'' Est, 50° 42' 01.00'' Nord";"59512";;"80 R DE CASSEL- R STEPHENSON";"59100";"ROUBAIX";"Immeuble"; 25.3;"Société HLM"
550693;3.13500;50.64472;"03° 08' 06.00'' Est, 50° 38' 41.00'' Nord";"59009";;"99, R PARMENTIER IMM ACTIBURO - BÂTIMENT D";"59491";"VILLENEUVE-D'ASCQ";"Pylône autostable"; 24.0;"Société Privée SA"
552502;3.20917;50.11444;"03° 12' 33.00'' Est, 50° 06' 52.00'' Nord";"59389";;"R LAIN ADM. : VERRERIE DE MASNIÈRES";"59241";"MASNIERES";"Bâtiment"; 50.0;"Société Privée SA"
552535;3.15444;50.70167;"03° 09' 16.00'' Est, 50° 42' 06.00'' Nord";"59599";;"17 QUAI DU FRESNOY R DE LA SOLIDARITÉ";"59200";"TOURCOING";"Pylône haubané"; 30.0;"BOUYGUES"
552573;2.27833;51.00583;"02° 16' 42.00'' Est, 51° 00' 21.00'' Nord";"59271";;"AV DE L'ANCIEN VILLAGE CCAL AUCHAN INTERSECTION N1 ET D131";"59760";"GRANDE-SYNTHE";"Bâtiment"; 9.4;"Société Privée SA"
554523;3.25250;50.54667;"03° 15' 09.00'' Est, 50° 32' 48.00'' Nord";"59096";"LA POSTERIE";"D.93 - R EDMOND DELBASSÉE";"59830";"BOURGHELLES";"Château d'eau - réservoir"; 38.4;"Syndicat des eaux, Adduction"
554558;3.18028;50.68944;"03° 10' 49.00'' Est, 50° 41' 22.00'' Nord";"59512";;"37 R WINSTON CHURCHILL";"59100";"ROUBAIX";"Immeuble"; 48.0;"Société HLM"
555038;2.50722;50.76083;"02° 30' 26.00'' Est, 50° 45' 39.00'' Nord";"59308";"BOGAERT STRAETE";"649 R BOGAERTSTRAET";"59190";"HONDEGHEM";"Pylône tubulaire"; 25.0;"ORANGE"
555378;3.20778;50.67361;"03° 12' 28.00'' Est, 50° 40' 25.00'' Nord";"59367";;"68 R CHANZY ENTREPRISE EGPN";"59390";"LYS-LEZ-LANNOY";"Bâtiment"; 12.1;"Particulier"
555478;3.23389;50.17611;"03° 14' 02.00'' Est, 50° 10' 34.00'' Nord";"59122";;"R PASTEUR BIJOUTERIE BEAUCOUSIN";"59400";"CAMBRAI";"Immeuble"; 20.0;"Copropriété, Syndic, SCI"
555511;2.27333;50.96056;"02° 16' 24.00'' Est, 50° 57' 38.00'' Nord";"59110";;"ROUTE DE DUNKERQUE";"59630";"BROUCKERQUE";"Pylône tubulaire"; 30.0;"ORANGE"
555586;3.05278;50.36306;"03° 03' 10.00'' Est, 50° 21' 47.00'' Nord";"59329";;"CHEM DE L'ENFANT JÉSUS / CHEM DES VACHES";"59552";"LAMBRES-LEZ-DOUAI";"Pylône autostable"; 30.0;"SFR"
557753;2.26472;50.99361;"02° 15' 53.00'' Est, 50° 59' 37.00'' Nord";"59359";;"ZI PORT FLUVIAL STÉ SOGESTRAN PRÈS A.16";"59279";"LOON-PLAGE";"Pylône tubulaire"; 24.0;"ORANGE"
558467;3.26083;50.14611;"03° 15' 39.00'' Est, 50° 08' 46.00'' Nord";"59432";"DERRIÈRE LES HAIES";"CHEM RURAL DIT DERRIÈRE LES HAIES";"59400";"NIERGNIES";"Pylône tubulaire"; 20.0;"ORANGE"
558910;3.13889;50.72083;"03° 08' 20.00'' Est, 50° 43' 15.00'' Nord";"59599";;"R DES FRANCS IMM LES FRANCS";"59200";"TOURCOING";"Immeuble"; 55.0;"Société HLM"
560003;2.90444;50.65556;"02° 54' 16.00'' Est, 50° 39' 20.00'' Nord";"59143";;"11 R ISAC NEWTON Z.I. LA CHAPELLE D'ARMENTIÈRES";"59930";"LA CHAPELLE-D'ARMENTIERES";"Pylône tubulaire"; 35.0;"HIVORY"
560011;3.50917;50.37917;"03° 30' 33.00'' Est, 50° 22' 45.00'' Nord";"59079";;"1 PL DE BRUXELLES";"59192";"BEUVRAGES";"Immeuble"; 25.9;"Société HLM"
560015;3.03917;50.62556;"03° 02' 21.00'' Est, 50° 37' 32.00'' Nord";"59350";;"4 R D'ISLY";"59800";"LILLE";"Immeuble"; 24.0;"Copropriété, Syndic, SCI"
560166;3.13222;50.58000;"03° 07' 56.00'' Est, 50° 34' 48.00'' Nord";"59256";;"16 R DE BERZIN";"59273";"FRETIN";"Pylône autostable"; 41.0;"Société Privée SA"
560200;3.14389;50.62361;"03° 08' 38.00'' Est, 50° 37' 25.00'' Nord";"59009";;"57 R CORNEILLE IMM SLE";"59491";"VILLENEUVE-D'ASCQ";"Immeuble"; 29.0;"Société HLM"
560206;3.12972;50.62333;"03° 07' 47.00'' Est, 50° 37' 24.00'' Nord";"59009";;"48 -49 R DES VICTOIRES RES CTRE VILLE";"59491";"VILLENEUVE-D'ASCQ";"Immeuble"; 42.0;"Société HLM"
560547;3.96389;50.29139;"03° 57' 50.00'' Est, 50° 17' 29.00'' Nord";"59392";;"BD MOLIÈRE RÉS. LE VIVORDE";"59600";"MAUBEUGE";"Immeuble"; 28.4;"Copropriété, Syndic, SCI"
560557;3.04611;50.63167;"03° 02' 46.00'' Est, 50° 37' 54.00'' Nord";"59350";;"72 R DU PORT ASSOC DE L'ÉCOLE D'INFIRMIÈRE ET PUÉRICULTURE";"59800";"LILLE";"Immeuble"; 28.0;"Association"
561829;3.15417;50.39194;"03° 09' 15.00'' Est, 50° 23' 31.00'' Nord";"59327";;"R DE LA PAIX RES LES FAUVETTES";"59167";"LALLAING";"Immeuble"; 16.6;"Société Privée SA"
564194;2.99250;50.60083;"02° 59' 33.00'' Est, 50° 36' 03.00'' Nord";"59286";;"STADE BEAUPRÈS AV DE BEAUPRÈS";"59320";"HAUBOURDIN";"Pylône tubulaire"; 30.0;"HIVORY"
564301;2.99583;50.63833;"02° 59' 45.00'' Est, 50° 38' 18.00'' Nord";"59350";"LOMME";"PLATE-FORME MULTIMODALE INTERNATIONALE PRÈS D.208";"59800";"LILLE";"Pylône autostable"; 30.0;"SFR"
565126;3.04111;50.64833;"03° 02' 28.00'' Est, 50° 38' 54.00'' Nord";"59328";;"35 R LEON GAMBETTA TOUR TDF";"59130";"LAMBERSART";"Tour hertzienne"; 99.0;"TDF"
572014;3.01861;50.61472;"03° 01' 07.00'' Est, 50° 36' 53.00'' Nord";"59360";;"81 R MARECHAL FOCH 466 R FAIDHERBE ESPACE CULTUREL F MITTERAND";"59120";"LOOS";"Immeuble"; 25.0;"Commune, communauté de commune"
574349;2.37806;51.00444;"02° 22' 41.00'' Est, 51° 00' 16.00'' Nord";"59155";;"RTE DE BERGUES JARDIN SNCF LIGNE DE COUDEKERQUE PRES DU GYMNASE";"59210";"COUDEKERQUE-BRANCHE";"Pylône autostable"; 37.0;"CELLNEX"
575070;2.96917;50.67417;"02° 58' 09.00'' Est, 50° 40' 27.00'' Nord";"59457";;"178 - 184 R DE LA PREVOTE BP 49";"59840";"PERENCHIES";"Silo"; 19.2;"Société Privée SA"
577641;4.01056;50.01389;"04° 00' 38.00'' Est, 50° 00' 50.00'' Nord";"59659";;"27 R DES ECOLES";"59212";"WIGNEHIES";"Pylône autostable"; 25.0;"HIVORY"
579579;3.11944;50.70222;"03° 07' 10.00'' Est, 50° 42' 08.00'' Nord";"59378";"HAUT MONT - GHESTE HAMEAU";"R DE LA BEUVRECQUE";"59700";"MARCQ-EN-BAROEUL";"Pylône autostable"; 38.0;"RTE"
581836;3.21583;50.69750;"03° 12' 57.00'' Est, 50° 41' 51.00'' Nord";"59650";;"5 R DE L'AVELIN BAT E";"59150";"WATTRELOS";"Immeuble"; 27.0;"Société Privée SA"
581979;3.41917;50.37472;"03° 25' 09.00'' Est, 50° 22' 29.00'' Nord";"59632";"LA TUILERIE";"21 R BENOÎT MALON";"59135";"WALLERS";"Pylône autostable"; 35.0;"HIVORY"
582564;3.11333;50.64389;"03° 06' 48.00'' Est, 50° 38' 38.00'' Nord";"59410";;"8 MAIL LAMARTINE";"59370";"MONS-EN-BAROEUL";"Immeuble"; 87.0;"Société Privée SA"
584351;3.13667;50.60667;"03° 08' 12.00'' Est, 50° 36' 24.00'' Nord";"59009";"UNIVERSITÉ DES SCIENCES";"AV. PAUL LANGEVIN USTL 1 RÉS. BACHELARD BÂT. M";"59491";"VILLENEUVE-D'ASCQ";"Bâtiment"; 31.0;"Etat, Ministère"
584481;3.83194;50.18333;"03° 49' 55.00'' Est, 50° 10' 60.00'' Nord";"59344";"VAUCHETTE";"CHEM DE VAUCHETTE - R MARCEL RINGEVAL STADE MUNICIPAL";"59620";"LEVAL";"Pylône autostable"; 30.0;"HIVORY"
586385;3.09361;50.60000;"03° 05' 37.00'' Est, 50° 36' 00.00'' Nord";"59507";;"5 AV DU MARECHAL DE LATTRE DE TASSIGNY HLM BERTRAND";"59790";"RONCHIN";"Immeuble"; 42.0;"Société HLM"
586663;3.20389;50.68417;"03° 12' 14.00'' Est, 50° 41' 03.00'' Nord";"59512";;"R D'YPRES TOUR E";"59100";"ROUBAIX";"Immeuble"; 62.0;"Société HLM"
586739;3.09500;50.48694;"03° 05' 42.00'' Est, 50° 29' 13.00'' Nord";"59411";"LE MONT";"TOUR DTRN";"59246";"MONS-EN-PEVELE";"Pylône autostable"; 42.0;"TDF"
587159;3.17194;50.34528;"03° 10' 19.00'' Est, 50° 20' 43.00'' Nord";"59345";;"R DE L'EGALITÉ";"59287";"LEWARDE";"Pylône autostable"; 12.0;"HIVORY"
588107;3.10583;50.65472;"03° 06' 21.00'' Est, 50° 39' 17.00'' Nord";"59378";"ZI DE LA PILATERIE";"CHEM DU CH D'EAU PYLONE TDF";"59700";"MARCQ-EN-BAROEUL";"Pylône autostable"; 105.8;"TDF"
589758;3.61889;50.14944;"03° 37' 08.00'' Est, 50° 08' 58.00'' Nord";"59099";;"10/14 R CHARLES SEYDOUX";"59222";"BOUSIES";"Silo"; 28.0;"Société Privée SA"
593567;3.06694;50.65139;"03° 04' 01.00'' Est, 50° 39' 05.00'' Nord";"59368";;"1 R DE FLANDRE TOUR LES AUBIERS";"59110";"LA MADELEINE";"Immeuble"; 70.0;"Société HLM"
593813;3.95389;50.11417;"03° 57' 14.00'' Est, 50° 06' 51.00'' Nord";"59035";;"R DU CIMETIÈRE";"59440";"AVESNELLES";"Pylône tubulaire"; 28.0;"ORANGE"
596829;2.53083;50.73306;"02° 31' 51.00'' Est, 50° 43' 59.00'' Nord";"59295";;"41 AV DU MARECHAL FOCH";"59190";"HAZEBROUCK";"Immeuble"; 33.0;"Société HLM"
596887;3.27889;50.41222;"03° 16' 44.00'' Est, 50° 24' 44.00'' Nord";"59375";"LE PAVÉ D'ORCHIES";"R DU CLOS CH D'EAU";"59870";"MARCHIENNES";"Château d'eau - réservoir"; 49.0;"Syndicat des eaux, Adduction"
596896;3.05889;50.64417;"03° 03' 32.00'' Est, 50° 38' 39.00'' Nord";"59350";;"72 R DE LA HALLE";"59800";"LILLE";"Immeuble"; 20.0;"Particulier"
597633;3.86806;50.21278;"03° 52' 05.00'' Est, 50° 12' 46.00'' Nord";"59041";;"R DE MAUBEUGE LE STADE";"59138";"BACHANT";"Pylône autostable"; 30.0;"HIVORY"
599387;3.43056;50.43583;"03° 25' 50.00'' Est, 50° 26' 09.00'' Nord";"59526";;"178 R DE LA COLLINIERE";"59230";"SAINT-AMAND-LES-EAUX";"Château d'eau - réservoir"; 55.8;"Syndicat des eaux, Adduction"
599393;3.52444;50.35750;"03° 31' 28.00'' Est, 50° 21' 27.00'' Nord";"59606";;"R DE LA HALLE PL D'ARMES";"59300";"VALENCIENNES";"Immeuble"; 32.5;"Commune, communauté de commune"
599901;3.07111;50.63028;"03° 04' 16.00'' Est, 50° 37' 49.00'' Nord";"59350";"BEFFROI";"PL ROGER SALENGRO";"59800";"LILLE";"Immeuble"; 104.0;"Commune, communauté de commune"
601778;3.05167;50.40111;"03° 03' 06.00'' Est, 50° 24' 04.00'' Nord";"59234";;"R DE L EGLISE";"59128";"FLERS-EN-ESCREBIEUX";"Monument religieux"; 39.5;"Commune, communauté de commune"
604265;3.08222;50.65306;"03° 04' 56.00'' Est, 50° 39' 11.00'' Nord";"59368";;"350 AV REPUBLIQUE";"59110";"LA MADELEINE";"Château d'eau - réservoir"; 36.0;"Commune, communauté de commune"
604299;4.06750;50.30111;"04° 04' 03.00'' Est, 50° 18' 04.00'' Nord";"59385";"LA PARAPETTE";"CITÉ LEBAS D159";"59164";"MARPENT";"Château d'eau - réservoir"; 47.0;"Syndicat des eaux, Adduction"
610099;2.73306;50.70250;"02° 43' 59.00'' Est, 50° 42' 09.00'' Nord";"59043";"LEET ACKER";"R DE CRON - CHEM";"59270";"BAILLEUL";"Pylône autostable"; 30.0;"ORANGE"
610917;3.06528;50.62639;"03° 03' 55.00'' Est, 50° 37' 35.00'' Nord";"59350";;"3-5 R GOSSELET";"59800";"LILLE";"Immeuble"; 37.0;"Etat, Ministère"
613422;3.06056;50.34639;"03° 03' 38.00'' Est, 50° 20' 47.00'' Nord";"59156";;"R JEAN BAPTISTE SERAPHIN TRANSPORT FOSSEUX";"59552";"COURCHELETTES";"Pylône autostable"; 45.0;"HIVORY"
614133;3.09861;50.60444;"03° 05' 55.00'' Est, 50° 36' 16.00'' Nord";"59507";;"100 R LOUIS BRAILLE";"59790";"RONCHIN";"Pylône autostable"; 36.0;"Société Privée SA"
614936;3.29139;50.02472;"03° 17' 29.00'' Est, 50° 01' 29.00'' Nord";"59624";"FERME MOULIN LE JEUNE";"RTE DE GOUY";"59142";"VILLERS-OUTREAUX";"Pylône autostable"; 34.0;"ORANGE"
616979;3.14639;50.05722;"03° 08' 47.00'' Est, 50° 03' 26.00'' Nord";"59267";"LE MOULIN BRÛLÉ";"R DE GOUZEAUCOURT - D.96";"59231";"GONNELIEU";"Pylône autostable"; 32.0;"ORANGE"
618720;3.10583;50.35861;"03° 06' 21.00'' Est, 50° 21' 31.00'' Nord";"59569";;"54 AV DU MAL LECLERC";"59450";"SIN-LE-NOBLE";"Pylône autostable"; 38.0;"ATC FRANCE"
619947;2.63472;50.72750;"02° 38' 05.00'' Est, 50° 43' 39.00'' Nord";"59399";"CANTON DE STRAZEELE";"N.42";"59270";"MERRIS";"Château d'eau - réservoir"; 37.5;"Syndicat des eaux, Adduction"
621938;2.97250;50.61028;"02° 58' 21.00'' Est, 50° 36' 37.00'' Nord";"59286";;"2 R DE SANTES SCI VB";"59320";"HAUBOURDIN";"Pylône tubulaire"; 20.0;"HIVORY"
623534;3.11972;50.36694;"03° 07' 11.00'' Est, 50° 22' 01.00'' Nord";"59569";;"R AMBROISE CROIZAT";"59450";"SIN-LE-NOBLE";"Pylône autostable"; 25.0;"HIVORY"
623926;3.06500;50.41639;"03° 03' 54.00'' Est, 50° 24' 59.00'' Nord";"59028";;"R DES ENGRAIS";"59950";"AUBY";"Pylône autostable"; 53.8;"TDF"
623979;2.46472;50.88472;"02° 27' 53.00'' Est, 50° 53' 05.00'' Nord";"59663";;"R DE LA GARE";"59470";"WORMHOUT";"Pylône autostable"; 24.0;"ORANGE"
624475;2.44361;51.03667;"02° 26' 37.00'' Est, 51° 02' 12.00'' Nord";"59588";"BRIQUETERIE";"AIRE DE REPOS DE TETEGHEM";"59229";"TETEGHEM";"Pylône tubulaire"; 25.0;"ORANGE"
627826;3.16472;50.26556;"03° 09' 53.00'' Est, 50° 15' 56.00'' Nord";"59026";;"R DU STADE PYLONE SFR";"59265";"AUBIGNY-AU-BAC";"Pylône autostable"; 30.0;"HIVORY"
627866;3.08444;50.37111;"03° 05' 04.00'' Est, 50° 22' 16.00'' Nord";"59178";;"114 R ST JACQUES";"59500";"DOUAI";"Immeuble"; 26.0;"Société Privée SA"
628442;3.01917;50.63417;"03° 01' 09.00'' Est, 50° 38' 03.00'' Nord";"59350";;"1,R FOURIER";"59800";"LILLE";"Pylône autostable"; 40.0;"ORANGE Services Fixes"
628444;3.05972;50.63306;"03° 03' 35.00'' Est, 50° 37' 59.00'' Nord";"59350";;"19 R JEAN SANS PEUR";"59800";"LILLE";"Bâtiment"; 32.0;"Copropriété, Syndic, SCI"
628471;3.10056;50.62750;"03° 06' 02.00'' Est, 50° 37' 39.00'' Nord";"59350";;"51, R JEAN BART CENTRAL TÉLÉPHONIQUE";"59800";"LILLE";"Bâtiment"; 31.0;"ORANGE"
628474;3.05972;50.62000;"03° 03' 35.00'' Est, 50° 37' 12.00'' Nord";"59350";;"30 R DES MEUNIERS RÉSIDENCE 3F";"59800";"LILLE";"Immeuble"; 27.0;"Société HLM"
628478;3.05667;50.62694;"03° 03' 24.00'' Est, 50° 37' 37.00'' Nord";"59350";;"44 R DES POSTES";"59800";"LILLE";"Immeuble"; 34.0;"Société HLM"
628483;3.07083;50.61889;"03° 04' 15.00'' Est, 50° 37' 08.00'' Nord";"59350";;"1 R DE MULHOUSE ANCIENNE FILATURE USINE";"59800";"LILLE";"Bâtiment"; 41.5;"Commune, communauté de commune"
628497;3.08417;50.64639;"03° 05' 03.00'' Est, 50° 38' 47.00'' Nord";"59350";;"R DE LA LOUVIÈRE POLYCLINIQUE";"59800";"LILLE";"Immeuble"; 40.0;"Société Privée SA"
629955;3.04000;50.60972;"03° 02' 24.00'' Est, 50° 36' 35.00'' Nord";"59350";;"3, PL LÉONARD DE VINCI RÉSIDENCE SYLVESTRE VERHULST";"59800";"LILLE";"Immeuble"; 33.0;"Société HLM"
629961;3.07389;50.62250;"03° 04' 26.00'' Est, 50° 37' 21.00'' Nord";"59350";;"27 RUE JEAN JAURÈS RÉSIDENCE TRÉVISE BÂTIMENT D";"59800";"LILLE";"Immeuble"; 28.0;"Société HLM"
629974;3.02528;50.63000;"03° 01' 31.00'' Est, 50° 37' 48.00'' Nord";"59350";;"6 PL ROSETTE DE MEY RÉS. TOURVILLE";"59800";"LILLE";"Immeuble"; 34.0;"Société HLM"
629976;3.04611;50.61861;"03° 02' 46.00'' Est, 50° 37' 07.00'' Nord";"59350";;"90 BD DE METZ";"59800";"LILLE";"Immeuble"; 40.0;"Société HLM"
630747;3.08944;50.62417;"03° 05' 22.00'' Est, 50° 37' 27.00'' Nord";"59350";;"R DU LONG POT";"59800";"LILLE";"Pylône haubané"; 31.0;"SNCF Réseau"
633519;2.36083;51.02250;"02° 21' 39.00'' Est, 51° 01' 21.00'' Nord";"59183";"BANC VERT";"465 AV DE LA VILLETTE";"59140";"DUNKERQUE";"Château d'eau - réservoir"; 77.0;"Syndicat des eaux, Adduction"
633570;3.06139;50.63611;"03° 03' 41.00'' Est, 50° 38' 10.00'' Nord";"59350";;"41 R NATIONALE LE PRINTEMPS";"59800";"LILLE";"Immeuble"; 49.0;"Société Privée SA"
633574;3.08333;50.63806;"03° 05' 00.00'' Est, 50° 38' 17.00'' Nord";"59350";;"29 R EUGENE JACQUET";"59800";"LILLE";"Immeuble"; 38.6;"Société HLM"
633576;3.05556;50.60889;"03° 03' 20.00'' Est, 50° 36' 32.00'' Nord";"59350";;"17 R DE L ASIE/ETS DEVOS";"59800";"LILLE";"Pylône tubulaire"; 36.0;"ORANGE"
634300;3.47917;50.39028;"03° 28' 45.00'' Est, 50° 23' 25.00'' Nord";"59491";"CEF";"PL DE LA GARE";"59590";"RAISMES";"Pylône autostable"; 25.0;"SNCF Réseau"
635432;3.64639;50.42333;"03° 38' 47.00'' Est, 50° 25' 24.00'' Nord";"59160";;"R DU CDT O'REILLY PRÈS STATION D'ÉPURATION";"59154";"CRESPIN";"Pylône autostable"; 42.0;"TDF"
635556;3.28250;50.35278;"03° 16' 57.00'' Est, 50° 21' 10.00'' Nord";"59574";;"BD LOUISE MICHEL";"59490";"SOMAIN";"Pylône autostable"; 33.0;"ORANGE"
635563;3.11306;50.62361;"03° 06' 47.00'' Est, 50° 37' 25.00'' Nord";"59350";;"57 R  FREDINAND MATHIAS R VANDERSTAETEN";"59800";"LILLE";"Pylône autostable"; 33.0;"SNCF Réseau"
635583;3.05972;50.64139;"03° 03' 35.00'' Est, 50° 38' 29.00'' Nord";"59350";;"26 R D ANGLETERRE";"59800";"LILLE";"Immeuble"; 20.0;"Copropriété, Syndic, SCI"
635589;3.01722;50.64194;"03° 01' 02.00'' Est, 50° 38' 31.00'' Nord";"59350";;"389 AV DE DUNKERQUE";"59800";"LILLE";"Immeuble"; 21.0;"Copropriété, Syndic, SCI"
635591;3.10417;50.61944;"03° 06' 15.00'' Est, 50° 37' 10.00'' Nord";"59350";"L'EPINE";"5, IMP DES ROSIERS";"59800";"LILLE";"Immeuble"; 27.0;"Société HLM"
635595;3.05833;50.63056;"03° 03' 30.00'' Est, 50° 37' 50.00'' Nord";"59350";;"75 R LÉON GAMBETTA HOTEL HOLLIDAY INN 59800 LILLE";"59800";"LILLE";"Bâtiment"; 31.0;"Copropriété, Syndic, SCI"
637058;3.07167;50.63389;"03° 04' 18.00'' Est, 50° 38' 02.00'' Nord";"59350";;"43 R GUSTAVE DELORY IMM LE FORUM";"59800";"LILLE";"Immeuble"; 57.0;"Copropriété, Syndic, SCI"
637517;3.96250;50.33806;"03° 57' 45.00'' Est, 50° 20' 17.00'' Nord";"59076";"LES CHAMPS DE NIVELLE";"CR 206 DU CHEM BLANC";"59600";"BETTIGNIES";"Pylône tubulaire"; 25.0;"ORANGE"
637531;3.07417;50.63722;"03° 04' 27.00'' Est, 50° 38' 14.00'' Nord";"59350";;"AVENUE WILLY BRANDT CCAL EURALILLE";"59800";"LILLE";"Immeuble"; 15.0;"Société Privée SA"
637589;3.04556;50.62028;"03° 02' 44.00'' Est, 50° 37' 13.00'' Nord";"59350";;"ANGLE RUES VAN HENDE ET EPINAL BLANCHISSERIE CENTRALE HOSPITALIÈRE";"59800";"LILLE";"Bâtiment"; 28.0;"Etablissement de soins"
637591;3.08639;50.63194;"03° 05' 11.00'' Est, 50° 37' 55.00'' Nord";"59350";;"56/58 R PIERRE LEGRAND";"59800";"LILLE";"Immeuble"; 28.0;"Copropriété, Syndic, SCI"
637605;3.05389;50.64000;"03° 03' 14.00'' Est, 50° 38' 24.00'' Nord";"59350";;"2, FAÇADE DE L'ESPLANADE QTR STE CATHERINE";"59800";"LILLE";"Immeuble"; 22.0;"Copropriété, Syndic, SCI"
637611;3.05333;50.63111;"03° 03' 12.00'' Est, 50° 37' 52.00'' Nord";"59350";;"13 R DES STATIONS";"59800";"LILLE";"Immeuble"; 21.0;"Particulier"
637613;3.07472;50.62222;"03° 04' 29.00'' Est, 50° 37' 20.00'' Nord";"59350";;"68 R DE TRÉVISE BÂTIMENT N";"59800";"LILLE";"Immeuble"; 28.0;"Société HLM"
637615;3.03500;50.62944;"03° 02' 06.00'' Est, 50° 37' 46.00'' Nord";"59350";;"1-3-5 PL LEROUX DE FAUQUEMONT";"59800";"LILLE";"Immeuble"; 24.0;"Copropriété, Syndic, SCI"
637617;3.06889;50.64222;"03° 04' 08.00'' Est, 50° 38' 32.00'' Nord";"59350";;"R MAUGRE CENTRAL TÉLÉPHONIQUE DES BLEUETS";"59800";"LILLE";"Bâtiment"; 25.0;"ORANGE Services Fixes"
637619;3.04972;50.64667;"03° 02' 59.00'' Est, 50° 38' 48.00'' Nord";"59350";;"R DE LA PORTE D'YPRES STADE ADOLPHE MAXRUE";"59800";"LILLE";"Pylône tubulaire"; 25.0;"ORANGE"
637621;3.04000;50.62417;"03° 02' 24.00'' Est, 50° 37' 27.00'' Nord";"59350";;"PL GENEVIÈRES EGLISE ST MARTIN D'ESQUERMES";"59800";"LILLE";"Monument religieux"; 48.0;"Commune, communauté de commune"
637623;3.04361;50.63500;"03° 02' 37.00'' Est, 50° 38' 06.00'' Nord";"59350";;"25 R DE L'ARCHITECTE CORDONNIER";"59800";"LILLE";"Immeuble"; 43.0;"Société HLM"
637641;3.07750;50.62917;"03° 04' 39.00'' Est, 50° 37' 45.00'' Nord";"59350";;"14 BD DU PRÉSIDENT HOOVER TOUR CRÉDIT DU NORD IMMEUBLE LILLE MÉTROPOLE HABITAT";"59800";"LILLE";"Immeuble"; 44.0;"Copropriété, Syndic, SCI"
637657;3.01083;50.64250;"03° 00' 39.00'' Est, 50° 38' 33.00'' Nord";"59350";;"R DE LA GARE GARE SNCF";"59800";"LILLE";"Pylône autostable"; 30.0;"HIVORY"
637661;3.02444;50.63000;"03° 01' 28.00'' Est, 50° 37' 48.00'' Nord";"59350";;"249 R DES BOIS BLANCS";"59800";"LILLE";"Immeuble"; 21.8;"Société HLM"
637679;3.08694;50.62778;"03° 05' 13.00'' Est, 50° 37' 40.00'' Nord";"59350";;"65 R BELLEVUE RÉSIDENCE PARC KOPPEL";"59800";"LILLE";"Immeuble"; 16.2;"Société HLM"
637688;3.11361;50.62417;"03° 06' 49.00'' Est, 50° 37' 27.00'' Nord";"59350";;"R VANDERSTRAETEN ATELIERS SNCF D'HELLEMMES";"59800";"LILLE";"Château d'eau - réservoir"; 28.6;"SFR"
637692;3.04861;50.61806;"03° 02' 55.00'' Est, 50° 37' 05.00'' Nord";"59350";;"104 BD  DE METZ";"59800";"LILLE";"Immeuble"; 41.4;"Société HLM"
637927;3.07722;50.62972;"03° 04' 38.00'' Est, 50° 37' 47.00'' Nord";"59350";;"3 BD  DU DR CALMETTE";"59800";"LILLE";"Immeuble"; 40.8;"Société HLM"
639108;3.06222;50.62139;"03° 03' 44.00'' Est, 50° 37' 17.00'' Nord";"59350";;"20 R DE SECLIN";"59800";"LILLE";"Immeuble"; 24.0;"Société HLM"
639122;3.07250;50.64250;"03° 04' 21.00'' Est, 50° 38' 33.00'' Nord";"59350";;"BD  CARNOT EURALILLE";"59800";"LILLE";"Pylône tubulaire"; 12.0;"HIVORY"
639124;3.05389;50.63361;"03° 03' 14.00'' Est, 50° 38' 01.00'' Nord";"59350";;"148 R NATIONALE";"59800";"LILLE";"Immeuble"; 41.0;"Société Privée SA"
639128;3.05167;50.62611;"03° 03' 06.00'' Est, 50° 37' 34.00'' Nord";"59350";;"66, R LITTRÉ HOTEL BALLADINS";"59800";"LILLE";"Immeuble"; 21.0;"Société Privée SA"
639131;3.07194;50.62444;"03° 04' 19.00'' Est, 50° 37' 28.00'' Nord";"59350";;"9/11/13 R DE CAMBRAI";"59800";"LILLE";"Immeuble"; 40.0;"Société HLM"
639734;3.05194;50.64472;"03° 03' 07.00'' Est, 50° 38' 41.00'' Nord";"59350";;"70-72 FAÇADE DE L'ESPLANADE";"59800";"LILLE";"Immeuble"; 36.0;"Copropriété, Syndic, SCI"
639741;3.03333;50.62000;"03° 01' 60.00'' Est, 50° 37' 12.00'' Nord";"59350";;"1 A 5 R COURTELINE BÂTIMENT N° 5";"59800";"LILLE";"Immeuble"; 54.0;"Société HLM"
639758;3.06333;50.63167;"03° 03' 48.00'' Est, 50° 37' 54.00'' Nord";"59350";;"14 R JEANNE MAILLOTTE";"59800";"LILLE";"Immeuble"; 26.0;"Copropriété, Syndic, SCI"
639763;2.98250;50.63583;"02° 58' 57.00'' Est, 50° 38' 09.00'' Nord";"59350";;"4 R DE L'EUROPE";"59800";"LILLE";"Pylône autostable"; 30.0;"HIVORY"
639772;3.06972;50.63722;"03° 04' 11.00'' Est, 50° 38' 14.00'' Nord";"59350";;"17, PL DE LA GARE HÔTEL NAPOLÉON";"59800";"LILLE";"Immeuble"; 20.0;"Particulier"
639775;3.09194;50.64778;"03° 05' 31.00'' Est, 50° 38' 52.00'' Nord";"59350";;"20 R GERMAIN PILON RÉSIDENCE CASSSENDE";"59800";"LILLE";"Immeuble"; 28.0;"Société Privée SA"
639779;3.03611;50.63278;"03° 02' 10.00'' Est, 50° 37' 58.00'' Nord";"59350";;"1ÈRE AV, BÂT F PORT DE LILLE";"59800";"LILLE";"Bâtiment"; 19.0;"Etat, Ministère"
639783;3.06389;50.63806;"03° 03' 50.00'' Est, 50° 38' 17.00'' Nord";"59350";;"PL DU THEATRE CHAMBRE DE COMMERCE ET D'INDUSTRIE";"59800";"LILLE";"Immeuble"; 25.0;"CCI,Ch Metiers,Port Aut,Aérop"
639787;3.05667;50.62889;"03° 03' 24.00'' Est, 50° 37' 44.00'' Nord";"59350";;"13 R COLBRANT";"59800";"LILLE";"Immeuble"; 23.0;"Société HLM"
640722;3.06389;50.64833;"03° 03' 50.00'' Est, 50° 38' 54.00'' Nord";"59350";;"14 R PAUL RAMADIER";"59800";"LILLE";"Immeuble"; 35.0;"Copropriété, Syndic, SCI"
641328;2.40833;50.74306;"02° 24' 30.00'' Est, 50° 44' 35.00'' Nord";"59184";;"CHE DES LOUPS RD 55";"59173";"EBBLINGHEM";"Château d'eau - réservoir"; 45.0;"Syndicat des eaux, Adduction"
641468;3.09194;50.63028;"03° 05' 31.00'' Est, 50° 37' 49.00'' Nord";"59350";;"16, 18 R D'AGUESSEAU";"59800";"LILLE";"Immeuble"; 48.0;"Copropriété, Syndic, SCI"
641477;3.07000;50.63306;"03° 04' 12.00'' Est, 50° 37' 59.00'' Nord";"59350";;"4-14 R ST-SAUVEUR";"59800";"LILLE";"Immeuble"; 45.0;"Société HLM"
643147;3.76722;50.13667;"03° 46' 02.00'' Est, 50° 08' 12.00'' Nord";"59384";;"159 GRANDE RUE SOCIÉTÉ DEFROIDMONT SA";"59550";"MAROILLES";"Pylône tubulaire"; 25.0;"ATC FRANCE"
643518;3.38944;50.33444;"03° 23' 22.00'' Est, 50° 20' 04.00'' Nord";"59172";;"PL LÉON TOLSTOI ENTREPRISE S.N.C.F.";"59220";"DENAIN";"Pylône autostable"; 47.0;"SFR"
643610;3.07333;50.42306;"03° 04' 24.00'' Est, 50° 25' 23.00'' Nord";"59509";;"1545 R MARCEL SEMBAT ANCIEN TRANSFO EDF";"59286";"ROOST-WARENDIN";"Pylône autostable"; 35.0;"HIVORY"
644302;3.04361;50.62889;"03° 02' 37.00'' Est, 50° 37' 44.00'' Nord";"59350";;"5 PL DU MARECHAL LECLERC";"59800";"LILLE";"Immeuble"; 31.0;"Copropriété, Syndic, SCI"
644304;3.07528;50.62111;"03° 04' 31.00'' Est, 50° 37' 16.00'' Nord";"59350";;"53 R DE TRÉVISE";"59800";"LILLE";"Immeuble"; 35.0;"Société HLM"
645493;3.17250;50.69806;"03° 10' 21.00'' Est, 50° 41' 53.00'' Nord";"59512";;"53 R CUVELLE";"59100";"ROUBAIX";"Bâtiment"; 32.0;"Société Privée SA"
645594;3.19694;50.67528;"03° 11' 49.00'' Est, 50° 40' 31.00'' Nord";"59512";;"228 AV ALFRED MOTTE CCAL";"59100";"ROUBAIX";"Bâtiment"; 35.0;"Société Privée SA"
646140;3.05222;50.67750;"03° 03' 08.00'' Est, 50° 40' 39.00'' Nord";"59386";;"19 AV INDUSTRIELLE";"59520";"MARQUETTE-LEZ-LILLE";"Pylône autostable"; 37.0;"HIVORY"
647477;3.01528;50.62194;"03° 00' 55.00'' Est, 50° 37' 19.00'' Nord";"59360";"NORD BENNE";"417 AV KUHLMANN";"59120";"LOOS";"Pylône tubulaire"; 32.0;"ORANGE"
658397;3.07667;50.65639;"03° 04' 36.00'' Est, 50° 39' 23.00'' Nord";"59368";;"81 R DE TURENNE IMM PARTENORD HABITAT";"59110";"LA MADELEINE";"Immeuble"; 16.3;"Société HLM"
664352;3.46667;50.35278;"03° 28' 00.00'' Est, 50° 21' 10.00'' Nord";"59564";;"R GUSTAVE DELORY";"59174";"LA SENTINELLE";"Château d'eau - réservoir"; 38.5;"Syndicat des eaux, Adduction"
666946;3.17306;50.64750;"03° 10' 23.00'' Est, 50° 38' 51.00'' Nord";"59009";;"9 R MARCHENELLES";"59491";"VILLENEUVE-D'ASCQ";"Pylône tubulaire"; 30.7;"HIVORY"
668787;3.09361;50.38806;"03° 05' 37.00'' Est, 50° 23' 17.00'' Nord";"59178";;"R GUSTAVE EIFFEL ZI DOUAI DORIGNIES";"59500";"DOUAI";"Pylône tubulaire"; 30.0;"ORANGE"
671351;3.03472;50.61972;"03° 02' 05.00'' Est, 50° 37' 11.00'' Nord";"59350";;"R LENOIR/R PR. LAMAZE OPHLM BÂT.3";"59800";"LILLE";"Immeuble"; 55.0;"Société HLM"
671361;3.06944;50.63611;"03° 04' 10.00'' Est, 50° 38' 10.00'' Nord";"59350";;"24 PL DE LA GARE";"59800";"LILLE";"Immeuble"; 32.0;"Société Privée SA"
671935;3.10222;50.39917;"03° 06' 08.00'' Est, 50° 23' 57.00'' Nord";"59234";;"152 R MARCEL MARTIN";"59128";"FLERS-EN-ESCREBIEUX";"Pylône autostable"; 25.0;"SFR"
673001;3.22750;50.26556;"03° 13' 39.00'' Est, 50° 15' 56.00'' Nord";"59224";;"LA MALIERE";"59247";"FECHAIN";"Pylône autostable"; 30.0;"ORANGE"
673357;3.14306;50.78361;"03° 08' 35.00'' Est, 50° 47' 01.00'' Nord";"59279";"LES MEURINS";"ANGLE CHEM DES MEURINS ET ALLÉE DES FRÈRES BONDUEL Z.I ROUGE PORTE";"59250";"HALLUIN";"Pylône autostable"; 45.0;"HIVORY"
674038;2.43972;50.93806;"02° 26' 23.00'' Est, 50° 56' 17.00'' Nord";"59478";"KLAP HOCH";"R DU CHÂTEAU";"59380";"QUAEDYPRE";"Château d'eau - réservoir"; 38.0;"Syndicat des eaux, Adduction"
674293;3.10306;50.38000;"03° 06' 11.00'' Est, 50° 22' 48.00'' Nord";"59654";;"41 R LUCIEN MOREAU";"59119";"WAZIERS";"Pylône autostable"; 30.0;"SFR"
675387;2.40056;51.05111;"02° 24' 02.00'' Est, 51° 03' 04.00'' Nord";"59183";"DIGUE DE MER";"POSTE DE SECOURS N°3 DIGUE DE MALO";"59140";"DUNKERQUE";"Bâtiment"; 11.0;"Commune, communauté de commune"
679089;3.49806;50.36833;"03° 29' 53.00'' Est, 50° 22' 06.00'' Nord";"59014";;"R DU SOLDAT BEAULIEU PLACE ROGER SALENGRO";"59410";"ANZIN";"Château d'eau - réservoir"; 37.0;"Syndicat des eaux, Adduction"
681158;3.12306;50.35333;"03° 07' 23.00'' Est, 50° 21' 12.00'' Nord";"59170";;"RTE DES ATELIERS SERVICE TECHNIQUE DE LA VILLE";"59187";"DECHY";"Pylône tubulaire"; 25.0;"ORANGE"
681188;3.13083;50.66611;"03° 07' 51.00'' Est, 50° 39' 58.00'' Nord";"59646";;"60 R JEAN BART";"59290";"WASQUEHAL";"Immeuble"; 29.1;"Société HLM"
682045;3.53667;50.08889;"03° 32' 12.00'' Est, 50° 05' 20.00'' Nord";"59136";;"82, R FAIDHERBE SIMONS CARRELAGES (UNITÉ N° 2 )";"59360";"LE CATEAU-CAMBRESIS";"Bâtiment"; 49.5;"Société Privée SA"
682056;3.92444;50.05944;"03° 55' 28.00'' Est, 50° 03' 34.00'' Nord";"59218";;"13 R DE LA FILATURE ANCIENNE USINE DU GROUPEMENT TEXTILE DU NORD";"59219";"ETROEUNGT";"Bâtiment"; 34.0;"Particulier"
682068;3.91389;50.11861;"03° 54' 50.00'' Est, 50° 07' 07.00'' Nord";"59036";;"RÉSIDENCE ARGONNE CITÉ VERDUN";"59440";"AVESNES-SUR-HELPE";"Immeuble"; 22.4;"Société HLM"
682112;3.01361;50.66056;"03° 00' 49.00'' Est, 50° 39' 38.00'' Nord";"59328";;"42 R FERDINAND DE LESSEPS";"59130";"LAMBERSART";"Pylône tubulaire"; 39.0;"HIVORY"
682208;3.49278;50.36806;"03° 29' 34.00'' Est, 50° 22' 05.00'' Nord";"59014";;"AV LÉO LAGRANGE PRES DU STADE";"59410";"ANZIN";"Pylône autostable"; 70.0;"TDF"
683904;2.56889;50.96000;"02° 34' 08.00'' Est, 50° 57' 36.00'' Nord";"59326";;"1 R ST-MICHEL USINE DE TEILLAGE VAN ROBAEYS";"59122";"KILLEM";"Bâtiment"; 40.0;"Société Privée SA"
686465;2.23583;50.89639;"02° 14' 09.00'' Est, 50° 53' 47.00'' Nord";"59130";;"D110  RTE DE LUNCK";"59630";"CAPPELLE-BROUCK";"Bâtiment"; 14.0;"Société Privée SA"
688954;3.52556;50.36889;"03° 31' 32.00'' Est, 50° 22' 08.00'' Nord";"59606";;"BD DES ALLIÉS PYLÔNE ORANGE - TERRAIN SNCF GARE MARCHANDE";"59300";"VALENCIENNES";"Pylône autostable"; 30.0;"ORANGE"
689333;3.22194;50.66472;"03° 13' 19.00'' Est, 50° 39' 53.00'' Nord";"59598";;"CHEM DE LA CITADELLE PRÈS D700";"59390";"TOUFFLERS";"Pylône tubulaire"; 25.0;"ORANGE"
691485;3.08417;50.36833;"03° 05' 03.00'' Est, 50° 22' 06.00'' Nord";"59178";;"128 R DE CANTELEU";"59500";"DOUAI";"Bâtiment"; 31.0;"ORANGE Services Fixes"
691956;3.09111;50.38222;"03° 05' 28.00'' Est, 50° 22' 56.00'' Nord";"59178";;"FAUBOURG MORELLE PARKING PARC DES EXPOS.  PYLÔNE RTE N° 26";"59500";"DOUAI";"Pylône autostable"; 39.0;"RTE"
693143;3.40583;50.41778;"03° 24' 21.00'' Est, 50° 25' 04.00'' Nord";"59284";"LES MARAIS";"RD 953 SORTIE A23 HASNON";"59178";"HASNON";"Pylône tubulaire"; 38.0;"HIVORY"
693903;2.81583;50.53750;"02° 48' 57.00'' Est, 50° 32' 15.00'' Nord";"59051";"HAUT DU TERTRE";"ROUTE DE LILLE CENTRALE TÉLÉPHONIQUE FT";"59480";"LA BASSEE";"Pylône autostable"; 45.3;"ORANGE Services Fixes"
694400;3.54861;50.09972;"03° 32' 55.00'' Est, 50° 05' 59.00'' Nord";"59136";;"R DE FEMSY";"59360";"LE CATEAU-CAMBRESIS";"Château d'eau - réservoir"; 54.0;"Syndicat des eaux, Adduction"
695702;3.12750;50.39028;"03° 07' 39.00'' Est, 50° 23' 25.00'' Nord";"59178";;"R DE SOISSONS PRÈS N.455";"59500";"DOUAI";"Pylône autostable"; 29.0;"ORANGE"
696278;3.85583;50.20222;"03° 51' 21.00'' Est, 50° 12' 08.00'' Nord";"59041";;"2 AV MAURICE THOREZ";"59138";"BACHANT";"Pylône autostable"; 30.0;"SNCF Réseau"
702571;3.02861;50.59194;"03° 01' 43.00'' Est, 50° 35' 31.00'' Nord";"59360";"FLEQUIERES";"CHEM DU FÔNATRE";"59120";"LOOS";"Tour hertzienne"; 70.0;"TDF"
702771;3.05972;50.63222;"03° 03' 35.00'' Est, 50° 37' 56.00'' Nord";"59350";;"2 R JACQUEMARS GIELEE PREF";"59800";"LILLE";"Bâtiment"; 25.0;"Intérieur"
703335;3.17028;50.74306;"03° 10' 13.00'' Est, 50° 44' 35.00'' Nord";"59599";;"109 R DE L'YSER";"59200";"TOURCOING";"Immeuble"; 33.0;"Copropriété, Syndic, SCI"
703337;3.15917;50.70639;"03° 09' 33.00'' Est, 50° 42' 23.00'' Nord";"59599";;"292 BD  GAMBETTA";"59200";"TOURCOING";"Immeuble"; 33.5;"Copropriété, Syndic, SCI"
703341;3.16389;50.71361;"03° 09' 50.00'' Est, 50° 42' 49.00'' Nord";"59599";;"20 R ST ELOI";"59200";"TOURCOING";"Bâtiment"; 29.0;"Société Privée SA"
703343;3.12889;50.72889;"03° 07' 44.00'' Est, 50° 43' 44.00'' Nord";"59599";;"56 R DU TRAIN DE LOOS";"59200";"TOURCOING";"Immeuble"; 30.6;"Société HLM"
703345;3.18417;50.72972;"03° 11' 03.00'' Est, 50° 43' 47.00'' Nord";"59599";;"CHASSEE MARCELIN BERTHELOT ZI";"59200";"TOURCOING";"Pylône autostable"; 30.0;"ORANGE"
703347;3.16778;50.73000;"03° 10' 04.00'' Est, 50° 43' 48.00'' Nord";"59599";;"90 BD DE L'EGALITÉ OPHLM";"59200";"TOURCOING";"Immeuble"; 27.0;"Société HLM"
703351;3.14750;50.72333;"03° 08' 51.00'' Est, 50° 43' 24.00'' Nord";"59599";;"1 R DES COULONS";"59200";"TOURCOING";"Immeuble"; 23.0;"Société HLM"
703353;3.18444;50.73944;"03° 11' 04.00'' Est, 50° 44' 22.00'' Nord";"59599";;"R JEHAN DE TOURCOING RÉSIDENCE ARMANCOUR";"59200";"TOURCOING";"Immeuble"; 32.0;"Société HLM"
703355;3.15306;50.73194;"03° 09' 11.00'' Est, 50° 43' 55.00'' Nord";"59599";;"R JENNER";"59200";"TOURCOING";"Immeuble"; 12.0;"Copropriété, Syndic, SCI"
703363;3.15583;50.72750;"03° 09' 21.00'' Est, 50° 43' 39.00'' Nord";"59599";;"910 R GUSTAVE DELORY";"59200";"TOURCOING";"Immeuble"; 23.0;"Société HLM"
703365;3.18250;50.72361;"03° 10' 57.00'' Est, 50° 43' 25.00'' Nord";"59599";;"4 CHAUSSÉE MARCELIN BERTHELOT SARL VANDENPLAS";"59200";"TOURCOING";"Bâtiment"; 25.0;"Copropriété, Syndic, SCI"
703367;3.17500;50.72694;"03° 10' 30.00'' Est, 50° 43' 37.00'' Nord";"59599";;"231 R DES PIATS";"59200";"TOURCOING";"Immeuble"; 30.0;"Société HLM"
703369;3.15139;50.73722;"03° 09' 05.00'' Est, 50° 44' 14.00'' Nord";"59599";;"278 CHAUSSE FERNAND FOREST";"59200";"TOURCOING";"Immeuble"; 38.0;"Société Privée SA"
703373;3.19083;50.73194;"03° 11' 27.00'' Est, 50° 43' 55.00'' Nord";"59599";;"29, R DE LAON";"59200";"TOURCOING";"Pylône autostable"; 33.0;"HIVORY"
703377;3.14694;50.72500;"03° 08' 49.00'' Est, 50° 43' 30.00'' Nord";"59599";;"R JEAN FROISSART RÉSIDENCE BRUN PAIN";"59200";"TOURCOING";"Immeuble"; 30.0;"Copropriété, Syndic, SCI"
703379;3.15972;50.71750;"03° 09' 35.00'' Est, 50° 43' 03.00'' Nord";"59599";;"47 R THIERS";"59200";"TOURCOING";"Immeuble"; 28.7;"Copropriété, Syndic, SCI"
