Numéro du support;Longitude;Latitude;"Position";"Insee";"Lieu dit";"Adresse";"Code postal";"Commune";"Nature du support";Hauteur en m;"Propriétaire"
13864;2.60222;49.19667;"02° 36' 08.00'' Est, 49° 11' 48.00'' Nord";"60612";;"SENLIS- PONTS ET CHAUSSEES";"60300";"SENLIS";"Support non décrit";;
13866;2.64250;49.42694;"02° 38' 33.00'' Est, 49° 25' 37.00'' Nord";"60223";;"ESTREES SAINT DENIS PTS ET CH";"60190";"ESTREES-SAINT-DENIS";"Support non décrit";;
13922;1.86972;49.68556;"01° 52' 11.00'' Est, 49° 41' 08.00'' Nord";"60604";;"R MARÉCHAL LECLERC PETIT HALEINE";"60210";"SARCUS";"Bâtiment"; 12.0;"ORANGE Services Fixes"
35165;2.16278;49.49972;"02° 09' 46.00'' Est, 49° 29' 59.00'' Nord";"60480";;"RTE DE FONTAI SOCIÉTÉ BORDAPE";"60510";"OROER";"Pylône autostable"; 39.7;"SFR"
35201;2.20278;49.35000;"02° 12' 10.00'' Est, 49° 21' 00.00'' Nord";"60504";"LARIS DE PONCHON";"CHEM DES TENNIS";"60430";"PONCHON";"Pylône autostable"; 45.0;"SFR"
35223;2.06139;49.32722;"02° 03' 41.00'' Est, 49° 19' 38.00'' Nord";"60455";"MALASSISE";"131, R DU GÉNÉRAL DESPEAUX ENTREPRISE DE GARNIER";"60390";"LA NEUVILLE-GARNIER";"Pylône autostable"; 47.0;"SFR"
35225;1.88861;49.30250;"01° 53' 19.00'' Est, 49° 18' 09.00'' Nord";"60630";;"VC N°2 DE THIBIVILLERS À JAMÉRICOURT";"60240";"THIBIVILLERS";"Silo"; 32.4;"Particulier"
35241;2.73917;49.19667;"02° 44' 21.00'' Est, 49° 11' 48.00'' Nord";"60047";;"LA PLAINE DE BEAULIEU LE NEUF";"60300";"BARON";"Pylône autostable"; 47.5;"SFR"
35251;2.62722;49.40750;"02° 37' 38.00'' Est, 49° 24' 27.00'' Nord";"60441";"LA PIERRE ROBERGE";"RN17";"60190";"MOYVILLERS";"Château d'eau - réservoir"; 30.0;
35255;2.57056;49.38889;"02° 34' 14.00'' Est, 49° 23' 20.00'' Nord";"60036";;"RTE D'ÉPINEUSE";"60190";"AVRIGNY";"Pylône autostable"; 36.0;"SFR"
35271;2.42861;49.26361;"02° 25' 43.00'' Est, 49° 15' 49.00'' Nord";"60414";;"38 R DU COLONEL FABIEN";"60160";"MONTATAIRE";"Immeuble"; 25.0;"SFR"
61287;2.42778;49.50556;"02° 25' 40.00'' Est, 49° 30' 20.00'' Nord";"60581";;"8 PL DU MARECHAL LECLERC";"60130";"SAINT-JUST-EN-CHAUSSEE";"Pylône autostable"; 25.0;"Titulaire programme Radio/TV"
65399;2.12806;49.43222;"02° 07' 41.00'' Est, 49° 25' 56.00'' Nord";"60628";"LA JUSTICE";;"60510";"THERDONNE";"Pylône autostable"; 17.0;"Sociétés d'Autoroutes"
65403;2.09944;49.32083;"02° 05' 58.00'' Est, 49° 19' 15.00'' Nord";"60453";"BOIS DE MOLLE";;"60790";"LA NEUVILLE-D'AUMONT";"Pylône autostable"; 20.0;"Sociétés d'Autoroutes"
65405;2.09639;49.24250;"02° 05' 47.00'' Est, 49° 14' 33.00'' Nord";"60370";"LE CHEMET";;"60110";"LORMAISON";"Pylône autostable"; 37.0;"Sociétés d'Autoroutes"
65455;2.15167;49.20972;"02° 09' 06.00'' Est, 49° 12' 35.00'' Nord";"60010";"LA CHARBONNIÉRE";;"60110";"AMBLAINVILLE";"Pylône autostable"; 17.0;"Sociétés d'Autoroutes"
81490;2.46417;49.25194;"02° 27' 51.00'' Est, 49° 15' 07.00'' Nord";"60175";;"2 R LAMARTINE";"60100";"CREIL";"Immeuble"; 63.2;
81600;2.23167;49.22361;"02° 13' 54.00'' Est, 49° 13' 25.00'' Nord";"60517";;"R PRINCIPALE DU VILLAGE PRES RN 1";"60540";"PUISEUX-LE-HAUBERGER";"Pylône autostable"; 35.0;"FPS TOWERS"
81622;2.73694;49.31361;"02° 44' 13.00'' Est, 49° 18' 49.00'' Nord";"60667";"LA CROIX DES CHAMPS";"RD 932";"60410";"VERBERIE";"Pylône autostable"; 13.0;"FPS TOWERS"
100368;2.43806;49.28944;"02° 26' 17.00'' Est, 49° 17' 22.00'' Nord";"60342";"LE GORGUET";"STADE MUNICIPAL";"60290";"LAIGNEVILLE";"Pylône tubulaire"; 27.0;"ORANGE"
100402;2.16444;49.50556;"02° 09' 52.00'' Est, 49° 30' 20.00'' Nord";"60243";"LE MONT D'ABBEVILLE";"CHATEAU D'EAU";"60480";"FONTAINE-SAINT-LUCIEN";"Château d'eau - réservoir"; 31.0;"Syndicat des eaux, Adduction"
100498;2.81667;49.53611;"02° 48' 60.00'' Est, 49° 32' 10.00'' Nord";"60206";;"CHATEAU DE BELLINGLISE";"60157";"ELINCOURT-SAINTE-MARGUERITE";"Immeuble"; 14.0;"Particulier"
100500;2.59944;49.20917;"02° 35' 58.00'' Est, 49° 12' 33.00'' Nord";"60612";;"6, AV. DE LA FORET IMM ELLEBORE";"60300";"SENLIS";"Immeuble"; 26.0;"Société HLM"
100528;2.08944;49.44750;"02° 05' 22.00'' Est, 49° 26' 51.00'' Nord";"60057";"BÂTIMENT F - ENTRÉE F";"R DIEUDONNÉ COST";"60000";"BEAUVAIS";"Immeuble"; 27.0;"Société HLM"
100534;2.47833;49.25194;"02° 28' 42.00'' Est, 49° 15' 07.00'' Nord";"60175";;"2 AV PIERRE ET MARIE CURIE";"60100";"CREIL";"Immeuble"; 23.0;"Société HLM"
114781;2.91528;49.21611;"02° 54' 55.00'' Est, 49° 12' 58.00'' Nord";"60176";;"BAS DE LA FONTAINE VAUDEMANCHE D 25";"60800";"CREPY-EN-VALOIS";"Pylône autostable"; 36.0;"Titulaire programme Radio/TV"
114789;2.49194;49.34806;"02° 29' 31.00'' Est, 49° 20' 53.00'' Nord";"60042";"DEMI LUNE";"RUE HENRI LEGRAND";"60140";"BAILLEVAL";"Pylône autostable"; 25.0;"Titulaire programme Radio/TV"
146204;2.78111;49.40972;"02° 46' 52.00'' Est, 49° 24' 35.00'' Nord";"60665";;"CARREFOUR VENETTE CCAL";"60280";"VENETTE";"Bâtiment"; 11.0;"Société Privée SA"
146308;2.13167;49.23250;"02° 07' 54.00'' Est, 49° 13' 57.00'' Nord";"60395";;"GARE DE MERU R PAUL VAILLANT COUTURIER";"60110";"MERU";"Pylône autostable"; 26.0;"SFR"
150941;2.13667;49.23000;"02° 08' 12.00'' Est, 49° 13' 48.00'' Nord";"60395";;"RESERVOIR D ERMENONVILLE";"60110";"MERU";"Support non décrit"; 10.0;
150943;2.16528;49.21750;"02° 09' 55.00'' Est, 49° 13' 03.00'' Nord";"60218";;"STATION DE POMPAGE";"60110";"ESCHES";"Support non décrit"; 10.0;
150945;2.24667;49.16583;"02° 14' 48.00'' Est, 49° 09' 57.00'' Nord";"60139";;"STATION DE POMPAGE";"60230";"CHAMBLY";"Support non décrit"; 10.0;
150947;2.23611;49.21417;"02° 14' 10.00'' Est, 49° 12' 51.00'' Nord";"60517";;"STATION DE POMPAGE";"60540";"PUISEUX-LE-HAUBERGER";"Support non décrit"; 10.0;
150949;2.28361;49.22417;"02° 17' 01.00'' Est, 49° 13' 27.00'' Nord";"60450";;"BACHES";"60530";"NEUILLY-EN-THELLE";"Support non décrit"; 10.0;
150951;2.10972;49.24333;"02° 06' 35.00'' Est, 49° 14' 36.00'' Nord";"60570";;"FORAGE";"60149";"SAINT-CREPIN-IBOUVILLERS";"Support non décrit"; 10.0;
158321;3.10333;49.17056;"03° 06' 12.00'' Est, 49° 10' 14.00'' Nord";"60385";;"19 RUE DE L'EGLISE MAIRIE";"60890";"MAROLLES";"Bâtiment"; 12.0;"Commune, communauté de commune"
160649;2.98083;49.66000;"02° 58' 51.00'' Est, 49° 39' 36.00'' Nord";"60263";;"R D EN BAS";"60640";"FRETOY-LE-CHATEAU";"Support non décrit"; 15.0;
162370;2.63722;49.42611;"02° 38' 14.00'' Est, 49° 25' 34.00'' Nord";"60223";;"R DE COMPIEGNE";"60190";"ESTREES-SAINT-DENIS";"Support non décrit"; 12.0;
162372;2.74861;49.36222;"02° 44' 55.00'' Est, 49° 21' 44.00'' Nord";"60402";"LA CROISETTE";"PARKING POIDS LOURDS LA CROISETTE";"60880";"LE MEUX";"Support non décrit"; 5.0;
162374;2.65417;49.37111;"02° 39' 15.00'' Est, 49° 22' 16.00'' Nord";"60284";;"RTE DE CHEVRIERES";"60680";"GRANDFRESNOY";"Support non décrit"; 5.0;
162802;2.78917;49.35583;"02° 47' 21.00'' Est, 49° 21' 21.00'' Nord";"60338";;"R RNIONALE";"60610";"LACROIX-SAINT-OUEN";"Support non décrit"; 11.0;
168936;2.00694;49.40778;"02° 00' 25.00'' Est, 49° 24' 28.00'' Nord";"60523";;"1 RUE DE L'EGLISE MAIRIE";"60155";"RAINVILLERS";"Bâtiment"; 12.0;"Commune, communauté de commune"
170802;2.35889;49.16250;"02° 21' 32.00'' Est, 49° 09' 45.00'' Nord";"60086";;"PL DE L EGLISE";"60820";"BORAN-SUR-OISE";"Support non décrit"; 10.0;
173229;2.65500;49.36944;"02° 39' 18.00'' Est, 49° 22' 10.00'' Nord";"60284";;"SICAE";"60680";"GRANDFRESNOY";"Support non décrit"; 8.0;
173445;2.25083;49.44944;"02° 15' 03.00'' Est, 49° 26' 58.00'' Nord";"60230";;"6 GRANDE RUE";"60510";"LE FAY-SAINT-QUENTIN";"Bâtiment"; 10.0;"Société Privée SA"
176766;2.86389;49.46833;"02° 51' 50.00'' Est, 49° 28' 06.00'' Nord";"60368";;"20 R DES ECOLES";"60150";"LONGUEIL-ANNEL";"Support non décrit"; 16.0;
179977;2.42694;49.38306;"02° 25' 37.00'' Est, 49° 22' 59.00'' Nord";"60157";"BUREAUX";"R DU PONT DE PIERRE BUREAUX";"60600";"CLERMONT";"Support non décrit"; 20.0;
181629;2.77389;49.36056;"02° 46' 26.00'' Est, 49° 21' 38.00'' Nord";"60338";"STATION D EPURATION";"R PAUL EMILE VICTOR STATION D EPURATION";"60610";"LACROIX-SAINT-OUEN";"Support non décrit";;
181633;2.86667;49.44000;"02° 52' 00.00'' Est, 49° 26' 24.00'' Nord";"60151";;"RTE DU MOULIN A TAN CHEM RURAL N 17";"60750";"CHOISY-AU-BAC";"Support non décrit";;
195697;2.86111;49.53778;"02° 51' 40.00'' Est, 49° 32' 16.00'' Nord";"60206";;"SITE DMZ ECOUVILLON";"60157";"ELINCOURT-SAINTE-MARGUERITE";"Support non décrit"; 43.0;
195713;2.06972;49.43611;"02° 04' 11.00'' Est, 49° 26' 10.00'' Nord";"60057";;"74 R ST JUST DES MARAIS";"60000";"BEAUVAIS";"Support non décrit"; 7.0;
195767;2.86694;49.54083;"02° 52' 01.00'' Est, 49° 32' 27.00'' Nord";"60126";;"ECOUVILLON";"60310";"CANNECTANCOURT";"Support non décrit"; 35.0;
195773;2.77750;49.19111;"02° 46' 39.00'' Est, 49° 11' 28.00'' Nord";"60546";;"ROSIERES";"60440";"ROSIERES";"Pylône autostable"; 10.0;
195781;2.44528;49.45056;"02° 26' 43.00'' Est, 49° 27' 02.00'' Nord";"60034";;"RESERVOIR D'ARGENLIEU";"60130";"AVRECHY";"Support non décrit"; 30.0;
213226;2.72694;49.12528;"02° 43' 37.00'' Est, 49° 07' 31.00'' Nord";"60213";;"RST ERMENONVILLE PK 026.761";"60950";"ERMENONVILLE";"Mât"; 22.0;"SNCF Réseau"
213230;2.74861;49.14778;"02° 44' 55.00'' Est, 49° 08' 52.00'' Nord";"60047";;"RST BARON PK 030.655";"60300";"BARON";"Mât"; 15.0;"SNCF Réseau"
213234;2.74667;49.23333;"02° 44' 48.00'' Est, 49° 14' 00.00'' Nord";"60560";;"RST FRESNOY PRCI 14 PK 039.055";"60810";"RULLY";"Mât"; 22.0;"SNCF Réseau"
213240;2.70000;49.34222;"02° 42' 00.00'' Est, 49° 20' 32.00'' Nord";"60369";;"RST LONGUEIL PRCI PK 051.816";"60126";"LONGUEIL-SAINTE-MARIE";"Mât"; 22.0;"SNCF Réseau"
213244;2.69111;49.41250;"02° 41' 28.00'' Est, 49° 24' 45.00'' Nord";"60024";;"RST ARSY PRCI 16 PK 059.604";"60190";"ARSY";"Mât"; 22.0;"SNCF Réseau"
213248;2.71000;49.47806;"02° 42' 36.00'' Est, 49° 28' 41.00'' Nord";"60281";;"RST MONCHY CAI 67 PK 067.056";"60190";"GOURNAY-SUR-ARONDE";"Mât"; 22.0;"SNCF Réseau"
213252;2.72917;49.55028;"02° 43' 45.00'' Est, 49° 33' 01.00'' Nord";"60533";;"RST RESSONS PRCI 17 PK 075.186";"60490";"RESSONS-SUR-MATZ";"Mât"; 22.0;"SNCF Réseau"
213256;2.75028;49.60056;"02° 45' 01.00'' Est, 49° 36' 02.00'' Nord";"60160";;"RST CONCHY LES POTS PK 081.220";"60490";"CONCHY-LES-POTS";"Mât"; 15.0;"SNCF Réseau"
213258;2.75222;49.10389;"02° 45' 08.00'' Est, 49° 06' 14.00'' Nord";"60500";;"RST PLESSIS-BELLEVILLE PK 043.205";"60330";"LE PLESSIS-BELLEVILLE";"Mât"; 15.0;"SNCF Réseau"
213262;2.77917;49.12167;"02° 46' 45.00'' Est, 49° 07' 18.00'' Nord";"60619";;"RST MONTAGNY STE FELECITE PN 31 PK 045.695";"60330";"SILLY-LE-LONG";"Mât"; 10.0;"SNCF Réseau"
213264;2.83778;49.19917;"02° 50' 16.00'' Est, 49° 11' 57.00'' Nord";"60479";;"RST ORMOY POSTE 1 PK 055.560";"60800";"ORMOY-VILLERS";"Mât"; 30.0;"SNCF Réseau"
213266;2.85750;49.23333;"02° 51' 27.00'' Est, 49° 14' 00.00'' Nord";"60203";;"RST DUVY PK 059.660";"60800";"DUVY";"Mât"; 8.0;"SNCF Réseau"
213270;2.85833;49.25583;"02° 51' 30.00'' Est, 49° 15' 21.00'' Nord";"60618";;"RST SERRY MAIGNEVAL PK 062.235";"60800";"SERY-MAGNEVAL";"Mât"; 22.0;"SNCF Réseau"
213272;2.84500;49.28389;"02° 50' 42.00'' Est, 49° 17' 02.00'' Nord";"60481";;"RST POSTE GLAINES D'ORROUY PK 065.510";"60129";"ORROUY";"Mât"; 22.0;"SNCF Réseau"
213274;2.80889;49.29194;"02° 48' 32.00'' Est, 49° 17' 31.00'' Nord";"60067";;"RST BETHISY ST MARTIN PK 068.300";"60320";"BETHISY-SAINT-MARTIN";"Mât"; 15.0;"SNCF Réseau"
213276;2.74417;49.31972;"02° 44' 39.00'' Est, 49° 19' 11.00'' Nord";"60667";;"RST VERBERIE POSTE 2 PK 073.850";"60410";"VERBERIE";"Mât"; 30.0;"SNCF Réseau"
213280;2.51917;49.29722;"02° 31' 09.00'' Est, 49° 17' 50.00'' Nord";"60539";;"RST RIEUX PK 055.640";"60870";"RIEUX";"Mât"; 10.0;"SNCF Réseau"
213282;2.60278;49.30889;"02° 36' 10.00'' Est, 49° 18' 32.00'' Nord";"60509";;"RST PONT STE MAXENCE PK 061.855";"60700";"PONT-SAINTE-MAXENCE";"Mât"; 22.0;"SNCF Réseau"
213286;2.68194;49.33694;"02° 40' 55.00'' Est, 49° 20' 13.00'' Nord";"60149";;"RST CHEVRIERES PK 068.708";"60710";"CHEVRIERES";"Mât"; 22.0;"SNCF Réseau"
213290;2.75139;49.35861;"02° 45' 05.00'' Est, 49° 21' 31.00'' Nord";"60402";;"RST LE MEUX PK 074.632";"60880";"LE MEUX";"Mât"; 10.0;"SNCF Réseau"
213322;2.50556;49.12639;"02° 30' 20.00'' Est, 49° 07' 35.00'' Nord";"60482";;"RST ORRY LA VILLE PK 035.035";"60560";"ORRY-LA-VILLE";"Mât"; 22.0;"SNCF Réseau"
213324;2.46694;49.16944;"02° 28' 01.00'' Est, 49° 10' 10.00'' Nord";"60141";;"RST PS BOIS ST-DENIS PK 039.270";"60500";"CHANTILLY";"Mât"; 13.0;"SNCF Réseau"
213326;2.45972;49.18667;"02° 27' 35.00'' Est, 49° 11' 12.00'' Nord";"60141";;"RST CHANTILLY PK 040.900";"60500";"CHANTILLY";"Mât"; 22.0;"SNCF Réseau"
213330;2.44889;49.22000;"02° 26' 56.00'' Est, 49° 13' 12.00'' Nord";"60589";;"RST ST MAXIMIN PK 044.752";"60740";"SAINT-MAXIMIN";"Mât"; 24.0;"SNCF Réseau"
213334;2.44889;49.29722;"02° 26' 56.00'' Est, 49° 17' 50.00'' Nord";"60342";;"RST LAIGNEVILLE PN 17 PK 054.610";"60290";"LAIGNEVILLE";"Mât"; 10.0;"SNCF Réseau"
213338;2.42917;49.38000;"02° 25' 45.00'' Est, 49° 22' 48.00'' Nord";"60157";;"RST CLERMONT PK 064.061";"60600";"CLERMONT";"Mât"; 22.0;"SNCF Réseau"
213342;2.39667;49.40250;"02° 23' 48.00'' Est, 49° 24' 09.00'' Nord";"60007";;"RST RONQUEROLLES PN 26 PK 067.815";"60600";"AGNETZ";"Mât"; 10.0;"SNCF Réseau"
213346;2.40917;49.42333;"02° 24' 33.00'' Est, 49° 25' 24.00'' Nord";"60008";;"RST AIRION PK 070.334";"60600";"AIRION";"Mât"; 22.0;"SNCF Réseau"
213350;2.43278;49.52583;"02° 25' 58.00'' Est, 49° 31' 33.00'' Nord";"60495";;"RST PLAINVAL PK 082.052";"60130";"PLAINVAL";"Mât"; 10.0;"SNCF Réseau"
213354;2.43000;49.54028;"02° 25' 48.00'' Est, 49° 32' 25.00'' Nord";"60522";;"RST QUINQUEMPOIS PK 083.837";"60130";"QUINQUEMPOIX";"Mât"; 10.0;"SNCF Réseau"
213358;2.39028;49.60500;"02° 23' 25.00'' Est, 49° 36' 18.00'' Nord";"60146";;"RST CHEPOIX PN 29 PK 092.650";"60120";"CHEPOIX";"Mât"; 22.0;"SNCF Réseau"
213362;2.36167;49.65556;"02° 21' 42.00'' Est, 49° 39' 20.00'' Nord";"60555";;"RST PS DE ROUVROY LES MERLES PK 098.725";"60120";"ROUVROY-LES-MERLES";"Mât"; 5.0;"SNCF Réseau"
213366;1.80611;49.72028;"01° 48' 22.00'' Est, 49° 43' 13.00'' Nord";"60545";;"RST FOUILLOY EX PN 10 PK 046.210";"60220";"ROMESCAMPS";"Mât"; 15.0;"SNCF Réseau"
213368;1.79639;49.70861;"01° 47' 47.00'' Est, 49° 42' 31.00'' Nord";"60545";;"RST ROMESCAMPS PK 047.750";"60220";"ROMESCAMPS";"Mât"; 15.0;"SNCF Réseau"
213372;1.72333;49.65361;"01° 43' 24.00'' Est, 49° 39' 13.00'' Nord";"60245";;"RST FORMERIE PK 055.950";"60220";"FORMERIE";"Mât"; 22.0;"SNCF Réseau"
213376;2.20944;49.19278;"02° 12' 34.00'' Est, 49° 11' 34.00'' Nord";"60088";;"RST BORNEL BELLE EGLISE PK 045.180";"60540";"BORNEL";"Mât"; 6.0;"SNCF Réseau"
213378;2.13472;49.23167;"02° 08' 05.00'' Est, 49° 13' 54.00'' Nord";"60395";;"RST MERU PK 052.920";"60110";"MERU";"Mât"; 15.0;"SNCF Réseau"
213382;2.13917;49.28833;"02° 08' 21.00'' Est, 49° 17' 18.00'' Nord";"60330";;"RST LA BOISSIERE LE DELUGE PK 059.590";"60570";"LABOISSIERE-EN-THELLE";"Mât"; 15.0;"SNCF Réseau"
213386;2.13194;49.31972;"02° 07' 55.00'' Est, 49° 19' 11.00'' Nord";"60620";;"RST TUNNEL DE COUDRAY PK 062.970";"60430";"SILLY-TILLARD";"Mât"; 6.0;"SNCF Réseau"
213390;2.11861;49.34667;"02° 07' 07.00'' Est, 49° 20' 48.00'' Nord";"60598";;"RST ST SULPICE D'AUTEUIL PK 066.715";"60430";"SAINT-SULPICE";"Mât"; 22.0;"SNCF Réseau"
213394;2.13222;49.41889;"02° 07' 56.00'' Est, 49° 25' 08.00'' Nord";"60009";;"RST VILLERS PK 075.400";"60000";"ALLONNE";"Mât"; 15.0;"SNCF Réseau"
213398;2.09611;49.42694;"02° 05' 46.00'' Est, 49° 25' 37.00'' Nord";"60057";;"RST BEAUVAIS PK 078.720";"60000";"BEAUVAIS";"Mât"; 22.0;"SNCF Réseau"
213400;2.36167;49.16667;"02° 21' 42.00'' Est, 49° 09' 60.00'' Nord";"60086";;"RST BORAN SUR OISE PK 052.810";"60820";"BORAN-SUR-OISE";"Mât"; 22.0;"SNCF Réseau"
213404;2.36333;49.19389;"02° 21' 48.00'' Est, 49° 11' 38.00'' Nord";"60513";;"RST PONT DE BRIOCHE PK 055.781";"60460";"PRECY-SUR-OISE";"Mât"; 22.0;"SNCF Réseau"
223734;2.66167;49.37083;"02° 39' 42.00'' Est, 49° 22' 15.00'' Nord";"60284";"LE CIMETIÈRE";;"60680";"GRANDFRESNOY";"Pylône tubulaire"; 20.0;"SFR"
223788;3.02778;49.49333;"03° 01' 40.00'' Est, 49° 29' 36.00'' Nord";"60642";"LES ROSETTES";"ANCIENNES CARRIÈRES LES ROSETTES";"60170";"TRACY-LE-VAL";"Pylône autostable"; 35.4;"SFR"
240409;2.23417;49.16806;"02° 14' 03.00'' Est, 49° 10' 05.00'' Nord";"60139";;"R PIERRE CURIE";"60230";"CHAMBLY";"Pylône autostable"; 30.0;"SNCF Réseau"
253567;2.47139;49.26750;"02° 28' 17.00'' Est, 49° 16' 03.00'' Nord";"60463";;"RST CREIL PONT ROYAL PK 050.750 CANAL 1 & CANAL 5";"60180";"NOGENT-SUR-OISE";"Mât"; 30.0;"SNCF Réseau"
257387;2.13139;49.30917;"02° 07' 53.00'' Est, 49° 18' 33.00'' Nord";"60165";;"TUNNEL DE COUDRAY VOIE SNCF PARIS - BEAUVAIS";"60430";"LE COUDRAY-SUR-THELLE";"Tunnel"; 11.0;"SNCF Réseau"
259149;2.80611;49.46278;"02° 48' 22.00'' Est, 49° 27' 46.00'' Nord";"60166";"LA VALLEE";;"60150";"COUDUN";"Château d'eau - réservoir"; 19.3;"Commune, communauté de commune"
260920;1.78167;49.57167;"01° 46' 54.00'' Est, 49° 34' 18.00'' Nord";"60244";"BOIS DES AVESNES";;"60380";"FONTENAY-TORCY";"Pylône autostable"; 20.0;"SFR"
274586;2.05028;49.42250;"02° 03' 01.00'' Est, 49° 25' 21.00'' Nord";"60277";"LA FRAÎCHE";"CHEM RURAL DIT ANCIENNE RTE D'EVREUX";"60000";"GOINCOURT";"Pylône autostable"; 16.0;"FPS TOWERS"
282038;1.82750;49.28528;"01° 49' 39.00'' Est, 49° 17' 07.00'' Nord";"60644";;"R DE TRI LA VILLE";"60590";"TRIE-CHATEAU";"Pylône autostable"; 25.0;"RTE"
285041;2.46833;49.25583;"02° 28' 06.00'' Est, 49° 15' 21.00'' Nord";"60175";;"1 R BUHL";"60100";"CREIL";"Château d'eau - réservoir"; 37.0;"Syndicat des eaux, Adduction"
308234;2.79639;49.51222;"02° 47' 47.00'' Est, 49° 30' 44.00'' Nord";"60654";;"6 R DE MAREST";"60490";"VANDELICOURT";"Bâtiment"; 12.0;
311274;2.43861;49.28722;"02° 26' 19.00'' Est, 49° 17' 14.00'' Nord";"60342";"LE CAMP JEANNOT";"V COMMUNALE DE LAIGNEVILLE A MONTATAIRE";"60290";"LAIGNEVILLE";"Pylône autostable"; 42.0;"Commune, communauté de commune"
312165;2.76972;49.11472;"02° 46' 11.00'' Est, 49° 06' 53.00'' Nord";"60619";"LA BARAQUE";"RN2 LA BARAQUE";"60330";"SILLY-LE-LONG";"Bâtiment"; 3.0;"Société Privée SA"
312209;2.66667;49.36083;"02° 39' 60.00'' Est, 49° 21' 39.00'' Nord";"60149";;"HAMEAU DE LA SUCRERIE";"60710";"CHEVRIERES";"Bâtiment"; 30.0;"Société Privée SA"
312211;2.46694;49.19250;"02° 28' 01.00'' Est, 49° 11' 33.00'' Nord";"60141";;"11 AV MARECHAL JOFFRE";"60500";"CHANTILLY";"Bâtiment"; 15.0;
312213;2.60500;49.21750;"02° 36' 18.00'' Est, 49° 13' 03.00'' Nord";"60138";;"R DES OTAGES";"60300";"CHAMANT";"Bâtiment"; 4.0;"Société Privée SA"
314825;2.80778;49.22194;"02° 48' 28.00'' Est, 49° 13' 19.00'' Nord";"60027";;"RTE DU STADE MUNICIPAL RICHARD PRYJDA";"60800";"AUGER-SAINT-VINCENT";"Pylône tubulaire"; 23.0;"Commune, communauté de commune"
315180;2.81361;49.42861;"02° 48' 49.00'' Est, 49° 25' 43.00'' Nord";"60382";;"R DES GOUTTES D OR";"60280";"MARGNY-LES-COMPIEGNE";"Bâtiment"; 6.0;
315182;2.45000;49.21833;"02° 27' 00.00'' Est, 49° 13' 06.00'' Nord";"60589";;"12 ROUTE DE COUVIEUX";"60740";"SAINT-MAXIMIN";"Bâtiment"; 4.0;"Société Privée SA"
315184;2.78750;49.38583;"02° 47' 15.00'' Est, 49° 23' 09.00'' Nord";"60159";;"R DU FOND PERNANT";"60200";"COMPIEGNE";"Bâtiment"; 6.0;"Etablissement de soins"
324226;1.96056;49.56778;"01° 57' 38.00'' Est, 49° 34' 04.00'' Nord";"60387";;"STATION D EPURATION";"60690";"MARSEILLE-EN-BEAUVAISIS";"Bâtiment"; 10.0;"Particulier"
324228;1.96694;49.50417;"01° 58' 01.00'' Est, 49° 30' 15.00'' Nord";"60084";;"STATION DE POMPAGE";"60112";"BONNIERES";"Bâtiment"; 4.0;"Particulier"
324230;1.77611;49.57472;"01° 46' 34.00'' Est, 49° 34' 29.00'' Nord";"60244";;"BEC AU VENT RESERVOIR";"60380";"FONTENAY-TORCY";"Château d'eau - réservoir"; 4.0;"Particulier"
324232;1.85917;49.56639;"01° 51' 33.00'' Est, 49° 33' 59.00'' Nord";"60623";;"SERONVILLE STATION DE POMPAGE";"60380";"SONGEONS";"Bâtiment"; 2.0;"Particulier"
324441;1.95556;49.57083;"01° 57' 20.00'' Est, 49° 34' 15.00'' Nord";"60387";;"FME DE LA R DU BOIS STATION DE POMPAGE";"60690";"MARSEILLE-EN-BEAUVAISIS";"Bâtiment"; 4.0;"Particulier"
324443;2.03139;49.55167;"02° 01' 53.00'' Est, 49° 33' 06.00'' Nord";"60484";;"VALLEE D'OUDEUIL STATION DE POMPAGE";"60860";"OUDEUIL";"Bâtiment"; 4.0;"Particulier"
324445;2.59944;49.21028;"02° 35' 58.00'' Est, 49° 12' 37.00'' Nord";"60612";;"SQ DE LA HAUTE CHAMPAGNE RESERVOIR BON SECOURS";"60300";"SENLIS";"Bâtiment"; 10.0;"Particulier"
324447;1.89250;49.49750;"01° 53' 33.00'' Est, 49° 29' 51.00'' Nord";"60275";;"R DU BOUT DE HAUT RESERVOIR";"60650";"GLATIGNY";"Château d'eau - réservoir"; 4.0;"Particulier"
329547;2.46639;49.31528;"02° 27' 59.00'' Est, 49° 18' 55.00'' Nord";"60404";"LE VILLET";"CHEM RURAL N°4";"60140";"MOGNEVILLE";"Pylône autostable"; 32.0;"ORANGE"
331257;2.39444;49.61833;"02° 23' 40.00'' Est, 49° 37' 06.00'' Nord";"60039";"BELLEVUE";"GR 124";"60120";"BACOUEL";"Pylône autostable"; 45.0;"ORANGE Services Fixes"
335867;2.48583;49.26806;"02° 29' 09.00'' Est, 49° 16' 05.00'' Nord";"60463";;"R CHARLES SOMASCO";"60180";"NOGENT-SUR-OISE";"Pylône tubulaire"; 15.0;"SFR"
335992;2.10917;49.20222;"02° 06' 33.00'' Est, 49° 12' 08.00'' Nord";"60010";;"4 R DU MARAIS FERME GRATELEUX";"60110";"AMBLAINVILLE";"Bâtiment"; 16.5;
340827;2.79694;49.39556;"02° 47' 49.00'' Est, 49° 23' 44.00'' Nord";"60159";;"4 R DU FOUR ST JACQUES";"60200";"COMPIEGNE";"Pylône tubulaire"; 30.0;"SFR"
350104;2.45722;49.26028;"02° 27' 26.00'' Est, 49° 15' 37.00'' Nord";"60414";;"100 R LOUIS BLANC IMM COPENHAGUE";"60160";"MONTATAIRE";"Bâtiment"; 28.2;
356995;2.46167;49.24778;"02° 27' 42.00'' Est, 49° 14' 52.00'' Nord";"60175";;"BD LAENNEC MACHINERIE ASCENSEUR";"60100";"CREIL";"Bâtiment"; 16.0;"Etablissement de soins"
357609;2.11806;49.40917;"02° 07' 05.00'' Est, 49° 24' 33.00'' Nord";"60057";"ZAC DE THERS";"6 R  FERDINAND DE LESSEPS";"60000";"BEAUVAIS";"Bâtiment"; 12.0;"Titulaire programme Radio/TV"
365523;2.50528;49.28750;"02° 30' 19.00'' Est, 49° 17' 15.00'' Nord";"60684";;"R FREDERIC KUHLMANN";"60870";"VILLERS-SAINT-PAUL";"Bâtiment"; 5.0;
365525;2.44556;49.21250;"02° 26' 44.00'' Est, 49° 12' 45.00'' Nord";"60589";;"8 RTE DE GOUVIEUX";"60740";"SAINT-MAXIMIN";"Bâtiment"; 3.0;
367194;2.83056;49.41917;"02° 49' 50.00'' Est, 49° 25' 09.00'' Nord";"60159";;"PL GL DE GAULLE";"60200";"COMPIEGNE";"Bâtiment"; 30.0;"Commune, communauté de commune"
371954;2.76111;49.28111;"02° 45' 40.00'' Est, 49° 16' 52.00'' Nord";"60447";"LA CULOTTE";"RD 554";"60320";"NERY";"Pylône autostable"; 42.0;"FPS TOWERS"
384537;2.80750;49.41361;"02° 48' 27.00'' Est, 49° 24' 49.00'' Nord";"60665";"ILE DES RATS";"ECLUSE";"60280";"VENETTE";"Mât métallique"; 7.0;"Voies navigables de France"
384539;2.72972;49.32139;"02° 43' 47.00'' Est, 49° 19' 17.00'' Nord";"60369";"ÉCLUSE";"R DES ÉCLUSES";"60126";"LONGUEIL-SAINTE-MARIE";"Mât métallique"; 6.0;"Voies navigables de France"
384541;2.61444;49.30639;"02° 36' 52.00'' Est, 49° 18' 23.00'' Nord";"60509";"ÉCLUSE";"632 R DES ÉCLUSES";"60700";"PONT-SAINTE-MAXENCE";"Bâtiment"; 7.0;"Voies navigables de France"
384543;2.45194;49.24361;"02° 27' 07.00'' Est, 49° 14' 37.00'' Nord";"60584";"ÉCLUSE DE CREIL";"QUAI D'AVAL";"60340";"SAINT-LEU-D'ESSERENT";"Bâtiment"; 7.0;"Voies navigables de France"
384545;2.35861;49.14889;"02° 21' 31.00'' Est, 49° 08' 56.00'' Nord";"60086";"ECLUSE";"RTE DE L'ECLUSE";"60820";"BORAN-SUR-OISE";"Bâtiment"; 8.0;"Voies navigables de France"
384554;2.88361;49.43222;"02° 53' 01.00'' Est, 49° 25' 56.00'' Nord";"60151";"ÉCLUSE DE CARANDEAU";"CHEM DU CARANDEAU";"60750";"CHOISY-AU-BAC";"Bâtiment"; 4.4;"Voies navigables de France"
384560;3.11083;49.57778;"03° 06' 39.00'' Est, 49° 34' 40.00'' Nord";"60021";"L'ÉCLUSE ST HUBERT";;"60400";"APPILLY";"Bâtiment"; 4.7;"Voies navigables de France"
384562;2.98917;49.56111;"02° 59' 21.00'' Est, 49° 33' 40.00'' Nord";"60610";"ÉCLUSE";"RUE DES ECLUSES";"60400";"SEMPIGNY";"Bâtiment"; 3.2;"Voies navigables de France"
384565;2.90861;49.50000;"02° 54' 31.00'' Est, 49° 30' 00.00'' Nord";"60119";"ÉCLUSE";"R DE BELLERIVE";"60170";"CAMBRONNE-LES-RIBECOURT";"Bâtiment"; 5.1;"Voies navigables de France"
384568;2.86389;49.46333;"02° 51' 50.00'' Est, 49° 27' 48.00'' Nord";"60368";"ECLUSE";"AV DE L'OISE";"60150";"LONGUEIL-ANNEL";"Bâtiment"; 5.4;"Voies navigables de France"
392360;2.09722;49.43611;"02° 05' 50.00'' Est, 49° 26' 10.00'' Nord";"60057";;"2 R DE TOURAINE TOUR A13";"60000";"BEAUVAIS";"Immeuble"; 51.0;"Société HLM"
392626;3.12889;49.44000;"03° 07' 44.00'' Est, 49° 26' 24.00'' Nord";"60032";"LE CHAMPS DES LOQUES";;"60350";"AUTRECHES";"Pylône tubulaire"; 26.0;"Conseil Général"
436190;2.92944;49.57861;"02° 55' 46.00'' Est, 49° 34' 43.00'' Nord";"60625";"LE MONT DE CUY";;"60400";"SUZOY";"Pylône autostable"; 28.0;"Conseil Général"
436636;2.24778;49.17194;"02° 14' 52.00'' Est, 49° 10' 19.00'' Nord";"60139";"LES CORNOUILLERS";"R PAPIN RTE DE NEUILLY EN THELLE RN N° 49";"60230";"CHAMBLY";"Château d'eau - réservoir"; 45.5;"Commune, communauté de commune"
436676;2.46222;49.27500;"02° 27' 44.00'' Est, 49° 16' 30.00'' Nord";"60463";;"12 R DU PR CALMETTE";"60180";"NOGENT-SUR-OISE";"Immeuble"; 37.8;"Société HLM"
437079;2.37028;49.16722;"02° 22' 13.00'' Est, 49° 10' 02.00'' Nord";"60086";"LE CUL DE BOEUF";"CHEM DE PONT DE THÈVES";"60820";"BORAN-SUR-OISE";"Pylône autostable"; 42.0;"ORANGE"
437420;2.11972;49.40278;"02° 07' 11.00'' Est, 49° 24' 10.00'' Nord";"60009";"LE BOSQUET";"GARE DE PÉAGE DE BEAUVAIS SUD A16";"60000";"ALLONNE";"Pylône autostable"; 55.0;"Société Privée SA"
437433;3.00944;49.57861;"03° 00' 34.00'' Est, 49° 34' 43.00'' Nord";"60471";;"5 AV DE LA GARE CSEC";"60400";"NOYON";"Immeuble"; 51.0;"SDIS, secours, incendie"
437763;2.46750;49.13611;"02° 28' 03.00'' Est, 49° 08' 10.00'' Nord";"60172";"IMP DES SANGLIERS";"HALLE DES SPORTS";"60580";"COYE-LA-FORET";"Pylône tubulaire"; 38.0;"SFR"
438442;2.38278;49.20389;"02° 22' 58.00'' Est, 49° 12' 14.00'' Nord";"60513";"LE MARTRAY";"CHEM DE HALAGE SILO PRÈS DE D92 SILO";"60460";"PRECY-SUR-OISE";"Silo"; 51.0;"Société Privée SA"
439129;2.73194;49.12944;"02° 43' 55.00'' Est, 49° 07' 46.00'' Nord";"60413";"LE TEMPS PERDU";"CHEM VERT DE CHAÂLIS À MONTAGNY-STE-FÉLICITÉ";"60950";"MONTAGNY-SAINTE-FELICITE";"Pylône autostable"; 38.5;"Commune, communauté de commune"
439646;2.65778;49.23111;"02° 39' 28.00'' Est, 49° 13' 52.00'' Nord";"60045";"LE THIERRY";"VOIE COMMUNALE N°9 D'OGNON BALAGNY";"60810";"BARBERY";"Pylône autostable"; 35.0;"ORANGE"
439964;2.07611;49.44111;"02° 04' 34.00'' Est, 49° 26' 28.00'' Nord";"60057";;"2 R DU DR MAGNIER";"60000";"BEAUVAIS";"Immeuble"; 50.0;"Société HLM"
442658;2.45778;49.20278;"02° 27' 28.00'' Est, 49° 12' 10.00'' Nord";"60282";;"CHEM RURAL N°14 DE GOUVIEUX A SENLIS TERRAIN DE PÉTANQUE";"60270";"GOUVIEUX";"Pylône autostable"; 34.3;"SFR"
443037;2.48167;49.27278;"02° 28' 54.00'' Est, 49° 16' 22.00'' Nord";"60463";;"AV DE L'EUROPE TOUR DE LA VALLÉE";"60180";"NOGENT-SUR-OISE";"Immeuble"; 33.0;"Société HLM"
443043;2.87111;49.47861;"02° 52' 16.00'' Est, 49° 28' 43.00'' Nord";"60636";;"4 R JEAN MOULIN";"60150";"THOUROTTE";"Immeuble"; 25.0;"Société HLM"
443105;2.86278;49.09333;"02° 51' 46.00'' Est, 49° 05' 36.00'' Nord";"60101";"LE CHEM DE NANTEUIL";"PRES DE LA RD 29 ZI";"60440";"BREGY";"Pylône autostable"; 32.1;"FPS TOWERS"
445533;2.59528;49.21944;"02° 35' 43.00'' Est, 49° 13' 10.00'' Nord";"60138";;"CHEM RURAL N°18 CHAUSSÉE PONTPOINT";"60300";"CHAMANT";"Pylône tubulaire"; 26.0;"ORANGE"
446998;2.66000;49.29917;"02° 39' 36.00'' Est, 49° 17' 57.00'' Nord";"60508";"CAVÉE ROFFIAC";;"60700";"PONTPOINT";"Pylône autostable"; 32.0;"ORANGE"
447344;2.46444;49.19167;"02° 27' 52.00'' Est, 49° 11' 30.00'' Nord";"60141";;"25 R DU MAL JOFFRE";"60500";"CHANTILLY";"Immeuble"; 30.0;"Copropriété, Syndic, SCI"
447440;2.53639;49.31056;"02° 32' 11.00'' Est, 49° 18' 38.00'' Nord";"60154";"MONTAGNE DE ROC";;"60940";"CINQUEUX";"Pylône autostable"; 36.0;"SFR"
447924;2.13083;49.23056;"02° 07' 51.00'' Est, 49° 13' 50.00'' Nord";"60395";;"1 ROCADE DES ACACIAS";"60110";"MERU";"Immeuble"; 49.0;"Société HLM"
448202;2.09500;49.32194;"02° 05' 42.00'' Est, 49° 19' 19.00'' Nord";"60453";"BOIS DE MOLLE";"RUE VERTE";"60790";"LA NEUVILLE-D'AUMONT";"Pylône autostable"; 57.0;"TDF"
449588;2.06139;49.41139;"02° 03' 41.00'' Est, 49° 24' 41.00'' Nord";"60703";"BUTTE DES MARAIS";;"60000";"AUX MARAIS";"Pylône autostable"; 57.0;"TDF"
449632;2.55833;49.12889;"02° 33' 30.00'' Est, 49° 07' 44.00'' Nord";"60494";"LE PRÉ BOUCHER";"ECH PARC ASTÉRIX - THIERS/THEVES A A1 - P.R. 32.7 SENS LILLE - PARIS";"60128";"PLAILLY";"Pylône autostable"; 45.0;"Sociétés d'Autoroutes"
451121;2.32528;49.31806;"02° 19' 31.00'' Est, 49° 19' 05.00'' Nord";"60439";;"R LÉON BOHARD STADE DE FOOTBALL";"60250";"MOUY";"Pylône tubulaire"; 30.0;"ORANGE"
451193;2.59833;49.26111;"02° 35' 54.00'' Est, 49° 15' 40.00'' Nord";"60238";"FERME ST CHRISTOPHE";"R DU PRIEURE";"60700";"FLEURINES";"Pylône autostable"; 45.0;"SFR"
451268;2.88750;49.43833;"02° 53' 15.00'' Est, 49° 26' 18.00'' Nord";"60151";"LA PASSIONNETTE";"CHEM RURAL N° 16 DIT DU CHÂTELET";"60750";"CHOISY-AU-BAC";"Pylône autostable"; 43.0;"TDF"
451413;2.09417;49.43722;"02° 05' 39.00'' Est, 49° 26' 14.00'' Nord";"60057";;"15 AV JEAN MOULIN  TOUR A16";"60000";"BEAUVAIS";"Immeuble"; 46.2;"Société HLM"
451801;2.88583;49.22667;"02° 53' 09.00'' Est, 49° 13' 36.00'' Nord";"60176";;"15 AV KENNEDY IMM SILOVA";"60800";"CREPY-EN-VALOIS";"Immeuble"; 46.0;"Société HLM"
454566;2.43000;49.15111;"02° 25' 48.00'' Est, 49° 09' 04.00'' Nord";"60346";"LA GROSSE AULNE";"CHAUSSÉE DE BERTINVAL STADE MUNICIPAL";"60260";"LAMORLAYE";"Pylône tubulaire"; 30.0;"Commune, communauté de commune"
455415;2.43944;49.49778;"02° 26' 22.00'' Est, 49° 29' 52.00'' Nord";"60581";;"206 R DE PARIS SERVICES TECHNIQUES";"60130";"SAINT-JUST-EN-CHAUSSEE";"Pylône tubulaire"; 30.0;"Commune, communauté de commune"
455465;2.31028;49.34639;"02° 18' 37.00'' Est, 49° 20' 47.00'' Nord";"60317";"LA TINETTE - LA CROIX BLANCHE";"CHEM VICINAL N°3 D'HONDAINVILLE À THURY-SOUS-CLERMONT";"60250";"HONDAINVILLE";"Pylône autostable"; 29.0;"FPS TOWERS"
457128;2.46167;49.37972;"02° 27' 42.00'' Est, 49° 22' 47.00'' Nord";"60106";;"R ANDRE POMMERY ZI BREUIL LE SEC";"60840";"BREUIL-LE-SEC";"Bâtiment"; 18.0;"Société Privée SA"
457286;2.88500;49.16639;"02° 53' 06.00'' Est, 49° 09' 59.00'' Nord";"60079";"LE FOSSE CAMARD";;"60440";"BOISSY-FRESNOY";"Pylône autostable"; 27.0;"FPS TOWERS"
457305;2.30778;49.31806;"02° 18' 28.00'' Est, 49° 19' 05.00'' Nord";"60439";"LA CROIX JACQUES BUCQUET";"CHEM RURAL 76";"60250";"MOUY";"Pylône autostable"; 40.0;"SFR"
457441;2.99556;49.58389;"02° 59' 44.00'' Est, 49° 35' 02.00'' Nord";"60471";;"R DU FAUBOURG D'AMIENS TOUR LYONNAISE DES EAUX";"60400";"NOYON";"Immeuble"; 22.0;"Commune, communauté de commune"
457661;2.25306;49.36139;"02° 15' 11.00'' Est, 49° 21' 41.00'' Nord";"60313";"LES MAILLETS - LA CARRIÈRE";"RÉSERVOIR COMMUNAL";"60370";"HERMES";"Pylône autostable"; 34.5;"ORANGE"
457818;2.57583;49.48472;"02° 34' 33.00'' Est, 49° 29' 05.00'' Nord";"60456";;"R DU STADE CHÂTEAU D'EAU";"60190";"LANEUVILLEROY";"Château d'eau - réservoir"; 28.0;"Commune, communauté de commune"
459423;2.05111;49.29833;"02° 03' 04.00'' Est, 49° 17' 54.00'' Nord";"60652";"LE CHEM DE MÉRU";"V COMMUNALE N°5 DE VALDAMPIERRE À MONTHERLAND";"60790";"VALDAMPIERRE";"Pylône autostable"; 29.0;"FPS TOWERS"
459729;1.87556;49.33361;"01° 52' 32.00'' Est, 49° 20' 01.00'' Nord";"60660";"LA CÔTE DU BOHON";"RD 153";"60590";"LE VAUMAIN";"Pylône autostable"; 24.0;"FPS TOWERS"
460161;2.72583;49.23611;"02° 43' 33.00'' Est, 49° 14' 10.00'' Nord";"60560";;"R DU CH D'EAU";"60810";"RULLY";"Château d'eau - réservoir"; 33.0;"Commune, communauté de commune"
460809;2.79306;49.39611;"02° 47' 35.00'' Est, 49° 23' 46.00'' Nord";"60159";;"4 R PIERRE ET MARIE CURIE";"60200";"COMPIEGNE";"Immeuble"; 43.0;"Société HLM"
461539;2.09917;49.43694;"02° 05' 57.00'' Est, 49° 26' 13.00'' Nord";"60057";"LES CHAMPS DOLENTS";"AV JEAN MOULIN - PL DE FRANCE CHÂTEAU D'EAU ARGENTINE";"60000";"BEAUVAIS";"Château d'eau - réservoir"; 70.0;"Commune, communauté de commune"
462009;2.79167;49.14083;"02° 47' 30.00'' Est, 49° 08' 27.00'' Nord";"60446";;"RD 922 RTE DE MONTAGNY";"60440";"NANTEUIL-LE-HAUDOUIN";"Silo"; 60.0;"Société Privée SA"
462529;2.83444;49.19583;"02° 50' 04.00'' Est, 49° 11' 45.00'' Nord";"60479";"L'EMPRUNT";"CHEM DE VERSIGNY STADE DE FOOTBALL";"60800";"ORMOY-VILLERS";"Pylône tubulaire"; 30.0;"ORANGE"
462646;2.59556;49.20556;"02° 35' 44.00'' Est, 49° 12' 20.00'' Nord";"60612";;"49 AV GEORGES CLEMENCEAU SILO VALFRANCE";"60300";"SENLIS";"Silo"; 51.0;"Société Privée SA"
463071;2.69417;49.27250;"02° 41' 39.00'' Est, 49° 16' 21.00'' Nord";"60680";;"RUE DES  JONCQUILLES D.100 - A1 - SENS L/P  PK 53";"60410";"VILLENEUVE-SUR-VERBERIE";"Pylône autostable"; 52.0;"Sociétés d'Autoroutes"
463072;2.50528;49.22639;"02° 30' 19.00'' Est, 49° 13' 35.00'' Nord";"60022";;"ROUTE DU CONNÉTABLE";"60300";"APREMONT";"Pylône haubané"; 56.0;"Particulier"
463172;2.61417;49.38333;"02° 36' 51.00'' Est, 49° 22' 60.00'' Nord";"60078";"LA MARLIERE";"R DES TILLEULS-CHATEAU D'EAU";"60190";"BLINCOURT";"Château d'eau - réservoir"; 28.0;"Commune, communauté de commune"
463180;2.39667;49.50139;"02° 23' 48.00'' Est, 49° 30' 05.00'' Nord";"60581";"TROUÉE DE NOURARD";"PRÈS D.938";"60130";"SAINT-JUST-EN-CHAUSSEE";"Pylône haubané"; 203.0;"TDF"
463614;2.09028;49.26583;"02° 05' 25.00'' Est, 49° 15' 57.00'' Nord";"60570";"LE BOIS DE CAMP";"R DU CHEM QUI TROTTE";"60149";"SAINT-CREPIN-IBOUVILLERS";"Château d'eau - réservoir"; 40.0;"Société Privée SA"
463650;2.20417;49.20833;"02° 12' 15.00'' Est, 49° 12' 30.00'' Nord";"60088";"LE ROUGE MONT";"RTE D'ANSERVILLE CH D'EAU DE LA LANDETTE";"60540";"BORNEL";"Château d'eau - réservoir"; 35.0;"Société Privée SA"
463728;2.59944;49.29528;"02° 35' 58.00'' Est, 49° 17' 43.00'' Nord";"60509";;"4 PL DES TILLEULS BAT A2";"60700";"PONT-SAINTE-MAXENCE";"Immeuble"; 40.5;"Société Privée SA"
464198;1.97556;49.31194;"01° 58' 32.00'' Est, 49° 18' 43.00'' Nord";"60327";"LE CHEM DU MESNIL";"D.129 TERRAIN DE LA COOPÉRATIVE FORCE 5";"60240";"JOUY-SOUS-THELLE";"Pylône autostable"; 47.0;"SFR"
465290;2.32722;49.31778;"02° 19' 38.00'' Est, 49° 19' 04.00'' Nord";"60439";;"60 R LÉON BOHARD";"60250";"MOUY";"Silo"; 46.0;"Société Privée SA"
465371;2.07833;49.41556;"02° 04' 42.00'' Est, 49° 24' 56.00'' Nord";"60057";"AGEL";"2 ALL JOHAN STRAUSS IMM G6 (OPAC OISE)";"60000";"BEAUVAIS";"Immeuble"; 23.0;"Société HLM"
465752;2.57806;49.38944;"02° 34' 41.00'' Est, 49° 23' 22.00'' Nord";"60036";;"77 RTE DE PICARDIE";"60190";"AVRIGNY";"Silo"; 50.0;"Société Privée SA"
466504;2.20944;49.51917;"02° 12' 34.00'' Est, 49° 31' 09.00'' Nord";"60535";;"BOIS DE LA DAME";"60480";"REUIL-SUR-BRECHE";"Château d'eau - réservoir"; 47.0;"Syndicat des eaux, Adduction"
468334;2.85222;49.44444;"02° 51' 08.00'' Est, 49° 26' 40.00'' Nord";"60156";"MONT GANELON";"CHEM DE LA PIERRE MEGALITHIQUE TOUR TDF";"60280";"CLAIROIX";"Pylône autostable"; 49.0;"TDF"
469055;2.68972;49.53167;"02° 41' 23.00'' Est, 49° 31' 54.00'' Nord";"60351";"MONTAGNE DE LATAULE";;"60490";"LATAULE";"Pylône autostable"; 63.0;"EDF GDF"
470179;2.46444;49.23972;"02° 27' 52.00'' Est, 49° 14' 23.00'' Nord";"60589";;"405 R HENRI BESSEMER";"60740";"SAINT-MAXIMIN";"Bâtiment"; 21.0;"Société Privée SA"
470436;2.37361;49.40306;"02° 22' 25.00'' Est, 49° 24' 11.00'' Nord";"60007";;"CHEM RURAL DES MEUNIERS";"60600";"AGNETZ";"Pylône autostable"; 45.0;"TDF"
470647;2.43167;49.50611;"02° 25' 54.00'' Est, 49° 30' 22.00'' Nord";"60581";;"R DE BEAUVAIS ÉGLISE";"60130";"SAINT-JUST-EN-CHAUSSEE";"Monument religieux"; 43.3;"Commune, communauté de commune"
473827;2.51667;49.55694;"02° 30' 60.00'' Est, 49° 33' 25.00'' Nord";"60374";;"R. DE CREVECOEUR";"60420";"MAIGNELAY-MONTIGNY";"Pylône tubulaire"; 26.0;"ORANGE"
474161;2.89278;49.50861;"02° 53' 34.00'' Est, 49° 30' 31.00'' Nord";"60119";"LE CLOS";"CHEM RURAL N°5";"60170";"CAMBRONNE-LES-RIBECOURT";"Pylône autostable"; 24.0;"BOUYGUES"
474647;1.98861;49.49889;"01° 59' 19.00'' Est, 49° 29' 56.00'' Nord";"60403";"LES PRÉS DES FORGES";"STATION D'EPURATION";"60112";"MILLY-SUR-THERAIN";"Pylône autostable"; 44.0;"ORANGE"
475134;2.57056;49.20611;"02° 34' 14.00'' Est, 49° 12' 22.00'' Nord";"60612";;"PL JEAN DAVIDSEN";"60300";"SENLIS";"Immeuble"; 25.0;"Société Privée SA"
476588;2.84611;49.42889;"02° 50' 46.00'' Est, 49° 25' 44.00'' Nord";"60159";;"11 AV LOUIS BARBILLON";"60200";"COMPIEGNE";"Pylône autostable"; 30.0;"ORANGE"
477431;2.74194;49.39167;"02° 44' 31.00'' Est, 49° 23' 30.00'' Nord";"60326";"LE MONT D'HUETTE";;"60680";"JONQUIERES";"Pylône haubané"; 56.0;"Towercast"
479321;2.29306;49.18694;"02° 17' 35.00'' Est, 49° 11' 13.00'' Nord";"60398";"BOIS DE MONPERREUX";;"60530";"LE MESNIL-EN-THELLE";"Pylône autostable"; 34.0;"SFR"
480122;2.39889;49.34139;"02° 23' 56.00'' Est, 49° 20' 29.00'' Nord";"60451";;"CHEM RURAL DIT CAVÉE DES CARRIÈRES PYLÔNE SFR";"60290";"NEUILLY-SOUS-CLERMONT";"Pylône autostable"; 35.0;"SFR"
483305;2.81889;49.41583;"02° 49' 08.00'' Est, 49° 24' 57.00'' Nord";"60159";;"1 R ROGER COUTTOLENC";"60200";"COMPIEGNE";"Immeuble"; 36.0;"Etat, Ministère"
483441;2.80639;49.40972;"02° 48' 23.00'' Est, 49° 24' 35.00'' Nord";"60159";"LES JARDINS";"2, SQ HECTOR BERLIOZ IMM DE LA RÉSIDENCE";"60200";"COMPIEGNE";"Immeuble"; 53.0;"Société HLM"
483561;2.04389;49.48500;"02° 02' 38.00'' Est, 49° 29' 06.00'' Nord";"60646";;"R DES CARDONNETTES ZA DES SOTTISES";"60112";"TROISSEREUX";"Pylône tubulaire"; 18.0;"ORANGE"
483695;2.46000;49.27806;"02° 27' 36.00'' Est, 49° 16' 41.00'' Nord";"60463";;"1 R FAIDHERBE PARKING DU CHÂTEAU DES ROCHERS";"60180";"NOGENT-SUR-OISE";"Pylône tubulaire"; 29.0;"ORANGE"
483701;2.49028;49.27222;"02° 29' 25.00'' Est, 49° 16' 20.00'' Nord";"60463";;"5 R DU CLOS BARROIS STÉ NORMANDE DE CARTON ONDULÉ (SNCO), ZA DU MARAIS";"60180";"NOGENT-SUR-OISE";"Pylône tubulaire"; 30.0;"SFR"
483705;2.23194;49.19889;"02° 13' 55.00'' Est, 49° 11' 56.00'' Nord";"60060";"LE BOIS ST LADRE";"RN1";"60540";"BELLE-EGLISE";"Pylône autostable"; 30.0;"SFR"
483742;2.75222;49.15917;"02° 45' 08.00'' Est, 49° 09' 33.00'' Nord";"60671";"LE BUISSON ST CYR";"CHEM LA RENARDIÈRE";"60440";"VERSIGNY";"Pylône autostable"; 36.0;"TDF"
484631;2.91972;49.52083;"02° 55' 11.00'' Est, 49° 31' 15.00'' Nord";"60537";"LE CHEM VERT";;"60170";"RIBECOURT-DRESLINCOURT";"Pylône autostable"; 34.0;"FPS TOWERS"
485046;3.08556;49.13528;"03° 05' 08.00'' Est, 49° 08' 07.00'' Nord";"60380";"LE CLOS ROGRET";"CHEM DU STADE LE STADE";"60890";"MAREUIL-SUR-OURCQ";"Pylône autostable"; 45.0;"SFR"
485176;2.82444;49.43389;"02° 49' 28.00'' Est, 49° 26' 02.00'' Nord";"60382";"LES OUINELLES";"CHEM RURAL DU BOSQUET DE L'EGLISE PYLONE TDF";"60280";"MARGNY-LES-COMPIEGNE";"Pylône autostable"; 42.0;"TDF"
486011;2.11611;49.43083;"02° 06' 58.00'' Est, 49° 25' 51.00'' Nord";"60057";;"GIRATOIRE DE CLERMONT N31 PARKING DU STADE PIERRE BRISSON";"60000";"BEAUVAIS";"Pylône tubulaire"; 22.0;"ORANGE"
486850;2.46639;49.33417;"02° 27' 59.00'' Est, 49° 20' 03.00'' Nord";"60360";"LA GARENNE";"R DU 8 MAI 1945 STADE MUNICIPAL";"60140";"LIANCOURT";"Pylône autostable"; 30.0;"ORANGE"
487056;2.25917;49.41583;"02° 15' 33.00'' Est, 49° 24' 57.00'' Nord";"60103";"LE BOUT DE LA R GRAULT";"R JOSEPH ARNAL - PRÈS N.31";"60510";"BRESLES";"Pylône autostable"; 45.0;"SFR"
487171;2.80222;49.30472;"02° 48' 08.00'' Est, 49° 18' 17.00'' Nord";"60068";"LES ECAILLERES";"CHEM COMMUNAL";"60320";"BETHISY-SAINT-PIERRE";"Pylône autostable"; 28.0;"TDF"
487203;2.64083;49.27944;"02° 38' 27.00'' Est, 49° 16' 46.00'' Nord";"60508";"MONT PAGNOTTE";"RTE DU MONT PAGNOTTE CHEM D'IVILLERS STATION HERTZIENNE TDF";"60700";"PONTPOINT";"Tour hertzienne"; 48.0;"TDF"
489582;2.28944;49.21833;"02° 17' 22.00'' Est, 49° 13' 06.00'' Nord";"60450";;"CHEM DE LA PROCESSION SUD";"60530";"NEUILLY-EN-THELLE";"Pylône autostable"; 44.2;"ORANGE Services Fixes"
492070;2.09500;49.32194;"02° 05' 42.00'' Est, 49° 19' 19.00'' Nord";"60453";;"3 R VERTE BOIS DE MOLLE";"60790";"LA NEUVILLE-D'AUMONT";"Tour hertzienne"; 40.0;"TDF"
492118;2.34972;49.31167;"02° 20' 59.00'' Est, 49° 18' 42.00'' Nord";"60116";"LA CAVEE FORTIN";"PRES DE LA RD 137 STADE MUNICIPAL";"60250";"BURY";"Pylône autostable"; 32.0;"TDF"
492327;2.42694;49.18444;"02° 25' 37.00'' Est, 49° 11' 04.00'' Nord";"60282";;"AV FRANÇOIS MATHET CHATEAU DE MONTVILLARGENE";"60270";"GOUVIEUX";"Bâtiment"; 25.0;"Copropriété, Syndic, SCI"
492686;1.83056;49.19500;"01° 49' 50.00'' Est, 49° 11' 42.00'' Nord";"60293";"BOIS DE LA MOLIERE";"CH. COM. N°1 DE LA RN 15 À SERANS";"60240";"HADANCOURT-LE-HAUT-CLOCHER";"Tour hertzienne"; 75.0;"TDF"
492730;2.44972;49.39056;"02° 26' 59.00'' Est, 49° 23' 26.00'' Nord";"60106";"LE POIRIER BARAS";"CHEM RURAL DE FITZ JAMES À NOIRTEL";"60840";"BREUIL-LE-SEC";"Pylône autostable"; 42.0;"TDF"
492777;2.12556;49.23194;"02° 07' 32.00'' Est, 49° 13' 55.00'' Nord";"60395";;"RUE DU 8 MAI 1945 RÉSERVOIR D'HENONVILLE";"60110";"MERU";"Château d'eau - réservoir"; 49.4;"Syndicat des eaux, Adduction"
494062;2.17000;49.26139;"02° 10' 12.00'' Est, 49° 15' 41.00'' Nord";"60012";"LE CLOS ST PIERRE";"R DES SPORTS";"60570";"ANDEVILLE";"Pylône autostable"; 33.0;"FPS TOWERS"
494069;2.08361;49.43278;"02° 05' 01.00'' Est, 49° 25' 58.00'' Nord";"60057";;"2 R ST LAURENT LA POSTE";"60000";"BEAUVAIS";"Bâtiment"; 24.0;"La Poste"
494209;2.50861;49.12889;"02° 30' 31.00'' Est, 49° 07' 44.00'' Nord";"60482";;"R D'HERVIAUX";"60560";"ORRY-LA-VILLE";"Château d'eau - réservoir"; 33.0;"Commune, communauté de commune"
495342;2.68528;49.31167;"02° 41' 07.00'' Est, 49° 18' 42.00'' Nord";"60508";"MORU";"CHEM DU MOULIN DE LA PLAINE MONT PAGNOTTE";"60700";"PONTPOINT";"Pylône autostable"; 48.0;"TDF"
496203;2.69028;49.10444;"02° 41' 25.00'' Est, 49° 06' 16.00'' Nord";"60666";"CANTON DES CHATAIGNERS";"PRÈS DÉPARTEMENTALE 84 PYLÔNE TDF";"60950";"VER-SUR-LAUNETTE";"Pylône autostable"; 37.0;"TDF"
497292;2.96722;49.56556;"02° 58' 02.00'' Est, 49° 33' 56.00'' Nord";"60348";"CHAMP CORNU";"PRÈS NATIONALE 32";"60400";"LARBROYE";"Pylône autostable"; 43.0;"TDF"
498445;2.79444;49.29722;"02° 47' 40.00'' Est, 49° 17' 50.00'' Nord";"60068";;"145 R NERY";"60320";"BETHISY-SAINT-PIERRE";"Bâtiment"; 15.0;"Particulier"
499382;2.26528;49.27333;"02° 15' 55.00'' Est, 49° 16' 24.00'' Nord";"60651";"CUILLER A POT";"RTE DE MOULINCOURT";"60730";"ULLY-SAINT-GEORGES";"Pylône autostable"; 35.0;"BOUYGUES"
501283;2.91389;49.68444;"02° 54' 50.00'' Est, 49° 41' 04.00'' Nord";"60474";"LES PÄTURES";"RD 24 CH D'EAU";"60310";"OGNOLLES";"Château d'eau - réservoir"; 27.5;"Syndicat des eaux, Adduction"
502232;2.08806;49.44111;"02° 05' 17.00'' Est, 49° 26' 28.00'' Nord";"60057";;"R LOUIS BOREL";"60000";"BEAUVAIS";"Château d'eau - réservoir"; 52.6;"Commune, communauté de commune"
504526;2.99861;49.66889;"02° 59' 55.00'' Est, 49° 40' 08.00'' Nord";"60255";;"R DE FRETOY TERRAIN DE SPORT COMMUNAL ( CD 39 )";"60640";"FRENICHES";"Pylône autostable"; 41.6;"SFR"
507256;3.08806;49.59056;"03° 05' 17.00'' Est, 49° 35' 26.00'' Nord";"60037";"LA RUELLE FURCY";"V COM. N°1 DE BABOEUF";"60400";"BABOEUF";"Pylône autostable"; 35.0;"FPS TOWERS"
509529;2.02361;49.43583;"02° 01' 25.00'' Est, 49° 26' 09.00'' Nord";"60428";"LES COUTUMES";;"60650";"LE MONT-SAINT-ADRIEN";"Pylône autostable"; 28.0;"FPS TOWERS"
510699;2.75389;49.20583;"02° 45' 14.00'' Est, 49° 12' 21.00'' Nord";"60261";"LA MONTAGNE";;"60800";"FRESNOY-LE-LUAT";"Pylône autostable"; 32.0;"FPS TOWERS"
512654;2.10389;49.43333;"02° 06' 14.00'' Est, 49° 25' 60.00'' Nord";"60057";;"23 R DES VIGNES";"60000";"BEAUVAIS";"Immeuble"; 24.0;"Société HLM"
512681;2.52000;49.34944;"02° 31' 12.00'' Est, 49° 20' 58.00'' Nord";"60332";"LES PRES DE L'EGLISE";;"60140";"LABRUYERE";"Pylône autostable"; 35.0;"FPS TOWERS"
516701;2.01806;49.33111;"02° 01' 05.00'' Est, 49° 19' 52.00'' Nord";"60054";"LES FROIDS VENTS";"CHEM DE BEAUMONT LES NONAINS A VILLOTRAN";"60390";"BEAUMONT-LES-NONAINS";"Pylône autostable"; 40.0;"BOUYGUES"
516730;2.71639;49.30028;"02° 42' 59.00'' Est, 49° 18' 01.00'' Nord";"60667";"LA PLAINE ST GERMAIN";"CHEM DU RHUIS AU BÂTON ROYAL";"60410";"VERBERIE";"Pylône autostable"; 30.0;"FPS TOWERS"
517502;1.78389;49.35167;"01° 47' 02.00'' Est, 49° 21' 06.00'' Nord";"60616";"CIMETIÈRE AUX CHEVAUX";"CHEM RURAL DIT DES ELAGUIS EMPRISE DU SILO FORCE 5";"60590";"SERIFONTAINE";"Pylône autostable"; 45.5;"SFR"
517701;2.61278;49.34361;"02° 36' 46.00'' Est, 49° 20' 37.00'' Nord";"60050";"LES SABLONS";"D.13 - R DE COMPIEGNE";"60700";"BAZICOURT";"Château d'eau - réservoir"; 43.3;"Commune, communauté de commune"
520438;2.98778;49.35250;"02° 59' 16.00'' Est, 49° 21' 09.00'' Nord";"60491";"FONTENOY";;"60350";"PIERREFONDS";"Pylône autostable"; 33.5;"TDF"
521587;2.46944;49.40694;"02° 28' 10.00'' Est, 49° 24' 25.00'' Nord";"60215";;"CHEM DU MOULIN";"60600";"ERQUERY";"Pylône autostable"; 22.0;"FPS TOWERS"
522870;2.19500;49.32583;"02° 11' 42.00'' Est, 49° 19' 33.00'' Nord";"60462";;"33 AV DU GYMNASE";"60430";"NOAILLES";"Immeuble"; 26.0;"Société HLM"
524162;3.01139;49.47472;"03° 00' 41.00'' Est, 49° 28' 29.00'' Nord";"60641";"LA VESNE";"R DE LA VESNE CIMETIÈRE";"60170";"TRACY-LE-MONT";"Pylône tubulaire"; 33.0;"FPS TOWERS"
524467;2.82250;49.51722;"02° 49' 21.00'' Est, 49° 31' 02.00'' Nord";"60206";"LE JONCQUOY";"STADE MUN D'ELINCOURT STE MARGUERITE";"60157";"ELINCOURT-SAINTE-MARGUERITE";"Pylône autostable"; 30.0;"FPS TOWERS"
527362;2.55056;49.14972;"02° 33' 02.00'' Est, 49° 08' 59.00'' Nord";"60505";"BOIS DU MINISTRE";"CHEM DES VACHES";"60520";"PONTARME";"Château d'eau - réservoir"; 34.0;"Commune, communauté de commune"
527530;2.20722;49.36472;"02° 12' 26.00'' Est, 49° 21' 53.00'' Nord";"60685";"CLOS DE BULLE";;"60134";"VILLERS-SAINT-SEPULCRE";"Pylône autostable"; 17.0;"Particulier"
527572;2.69861;49.39861;"02° 41' 55.00'' Est, 49° 23' 55.00'' Nord";"60125";;"A.1- GARE DE PÉAGE D'ARSY - PK 66 - SENS PARIS-LILLE PYL. SANEF";"60680";"CANLY";"Pylône autostable"; 60.7;"Sociétés d'Autoroutes"
530600;1.93194;49.66194;"01° 55' 55.00'' Est, 49° 39' 43.00'' Nord";"60286";;"DÉPARTEMENTALE 124-RTE DE ROUEN PYLONE TDF CENTRALE TELEPHONIQUE";"60210";"GRANDVILLIERS";"Pylône autostable"; 53.0;"TDF"
532095;2.48389;49.32139;"02° 29' 02.00'' Est, 49° 19' 17.00'' Nord";"60669";"MONTAGNE DE LA CARRIÈRE";"PRÈS D.632";"60140";"VERDERONNE";"Pylône autostable"; 40.0;"Commune, communauté de commune"
532235;2.94611;49.16083;"02° 56' 46.00'' Est, 49° 09' 39.00'' Nord";"60069";"LE MORTAS";"CHEM DE MACQUELINES";"60620";"BETZ";"Château d'eau - réservoir"; 31.0;"Commune, communauté de commune"
532242;2.82361;49.40556;"02° 49' 25.00'' Est, 49° 24' 20.00'' Nord";"60159";;"71 R DU GÉNÉRAL MANGIN";"60200";"COMPIEGNE";"Immeuble"; 23.0;"Société HLM"
535944;2.36333;49.27528;"02° 21' 48.00'' Est, 49° 16' 31.00'' Nord";"60393";;"R DE L'AVENIR";"60660";"MELLO";"Pylône autostable"; 23.0;"ORANGE"
537337;2.99556;49.58389;"02° 59' 44.00'' Est, 49° 35' 02.00'' Nord";"60471";;"5 R DU FAUBOURG D AMIENS USINE D EAU POTABLE";"60400";"NOYON";"Bâtiment"; 10.0;"Particulier"
537341;3.02500;49.64000;"03° 01' 30.00'' Est, 49° 38' 24.00'' Nord";"60291";;"D 552 STATION DE POMPAGE  RIMBERCOURT";"60640";"GUISCARD";"Bâtiment"; 6.0;"Commune, communauté de commune"
537954;2.47917;49.19361;"02° 28' 45.00'' Est, 49° 11' 37.00'' Nord";"60141";;"16 R CONNETABLE GRANDES ECURIES  MUSÉE";"60500";"CHANTILLY";"Monument historique"; 27.0;"Association"
537984;2.68722;49.12778;"02° 41' 14.00'' Est, 49° 07' 40.00'' Nord";"60213";;"CHEM RURAL N°8";"60950";"ERMENONVILLE";"Pylône tubulaire"; 28.0;"ORANGE"
538366;2.06083;49.41194;"02° 03' 39.00'' Est, 49° 24' 43.00'' Nord";"60703";"BUTTE DES MARAIS";;"60000";"AUX MARAIS";"Pylône autostable"; 35.0;"Towercast"
539067;1.93028;49.49306;"01° 55' 49.00'' Est, 49° 29' 35.00'' Nord";"60359";"BOIS DAVESNE";"CHEM RURAL N° 1";"60650";"LHERAULE";"Pylône autostable"; 36.0;"SFR"
539138;2.78389;49.36000;"02° 47' 02.00'' Est, 49° 21' 36.00'' Nord";"60338";;"15 R F. MEUNIER-ZONE ARTIZANALE";"60610";"LACROIX-SAINT-OUEN";"Pylône autostable"; 35.0;"FPS TOWERS"
544918;2.48556;49.19361;"02° 29' 08.00'' Est, 49° 11' 37.00'' Nord";"60141";;"CHATEAU DE CHANTILLY";"60500";"CHANTILLY";"Monument historique"; 16.0;"Association"
545842;2.43583;49.32472;"02° 26' 09.00'' Est, 49° 19' 29.00'' Nord";"60524";"LA MONTAGNE";"LE MUID DU PRETRE";"60290";"RANTIGNY";"Pylône autostable"; 38.0;"ORANGE"
546180;2.85472;49.43889;"02° 51' 17.00'' Est, 49° 26' 20.00'' Nord";"60156";;"RN 32 STATION D EPURATION";"60280";"CLAIROIX";"Bâtiment"; 4.0;"Particulier"
546406;2.44972;49.29278;"02° 26' 59.00'' Est, 49° 17' 34.00'' Nord";"60342";;"RTE DE NOGENT SUR OISE/ANCIEN ETS DESNOYER";"60290";"LAIGNEVILLE";"Immeuble"; 24.7;"Commune, communauté de commune"
546694;3.02056;49.58250;"03° 01' 14.00'' Est, 49° 34' 57.00'' Nord";"60471";;"625 BD DU MONT ST SIMÉON IMM OPAC LES CÈDRES";"60400";"NOYON";"Immeuble"; 17.0;"Société HLM"
546741;2.88528;49.47278;"02° 53' 07.00'' Est, 49° 28' 22.00'' Nord";"60636";;"2 CHEM RURAL DIT DE LA GARENNE STATION DE POMPAGE";"60150";"THOUROTTE";"Bâtiment"; 8.0;"Particulier"
546928;2.75778;49.32056;"02° 45' 28.00'' Est, 49° 19' 14.00'' Nord";"60667";"LA MAIN FERMEE";"RTE DE ST- SAUVEUR CHEM VICINAL N°5";"60410";"VERBERIE";"Pylône autostable"; 46.0;"SFR"
547457;3.05750;49.57806;"03° 03' 27.00'' Est, 49° 34' 41.00'' Nord";"60603";"LE COURTILLET";"CHEM DE LA STATION D'ÉPURATION";"60400";"SALENCY";"Pylône autostable"; 32.0;"ORANGE"
547897;2.50083;49.54611;"02° 30' 03.00'' Est, 49° 32' 46.00'' Nord";"60374";"LES BIBELOTS";"VC N°102";"60420";"MAIGNELAY-MONTIGNY";"Pylône autostable"; 24.0;"ORANGE"
548012;2.35917;49.54861;"02° 21' 33.00'' Est, 49° 32' 55.00'' Nord";"60701";;"R DE LA HERCHERIE STADE";"60130";"WAVIGNIES";"Pylône tubulaire"; 20.0;"ORANGE"
549854;2.44167;49.45389;"02° 26' 30.00'' Est, 49° 27' 14.00'' Nord";"60034";"ARGENLIEU";"R DU CHÂTEAU D'EAU";"60130";"AVRECHY";"Château d'eau - réservoir"; 53.0;"Syndicat des eaux, Adduction"
549885;1.78111;49.41972;"01° 46' 52.00'' Est, 49° 25' 11.00'' Nord";"60516";"LE FOND DU GRAND TREU";"CHEM RURAL DE PUISEUX EN BRAY AU MONT DE FLY";"60850";"PUISEUX-EN-BRAY";"Pylône autostable"; 27.0;"SFR"
551017;3.03583;49.11722;"03° 02' 09.00'' Est, 49° 07' 02.00'' Nord";"60448";;"FERME DE CHENEVIERES RD 20";"60890";"NEUFCHELLES";"Pylône tubulaire"; 32.0;"FPS TOWERS"
553274;2.33528;49.32917;"02° 20' 07.00'' Est, 49° 19' 45.00'' Nord";"60116";"LES CARRIÈRES";"CHEM. RURAL LES CARRIÈRES";"60250";"BURY";"Pylône tubulaire"; 25.0;"ORANGE"
553328;2.71583;49.52222;"02° 42' 57.00'' Est, 49° 31' 20.00'' Nord";"60533";;"A.1 - PÉAGE DE RESSONS/ST-MAUR";"60490";"RESSONS-SUR-MATZ";"Pylône autostable"; 60.0;"Sociétés d'Autoroutes"
553608;2.52056;49.20694;"02° 31' 14.00'' Est, 49° 12' 25.00'' Nord";"60695";"LA REMISE COUPÉE";"CHEM DES POISSONNIERS";"60500";"VINEUIL-SAINT-FIRMIN";"Pylône tubulaire"; 25.0;"ORANGE"
553812;2.57111;49.13472;"02° 34' 16.00'' Est, 49° 08' 05.00'' Nord";"60494";;"PARC ASTÉRIX BP 8";"60128";"PLAILLY";"Bâtiment"; 42.0;"Société Privée SA"
554415;2.63722;49.43111;"02° 38' 14.00'' Est, 49° 25' 52.00'' Nord";"60223";;"R DU JEU D'ARC PRES DE LA RD 36 TERRAIN DE SPORT";"60190";"ESTREES-SAINT-DENIS";"Pylône autostable"; 36.0;"TDF"
554501;1.78750;49.45194;"01° 47' 15.00'' Est, 49° 27' 07.00'' Nord";"60577";"LA BUCAILLE";"R MARCEL GREUET";"60850";"SAINT-GERMER-DE-FLY";"Pylône autostable"; 18.0;"ORANGE"
554770;2.60194;49.30167;"02° 36' 07.00'' Est, 49° 18' 06.00'' Nord";"60509";;"R CLAUDE CHAPPE CENTRAL TÉLÉPHONIQUE";"60700";"PONT-SAINTE-MAXENCE";"Bâtiment"; 18.0;"ORANGE Services Fixes"
555084;2.43639;49.21667;"02° 26' 11.00'' Est, 49° 13' 00.00'' Nord";"60589";"LES DORMANTS";;"60740";"SAINT-MAXIMIN";"Pylône autostable"; 34.0;"ORANGE"
555164;2.67056;49.14306;"02° 40' 14.00'' Est, 49° 08' 35.00'' Nord";"60213";"MER DE SABLE";"RN 330-PARC D'ATTRACTION DE LA MER DE SABLE";"60950";"ERMENONVILLE";"Pylône autostable"; 37.0;"SFR"
555348;2.49833;49.28583;"02° 29' 54.00'' Est, 49° 17' 09.00'' Nord";"60684";;"VOIE DU CHAUDRON STADE";"60870";"VILLERS-SAINT-PAUL";"Pylône autostable"; 30.0;"Commune, communauté de commune"
555966;2.73694;49.58917;"02° 44' 13.00'' Est, 49° 35' 21.00'' Nord";"60071";"LES PRÉS GONBEAUX";"RD 15";"60490";"BIERMONT";"Pylône autostable"; 37.0;"SFR"
559881;2.43083;49.38000;"02° 25' 51.00'' Est, 49° 22' 48.00'' Nord";"60157";;"R DE LA BRÈCHE ADM. : 118 AV DES DÉPORTÉS";"60600";"CLERMONT";"Pylône autostable"; 30.0;"ORANGE"
560035;2.59167;49.10306;"02° 35' 30.00'' Est, 49° 06' 11.00'' Nord";"60494";;"R DE BÉTHLÉEM COMPLEXE SPORTIF";"60128";"PLAILLY";"Pylône tubulaire"; 34.0;"SFR"
560214;2.63917;49.11694;"02° 38' 21.00'' Est, 49° 07' 01.00'' Nord";"60666";;"CHEM RURAL N° 22 DE LOISY À ST SULPICE";"60950";"VER-SUR-LAUNETTE";"Pylône autostable"; 46.0;"SFR"
565157;2.14583;49.28639;"02° 08' 45.00'' Est, 49° 17' 11.00'' Nord";"60330";"LE CALVAIRE";"CHEM RURAL DIT LA ROQUETTE";"60570";"LABOISSIERE-EN-THELLE";"Pylône tubulaire"; 20.0;"SFR"
571007;2.96500;49.65278;"02° 57' 54.00'' Est, 49° 39' 10.00'' Nord";"60121";"ECLUSE 16";"LE PRÉ DE BEZU";"60640";"CAMPAGNE";"Bâtiment"; 6.0;"Voies navigables de France"
571029;2.96972;49.61889;"02° 58' 11.00'' Est, 49° 37' 08.00'' Nord";"60617";"ECLUSE 17 D HAUDIVAL";"R DE LA CROISETTE";"60400";"SERMAIZE";"Bâtiment"; 6.0;"Voies navigables de France"
571043;2.98417;49.56528;"02° 59' 03.00'' Est, 49° 33' 55.00'' Nord";"60506";"ECLUSE N 18 DE PONT L EVEQUE";"R DU MONT RENARD";"60400";"PONT-L'EVEQUE";"Bâtiment"; 6.0;"Voies navigables de France"
571045;2.98583;49.57417;"02° 59' 09.00'' Est, 49° 34' 27.00'' Nord";"60471";"ECLUSE 19 DE NOYON";;"60400";"NOYON";"Bâtiment"; 6.0;"Voies navigables de France"
576053;2.40250;49.37472;"02° 24' 09.00'' Est, 49° 22' 29.00'' Nord";"60157";"BOIS DU FAY";"R DE BELLEVUE";"60600";"CLERMONT";"Pylône autostable"; 49.0;"ORANGE Services Fixes"
579406;2.47528;49.18917;"02° 28' 31.00'' Est, 49° 11' 21.00'' Nord";"60141";"HIPPODROME (TRIBUNE)";"ROUTE DU PESAGE";"60500";"CHANTILLY";"Bâtiment"; 30.0;"Société Privée SA"
579604;2.16000;49.46528;"02° 09' 36.00'' Est, 49° 27' 55.00'' Nord";"60081";;"AIRE DE REPOS LE GRAND BOIS";"60510";"BONLIER";"Pylône autostable"; 37.0;"Sociétés d'Autoroutes"
579626;2.47111;49.24833;"02° 28' 16.00'' Est, 49° 14' 54.00'' Nord";"60175";;"3 BD GABRIELLE HAVEZ CENTRAL TÉLÉPHONIQUE";"60100";"CREIL";"Pylône autostable"; 68.0;"ORANGE Services Fixes"
583142;2.81583;49.47361;"02° 48' 57.00'' Est, 49° 28' 25.00'' Nord";"60273";"LES SABLES";"CHEM RURAL N°7 DIT DU GUET/DES SABLES";"60150";"GIRAUMONT";"Pylône autostable"; 30.0;"SFR"
584477;3.00222;49.40500;"03° 00' 08.00'' Est, 49° 24' 18.00'' Nord";"60188";"LA FOSSE MARCHAND";"C.R 21 DIT VOIRIE DU MONT FERMÉ";"60350";"CUISE-LA-MOTTE";"Château d'eau - réservoir"; 33.0;"Commune, communauté de commune"
585796;2.10222;49.44778;"02° 06' 08.00'' Est, 49° 26' 52.00'' Nord";"60057";;"AV PAUL HENRI SPAAK PARKING ELISPACE";"60000";"BEAUVAIS";"Pylône autostable"; 22.0;"ORANGE"
585961;1.73611;49.65611;"01° 44' 10.00'' Est, 49° 39' 22.00'' Nord";"60245";;"R DU BOIS BOIS DE FORMERIE";"60220";"FORMERIE";"Pylône autostable"; 30.0;"ORANGE Services Fixes"
589235;2.60194;49.30222;"02° 36' 07.00'' Est, 49° 18' 08.00'' Nord";"60509";;"QUAI AUGUSTE DESCHAMPS";"60700";"PONT-SAINTE-MAXENCE";"Bâtiment"; 15.0;"Commune, communauté de commune"
591167;2.98806;49.17417;"02° 59' 17.00'' Est, 49° 10' 27.00'' Nord";"60190";;"R DE L 'EGLISE";"60620";"CUVERGNON";"Monument religieux"; 29.0;"Commune, communauté de commune"
591959;2.82472;49.41028;"02° 49' 29.00'' Est, 49° 24' 37.00'' Nord";"60159";;"28 R DES SABLONS";"60200";"COMPIEGNE";"Immeuble"; 17.0;"Société Privée SA"
591960;2.82444;49.41056;"02° 49' 28.00'' Est, 49° 24' 38.00'' Nord";"60159";;"59 R. DE CLAMART RÉS LES SABLONS";"60200";"COMPIEGNE";"Immeuble"; 19.0;"Société Privée SA"
595120;2.21972;49.64583;"02° 13' 11.00'' Est, 49° 38' 45.00'' Nord";"60692";"LES SAULES";"RD 34";"60120";"VILLERS-VICOMTE";"Pylône autostable"; 30.0;"TDF"
595565;1.94306;49.35639;"01° 56' 35.00'' Est, 49° 21' 23.00'' Nord";"60319";;"ALLÉE DE LA POSTE ROUTE NATIONALE 181";"60390";"LA HOUSSOYE";"Pylône autostable"; 41.0;"ORANGE Services Fixes"
597208;3.11056;49.18361;"03° 06' 38.00'' Est, 49° 11' 01.00'' Nord";"60385";"PRÉCY À MONT";"RUELLE ST JEAN";"60890";"MAROLLES";"Pylône autostable"; 37.6;"TDF"
611990;1.88139;49.26611;"01° 52' 53.00'' Est, 49° 15' 58.00'' Nord";"60143";"L'AILLERIE";"CHEM RURAL DIT DE LA FONTAINE SALÉE BUTTE DU CHATEAU";"60240";"CHAUMONT-EN-VEXIN";"Pylône autostable"; 42.0;"ORANGE Services Fixes"
612799;2.20583;49.29000;"02° 12' 21.00'' Est, 49° 17' 24.00'' Nord";"60575";"CAMPAGNE DU BOIS L'HÔTEL DIEU";"R DU CIMETIÈRE (CH. RURAL N° 20) CHEM RURAL N°20";"60730";"SAINTE-GENEVIEVE";"Château d'eau - réservoir"; 60.0;"Commune, communauté de commune"
617911;2.88667;49.23167;"02° 53' 12.00'' Est, 49° 13' 54.00'' Nord";"60176";;"BLD VICTOR HUGO CENTRAL F.T";"60800";"CREPY-EN-VALOIS";"Pylône autostable"; 23.0;"ORANGE Services Fixes"
618292;2.29083;49.59583;"02° 17' 27.00'' Est, 49° 35' 45.00'' Nord";"60565";;"CH DU BOIS DE CALMONT";"60480";"SAINT-ANDRE-FARIVILLERS";"Château d'eau - réservoir"; 54.0;"Syndicat des eaux, Adduction"
621816;2.69639;49.43194;"02° 41' 47.00'' Est, 49° 25' 55.00'' Nord";"60531";;"400 R D'ARSY LE CHEM DE CANLY PRÈS A1";"60190";"REMY";"Pylône autostable"; 33.0;"FPS TOWERS"
627782;2.42528;49.25028;"02° 25' 31.00'' Est, 49° 15' 01.00'' Nord";"60635";"CLOS DES VIGNES";"R VICTOR HUGO STADE DE THIVERNY";"60160";"THIVERNY";"Tour hertzienne"; 47.0;"TDF"
629170;2.91694;49.19750;"02° 55' 01.00'' Est, 49° 11' 51.00'' Nord";"60358";;"R DE PARIS";"60800";"LEVIGNEN";"Château d'eau - réservoir"; 40.1;"Commune, communauté de commune"
632287;1.80583;49.53250;"01° 48' 21.00'' Est, 49° 31' 57.00'' Nord";"60114";"ENTRE LES BOIS";"VOIE COMMUNALE N°4 D'HAINCOURT";"60380";"BUICOURT";"Pylône autostable"; 35.0;"ORANGE"
636995;2.20444;49.28528;"02° 12' 16.00'' Est, 49° 17' 07.00'' Nord";"60575";;"R DE LA CHAPELLE TERRAIN DE FOOTBALL";"60730";"SAINTE-GENEVIEVE";"Pylône tubulaire"; 32.0;"ORANGE"
642258;2.84111;49.15750;"02° 50' 28.00'' Est, 49° 09' 27.00'' Nord";"60489";"LES EPINETTES";"CHEM RURAL N°19 DIT DU GOUFFRE V.C N°6 DE LA RN.2";"60440";"PEROY-LES-GOMBRIES";"Pylône tubulaire"; 30.0;"ORANGE"
643600;1.81833;49.44583;"01° 49' 06.00'' Est, 49° 26' 45.00'' Nord";"60577";"LA TÊTE DE MOUSSE";"R DES USINES HAMEAU DE GUILLENFOSSE";"60850";"SAINT-GERMER-DE-FLY";"Pylône autostable"; 40.0;"SFR"
645551;2.52028;49.54861;"02° 31' 13.00'' Est, 49° 32' 55.00'' Nord";"60374";;"R ST MARTIN";"60420";"MAIGNELAY-MONTIGNY";"Château d'eau - réservoir"; 36.0;"Commune, communauté de commune"
648017;2.70056;49.35222;"02° 42' 02.00'' Est, 49° 21' 08.00'' Nord";"60369";;"AIRE DE LONGUEIL STE MARIE / PYLÔNE SANEF 10 A1 LILLE-PARIS PK 61.450";"60126";"LONGUEIL-SAINTE-MARIE";"Pylône autostable"; 40.4;"Sociétés d'Autoroutes"
658443;2.46194;49.18333;"02° 27' 43.00'' Est, 49° 10' 60.00'' Nord";"60141";;"3, AV DE VERDUN";"60500";"CHANTILLY";"Immeuble"; 38.3;"Copropriété, Syndic, SCI"
663629;2.44917;49.16361;"02° 26' 57.00'' Est, 49° 09' 49.00'' Nord";"60346";"CHATEAU DE BROGLIE";"COTÉ LA COTE";"60260";"LAMORLAYE";"Immeuble"; 16.0;"Particulier"
664379;2.70472;49.32361;"02° 42' 17.00'' Est, 49° 19' 25.00'' Nord";"60369";"LES GRANDES MALMÈRES";"D.156 STATION DE POMPAGE";"60126";"LONGUEIL-SAINTE-MARIE";"Pylône autostable"; 40.0;"ORANGE"
664383;1.78444;49.35528;"01° 47' 04.00'' Est, 49° 21' 19.00'' Nord";"60616";"BOIS MARIE";"CHEM RURAL DIT DE LA SOLE";"60590";"SERIFONTAINE";"Pylône autostable"; 30.0;"ORANGE Services Fixes"
665818;2.99306;49.23556;"02° 59' 35.00'' Est, 49° 14' 08.00'' Nord";"60661";"LA PATTE D'OIE";"CHEM COMMUNAL DE LA PATTE D'OIE";"60117";"VAUMOISE";"Pylône autostable"; 44.0;"TDF"
665860;1.87278;49.52083;"01° 52' 22.00'' Est, 49° 31' 15.00'' Nord";"60298";"LE RONDAIN";"CHEM VICINAL ORDINAIRE 7 DIT DE LA R MANOISE P";"60650";"HANVOILE";"Pylône autostable"; 34.3;"TDF"
668515;1.85472;49.55472;"01° 51' 17.00'' Est, 49° 33' 17.00'' Nord";"60623";"LES FONDS DE SONGEONS";"ROUTE DE MORVILLERS";"60380";"SONGEONS";"Pylône autostable"; 30.0;"ORANGE"
672687;1.73667;49.41778;"01° 44' 12.00'' Est, 49° 25' 04.00'' Nord";"60592";"LES BOULARDS";"CHEM D'EXPLOITATION  LES FRÈRES JEAN";"60850";"SAINT-PIERRE-ES-CHAMPS";"Pylône autostable"; 45.0;"SFR"
676992;1.74167;49.24694;"01° 44' 30.00'' Est, 49° 14' 49.00'' Nord";"60095";"LA VIGNE BLANCHE";"CHEM RURAL N°2 DE BOURY EN VEXIN À GISORS DIT DE R";"60240";"BOURY-EN-VEXIN";"Pylône autostable"; 20.0;"SFR"
677011;3.09694;49.53944;"03° 05' 49.00'' Est, 49° 32' 22.00'' Nord";"60189";"LES PRÈS DE LA GALETTE";"R DU JONQUOY LE BAS";"60400";"CUTS";"Pylône tubulaire"; 30.0;"Commune, communauté de commune"
677724;2.19278;49.55722;"02° 11' 34.00'' Est, 49° 33' 26.00'' Nord";"60465";"LES VINGT MINES";"AUTOROUTE A16";"60480";"NOIREMONT";"Pylône autostable"; 47.0;"Sociétés d'Autoroutes"
681634;2.73917;49.13278;"02° 44' 21.00'' Est, 49° 07' 58.00'' Nord";"60413";;"R PORTE DU BARON";"60950";"MONTAGNY-SAINTE-FELICITE";"Château d'eau - réservoir"; 29.0;"Syndicat des eaux, Adduction"
691034;2.23028;49.57250;"02° 13' 49.00'' Est, 49° 34' 21.00'' Nord";"60265";"L'ARGILIERE";"N1 VERS BRETEUIL A COTE TERRAIN DE SPORT";"60480";"FROISSY";"Château d'eau - réservoir"; 50.0;"Commune, communauté de commune"
693907;2.86472;49.45472;"02° 51' 53.00'' Est, 49° 27' 17.00'' Nord";"60323";;"9 VC ILE JEAN LENOBLE PORT DE JANVILLE";"60150";"JANVILLE";"Pylône tubulaire"; 26.0;"ORANGE"
694933;2.42528;49.50778;"02° 25' 31.00'' Est, 49° 30' 28.00'' Nord";"60581";;"2 B R DE PICARDIE";"60130";"SAINT-JUST-EN-CHAUSSEE";"Immeuble"; 16.3;"Société HLM"
697031;2.75472;49.09750;"02° 45' 17.00'' Est, 49° 05' 51.00'' Nord";"60500";;"R DES ACACIAS ENCLOS DE POCLAIN";"60330";"LE PLESSIS-BELLEVILLE";"Pylône autostable"; 27.7;"ORANGE Services Fixes"
698343;1.82639;49.28861;"01° 49' 35.00'' Est, 49° 17' 19.00'' Nord";"60644";;"LA TUILERIE";"60590";"TRIE-CHATEAU";"Pylône autostable"; 32.0;"SFR"
698371;1.72222;49.66583;"01° 43' 20.00'' Est, 49° 39' 57.00'' Nord";"60076";;"CHÂTEAU D'EAU FERME DE VALLABONNET";"60220";"BLARGIES";"Château d'eau - réservoir"; 34.2;"Commune, communauté de commune"
699037;2.23389;49.16472;"02° 14' 02.00'' Est, 49° 09' 53.00'' Nord";"60139";;"165 R PIERRE CURIE";"60230";"CHAMBLY";"Pylône autostable"; 30.0;"ORANGE"
699810;2.30278;49.62944;"02° 18' 10.00'' Est, 49° 37' 46.00'' Nord";"60104";;"CHEM DE CHEPOIX 17 À 38 CA SIS TERROIR DE BRETEUIL";"60120";"BRETEUIL";"Pylône autostable"; 45.0;"SFR"
706229;2.56111;49.55167;"02° 33' 40.00'' Est, 49° 33' 06.00'' Nord";"60158";"BOSQUET TAYARD";"R DU MOULIN À HUILE PYLÔNE FT";"60420";"COIVREL";"Pylône haubané"; 42.0;"ORANGE Services Fixes"
707254;2.12028;49.41139;"02° 07' 13.00'' Est, 49° 24' 41.00'' Nord";"60057";;"4 R ARAGO ZAC DU THER - ETS RICHE ET SÉBASTIEN";"60000";"BEAUVAIS";"Pylône autostable"; 27.0;"ORANGE"
707256;2.08250;49.45222;"02° 04' 57.00'' Est, 49° 27' 08.00'' Nord";"60057";"BASSE MONTAGNE";"CHEM RURAL DIT DES GALLETS";"60000";"BEAUVAIS";"Pylône autostable"; 15.0;"ORANGE"
707259;2.08000;49.42111;"02° 04' 48.00'' Est, 49° 25' 16.00'' Nord";"60057";;"2 R. CHARLES FAUQUEUX";"60000";"BEAUVAIS";"Bâtiment"; 22.0;"Société HLM"
707265;2.09472;49.41944;"02° 05' 41.00'' Est, 49° 25' 10.00'' Nord";"60057";;"93 R DE PARIS QUARTIER VOISINLIEU";"60000";"BEAUVAIS";"Pylône autostable"; 50.0;"TDF"
707267;2.06139;49.43111;"02° 03' 41.00'' Est, 49° 25' 52.00'' Nord";"60057";;"R DE L'AVELON (ANCIENNE R DU GÉNÉRAL KOENIG)";"60000";"BEAUVAIS";"Pylône autostable"; 38.0;"SFR"
707270;2.08778;49.44806;"02° 05' 16.00'' Est, 49° 26' 53.00'' Nord";"60057";;"18 R RENÉ FONCK";"60000";"BEAUVAIS";"Immeuble"; 28.0;"Société HLM"
707292;2.10778;49.42056;"02° 06' 28.00'' Est, 49° 25' 14.00'' Nord";"60057";;"AV JF KENNEDY STATION D'EPURATION LE THER";"60000";"BEAUVAIS";"Pylône tubulaire"; 30.0;"SFR"
707904;2.70667;49.46583;"02° 42' 24.00'' Est, 49° 27' 57.00'' Nord";"60424";"LE FOND DE LAGNY";"A1 EMPRISE AUTOROUTIÈRE SANEF PR 74.3";"60190";"MONTMARTIN";"Pylône autostable"; 40.0;"Sociétés d'Autoroutes"
707950;2.61139;49.20833;"02° 36' 41.00'' Est, 49° 12' 30.00'' Nord";"60612";"LE MURGUET";"A1 - SENS LILLE/PARIS ZONE DE PÉAGE SORTIE N°8";"60300";"SENLIS";"Pylône autostable"; 49.0;"Sociétés d'Autoroutes"
712398;2.48417;49.26083;"02° 29' 03.00'' Est, 49° 15' 39.00'' Nord";"60175";"TOUR CARPEAUX";"98 R JEAN BAPTISTE CARPEAUX";"60100";"CREIL";"Immeuble"; 55.0;"Société HLM"
714008;2.26306;49.26000;"02° 15' 47.00'' Est, 49° 15' 36.00'' Nord";"60651";"CAVILLON LE MARLY";"CHEM RURAL DIT DU DERRIERE DE CAVILLON";"60730";"ULLY-SAINT-GEORGES";"Pylône autostable"; 55.0;"TDF"
715468;2.46333;49.32806;"02° 27' 48.00'' Est, 49° 19' 41.00'' Nord";"60360";;"31 R VICTOR HUGO RUE AUGUSTE LUMIÈRE";"60140";"LIANCOURT";"Immeuble"; 39.0;"Société HLM"
716051;2.46250;49.18222;"02° 27' 45.00'' Est, 49° 10' 56.00'' Nord";"60141";;"7 AV VERDUN";"60500";"CHANTILLY";"Immeuble"; 37.0;"Société Privée SA"
719060;1.97528;49.36444;"01° 58' 31.00'' Est, 49° 21' 52.00'' Nord";"60029";"LE POINT DU JOUR PRÉS DU VILLA";"CHEM. RURAL LA VIEILLE RTE PRÉS DU CARR. ENTRE RD 3 &";"60390";"AUNEUIL";"Pylône autostable"; 45.0;"SFR"
719290;2.47639;49.25000;"02° 28' 35.00'' Est, 49° 15' 00.00'' Nord";"60175";;"2 RTE RTE DE CHANTILLY";"60100";"CREIL";"Pylône autostable"; 33.0;"BOUYGUES"
727664;3.08500;49.47639;"03° 05' 06.00'' Est, 49° 28' 35.00'' Nord";"60445";"LA PLAINE DE PUISSEUX";"RD 145";"60400";"NAMPCEL";"Château d'eau - réservoir"; 33.9;"Syndicat des eaux, Adduction"
727894;3.00528;49.57472;"03° 00' 19.00'' Est, 49° 34' 29.00'' Nord";"60471";;"176 R DU MONCHEL IMM OPAC";"60400";"NOYON";"Immeuble"; 20.0;"Société HLM"
728434;2.06861;49.24333;"02° 04' 07.00'' Est, 49° 14' 36.00'' Nord";"60678";"LA CÔTE DE MARIVAUX";;"60175";"VILLENEUVE-LES-SABLONS";"Pylône autostable"; 30.0;"SFR"
728467;2.99583;49.57361;"02° 59' 45.00'' Est, 49° 34' 25.00'' Nord";"60471";;"VC 18 CLUB D'ARCHIERIE DE NOYON";"60400";"NOYON";"Pylône tubulaire"; 20.0;"ORANGE"
728734;2.45056;49.38444;"02° 27' 02.00'' Est, 49° 23' 04.00'' Nord";"60106";"LE CHAMP BOUFFAUT";;"60600";"BREUIL-LE-SEC";"Pylône haubané"; 20.0;"DDE"
728746;2.79667;49.13667;"02° 47' 48.00'' Est, 49° 08' 12.00'' Nord";"60446";"LA CROIX D'ANDELLE";;"60440";"NANTEUIL-LE-HAUDOUIN";"Pylône haubané"; 20.0;"DDE"
731681;2.22222;49.18806;"02° 13' 20.00'' Est, 49° 11' 17.00'' Nord";"60060";;"17 R NATIONALE";"60540";"BELLE-EGLISE";"Immeuble"; 10.0;"Société Privée SA"
731725;2.06222;49.56194;"02° 03' 44.00'' Est, 49° 33' 43.00'' Nord";"60077";"LARRIS DES MOULINS";"CHEM COMMUNAL DES FRIONS";"60860";"BLICOURT";"Pylône autostable"; 26.0;"FPS TOWERS"
734704;3.03000;49.50583;"03° 01' 48.00'' Est, 49° 30' 21.00'' Nord";"60129";"LA HAUTE PENSEE";"CHEM DES ROSETTES";"60170";"CARLEPONT";"Pylône tubulaire"; 30.0;"SFR"
735716;2.07306;49.60583;"02° 04' 23.00'' Est, 49° 36' 21.00'' Nord";"60178";;"R VICTOR HUGO";"60360";"CREVECOEUR-LE-GRAND";"Château d'eau - réservoir"; 53.5;"Commune, communauté de commune"
737998;2.41722;49.57361;"02° 25' 02.00'' Est, 49° 34' 25.00'' Nord";"60268";;"CHEM VICINAL ORDINAIRE N°5 DE GANNES À BRETEUIL";"60120";"GANNES";"Pylône autostable"; 30.0;"SFR"
739602;2.19722;49.64139;"02° 11' 50.00'' Est, 49° 38' 29.00'' Nord";"60163";;"11 R DE L ÉGLISE CAMPING DE CORMEILLES";"60120";"CORMEILLES";"Pylône autostable"; 33.0;"ORANGE"
739972;2.80139;49.54278;"02° 48' 05.00'' Est, 49° 32' 34.00'' Nord";"60379";"LES RUELLE DES VIGNES";;"60490";"MAREUIL-LA-MOTTE";"Pylône autostable"; 15.0;"SFR"
745341;2.32667;49.58556;"02° 19' 36.00'' Est, 49° 35' 08.00'' Nord";"60565";"L'ÉPINE AU PUITS";"CHEM RURAL DE FARIVILLERS";"60480";"SAINT-ANDRE-FARIVILLERS";"Pylône autostable"; 30.0;"ORANGE"
745534;3.02111;49.57528;"03° 01' 16.00'' Est, 49° 34' 31.00'' Nord";"60471";;"CHEM D'HESDIN VOIE COMMUNALE N° 2 STADE DE RUGBY";"60400";"NOYON";"Pylône autostable"; 20.0;"ORANGE"
747309;2.58417;49.37972;"02° 35' 03.00'' Est, 49° 22' 47.00'' Nord";"60152";"LES TRENTE MINES";"D.111 - R DES ECOLES";"60190";"CHOISY-LA-VICTOIRE";"Château d'eau - réservoir"; 26.0;"Commune, communauté de commune"
748539;2.34611;49.28111;"02° 20' 46.00'' Est, 49° 16' 52.00'' Nord";"60155";"LES CAILLOUX LESAGE";"CHEM COMMUNAL N°17";"60660";"CIRES-LES-MELLO";"Pylône autostable"; 37.0;"9 CEGETEL"
748968;2.31278;49.35833;"02° 18' 46.00'' Est, 49° 21' 30.00'' Nord";"60638";"FILLERVAL";"R DU LAVOIR  CTRE DE FILLERVAL";"60250";"THURY-SOUS-CLERMONT";"Monument historique"; 15.0;"Copropriété, Syndic, SCI"
750961;1.96111;49.57556;"01° 57' 40.00'' Est, 49° 34' 32.00'' Nord";"60387";"AU DESSUS DE LA VIGNE";"D.930";"60690";"MARSEILLE-EN-BEAUVAISIS";"Pylône autostable"; 48.0;"TDF"
751587;2.82500;49.42361;"02° 49' 30.00'' Est, 49° 25' 25.00'' Nord";"60382";;"PL DE LA GARE GARE DE COMPIÈGNE - PYLÔNE SNCF";"60280";"MARGNY-LES-COMPIEGNE";"Pylône autostable"; 31.0;"SNCF Réseau"
754983;1.85556;49.26972;"01° 51' 20.00'' Est, 49° 16' 11.00'' Nord";"60143";"CHATEAU DE BERTICHERES";;"60240";"CHAUMONT-EN-VEXIN";"Bâtiment"; 14.4;"BOUYGUES"
755041;2.30528;49.62972;"02° 18' 19.00'' Est, 49° 37' 47.00'' Nord";"60104";;"30 R MONTDIDIER";"60120";"BRETEUIL";"Bâtiment"; 31.9;"Particulier"
755401;2.77611;49.18972;"02° 46' 34.00'' Est, 49° 11' 23.00'' Nord";"60546";;"GRANDE RUE PROCHE DU CHATEAU D EAU";"60440";"ROSIERES";"Mât"; 10.0;"Société Privée SA"
755608;2.58306;49.56000;"02° 34' 59.00'' Est, 49° 33' 36.00'' Nord";"60643";;"RTE DE LA TOUR DE VILLE";"60420";"TRICOT";"Château d'eau - réservoir"; 33.0;"Syndicat des eaux, Adduction"
762014;2.73222;49.54000;"02° 43' 56.00'' Est, 49° 32' 24.00'' Nord";"60533";;"ZI DU CHEVREUIL BUREAUX";"60490";"RESSONS-SUR-MATZ";"Bâtiment"; 8.0;"Société Privée SA"
762016;2.73222;49.54000;"02° 43' 56.00'' Est, 49° 32' 24.00'' Nord";"60533";;"ZI DU CHEVREUIL SALLE DE TELECONDUITE";"60490";"RESSONS-SUR-MATZ";"Bâtiment"; 8.0;"Société Privée SA"
762018;2.74444;49.53472;"02° 44' 40.00'' Est, 49° 32' 05.00'' Nord";"60533";;"R DU JEU DE PAUME POSTE SOURCE";"60490";"RESSONS-SUR-MATZ";"Bâtiment"; 6.0;"Société Privée SA"
762020;2.51944;49.55167;"02° 31' 10.00'' Est, 49° 33' 06.00'' Nord";"60374";;"R GEORGES NORMAND ACCUEIL";"60420";"MAIGNELAY-MONTIGNY";"Bâtiment"; 6.0;"Société Privée SA"
762022;2.52806;49.55444;"02° 31' 41.00'' Est, 49° 33' 16.00'' Nord";"60374";;"R DE LA MADELEINE POSTE SOURCE";"60420";"MAIGNELAY-MONTIGNY";"Bâtiment"; 6.0;"Société Privée SA"
762030;2.93194;49.20500;"02° 55' 55.00'' Est, 49° 12' 18.00'' Nord";"60358";;"RD 20 N2 LA FEMME MORTE POSTE DP BASCULE";"60800";"LEVIGNEN";"Bâtiment"; 4.0;"Société Privée SA"
762032;2.91556;49.19889;"02° 54' 56.00'' Est, 49° 11' 56.00'' Nord";"60358";;"IMP COQUELICOT POSTE DP CHOUFFOUR";"60800";"LEVIGNEN";"Bâtiment"; 4.0;"Société Privée SA"
762034;2.99750;49.17944;"02° 59' 51.00'' Est, 49° 10' 46.00'' Nord";"60190";;"R DES MARRONNIERS POSTE HTA";"60620";"CUVERGNON";"Bâtiment"; 4.0;"Société Privée SA"
762036;3.01667;49.23083;"03° 00' 60.00'' Est, 49° 13' 51.00'' Nord";"60658";;"BUISSON AUX LOUPS PASSAGE NIVEAU POSTE DP PN";"60117";"VAUCIENNES";"Bâtiment"; 4.0;"Société Privée SA"
762038;2.99667;49.26222;"02° 59' 48.00'' Est, 49° 15' 44.00'' Nord";"60672";;"D32 LE MARAIS DE VEZ POSTE DP POIDS LOURDS";"60117";"VEZ";"Bâtiment"; 4.0;"Société Privée SA"
762040;2.77611;49.18972;"02° 46' 34.00'' Est, 49° 11' 23.00'' Nord";"60546";;"GRANDE RUE PROCHE DU CHATEAU D EAU";"60440";"ROSIERES";"Pylône autostable"; 14.0;"Société Privée SA"
764073;1.81806;49.66806;"01° 49' 05.00'' Est, 49° 40' 05.00'' Nord";"60405";"PLEUVILLE";"DÉPARTEMENTAL 70";"60220";"MOLIENS";"Pylône autostable"; 36.0;"ORANGE"
764802;2.89306;49.48000;"02° 53' 35.00'' Est, 49° 28' 48.00'' Nord";"60636";;"BD HENRI BARBUSSE ACCUEIL";"60150";"THOUROTTE";"Bâtiment"; 6.0;"Société Privée SA"
764808;2.88778;49.53750;"02° 53' 16.00'' Est, 49° 32' 15.00'' Nord";"60126";;"FERME DE LA CARMOYE ECOUVILLON";"60310";"CANNECTANCOURT";"Pylône autostable"; 70.0;"Société Privée SA"
767801;2.53333;49.23556;"02° 31' 60.00'' Est, 49° 14' 08.00'' Nord";"60022";"LE BOIS DE PRÉCY";"N. 330";"60300";"APREMONT";"Pylône autostable"; 32.0;"ORANGE"
769724;2.84389;49.42333;"02° 50' 38.00'' Est, 49° 25' 24.00'' Nord";"60159";;"15 R ALBERT ROBIDA";"60200";"COMPIEGNE";"Pylône autostable"; 35.0;"Commune, communauté de commune"
774072;2.57083;49.19861;"02° 34' 15.00'' Est, 49° 11' 55.00'' Nord";"60612";;"1 SQUARE DU HARAS RES ANTILOPE";"60300";"SENLIS";"Immeuble"; 15.0;"Société HLM"
779904;3.05667;49.37083;"03° 03' 24.00'' Est, 49° 22' 15.00'' Nord";"60305";"LES TERRES À L'ARGENT";"CHEM RURAL DE HAUTEFONTAINE À JAULZY";"60350";"HAUTEFONTAINE";"Pylône autostable"; 45.0;"SFR"
779951;2.06500;49.66917;"02° 03' 54.00'' Est, 49° 40' 09.00'' Nord";"60397";;"CD N°97 DE MARSEILLE EN BEAUVAISIS PRES DE LA RD 932";"60210";"LE MESNIL-CONTEVILLE";"Château d'eau - réservoir"; 34.2;"Syndicat des eaux, Adduction"
779955;1.90028;49.43583;"01° 54' 01.00'' Est, 49° 26' 09.00'' Nord";"60567";"LES FONTAINETTES";"INTERSECTION N.31/D.22";"60650";"SAINT-AUBIN-EN-BRAY";"Pylône autostable"; 45.0;"SFR"
783232;2.23278;49.35444;"02° 13' 58.00'' Est, 49° 21' 16.00'' Nord";"60065";;"R DU STADE PYLÔNE RTE";"60370";"BERTHECOURT";"Pylône autostable"; 51.0;"RTE"
785185;2.90472;49.62778;"02° 54' 17.00'' Est, 49° 37' 40.00'' Nord";"60124";"LES PRES PINETS";"FERME LE CLOS MARIE BONNE D544";"60310";"CANDOR";"Pylône autostable"; 30.0;"ORANGE"
787886;2.95028;49.30750;"02° 57' 01.00'' Est, 49° 18' 27.00'' Nord";"60430";"BUISSON FÉLIX";"CHEM VICINAL DE COMPIÈGNE À MORIENVAL. HAMEAU DE BRASSOIR";"60127";"MORIENVAL";"Pylône autostable"; 45.0;"SFR"
787916;2.32694;49.29500;"02° 19' 37.00'' Est, 49° 17' 42.00'' Nord";"60044";"AU DESSUS DU BOIS BRI";;"60250";"BALAGNY-SUR-THERAIN";"Pylône autostable"; 31.7;"ORANGE"
788993;2.30556;49.63611;"02° 18' 20.00'' Est, 49° 38' 10.00'' Nord";"60104";"LES CHANDELLES";"D.28 - R DU GÉNÉRAL LECLERC";"60120";"BRETEUIL";"Pylône autostable"; 30.0;"ORANGE Services Fixes"
791790;2.51417;49.27278;"02° 30' 51.00'' Est, 49° 16' 22.00'' Nord";"60670";"LES TOURELLES";"R DE L'EGALITÉ";"60550";"VERNEUIL-EN-HALATTE";"Pylône autostable"; 34.0;"TDF"
795959;1.98722;49.69972;"01° 59' 14.00'' Est, 49° 41' 59.00'' Nord";"60194";"LE VILLAGE";"R DU GARTOIR";"60210";"DARGIES";"Château d'eau - réservoir"; 38.0;"Commune, communauté de commune"
797483;2.22000;49.68083;"02° 13' 12.00'' Est, 49° 40' 51.00'' Nord";"60082";"LE BOIS GRIAUME";;"60120";"BONNEUIL-LES-EAUX";"Pylône autostable"; 35.0;"SFR"
797493;2.50444;49.27389;"02° 30' 16.00'' Est, 49° 16' 26.00'' Nord";"60670";"LES PRÉS LES LIEUX";"INERIS PARC TECHNOLOGIQUE ALATA";"60550";"VERNEUIL-EN-HALATTE";"Bâtiment"; 25.4;"SFR"
797511;2.34056;49.41111;"02° 20' 26.00'' Est, 49° 24' 40.00'' Nord";"60366";;"LA TERRIÈRE CHEM RURAL DE LITZ À CLERMONT";"60510";"LITZ";"Pylône autostable"; 36.0;"SFR"
797543;2.84500;49.59167;"02° 50' 42.00'' Est, 49° 35' 30.00'' Nord";"60350";;"CHEM DÉPARTEMENTAL N° 76 CHÂTEAU D'EAU DE LASSIGNY";"60310";"LASSIGNY";"Pylône autostable"; 45.0;"SFR"
798506;2.55944;49.17083;"02° 33' 34.00'' Est, 49° 10' 15.00'' Nord";"60505";"FORÊT DE PONTARME";"PRÈS N.17";"60520";"PONTARME";"Pylône tubulaire"; 12.0;"ORANGE"
799687;2.08861;49.40278;"02° 05' 19.00'' Est, 49° 24' 10.00'' Nord";"60009";"LES GRANDES VIGNES";"CHEM DE BEAUVAIS D93";"60000";"ALLONNE";"Pylône autostable"; 15.0;"ORANGE"
800180;2.57083;49.12972;"02° 34' 15.00'' Est, 49° 07' 47.00'' Nord";"60494";;"PARC ASTÉRIX - HOTEL DES TROIS HIBOUX ENTRE SORTIE 7 ET 8";"60128";"PLAILLY";"Pylône autostable"; 12.0;"SFR"
800225;2.97306;49.40139;"02° 58' 23.00'' Est, 49° 24' 05.00'' Nord";"60647";;"R DU 8 MAI";"60350";"TROSLY-BREUIL";"Pylône autostable"; 23.0;"TDF"
800487;2.49694;49.35639;"02° 29' 49.00'' Est, 49° 21' 23.00'' Nord";"60332";;"BOIS DE LABRUYERE";"60140";"LABRUYERE";"Pylône autostable"; 48.0;"Société Privée SA"
801577;2.65528;49.17167;"02° 39' 19.00'' Est, 49° 10' 18.00'' Nord";"60087";"FORET DE BOREST";"RN 330   PRÈS MAISON FORESTIÈRE";"60300";"BOREST";"Pylône tubulaire"; 27.0;"ORANGE"
801751;2.51639;49.37667;"02° 30' 59.00'' Est, 49° 22' 36.00'' Nord";"60130";;"R DE LA GARE GARE SNCF";"60840";"CATENOY";"Pylône autostable"; 30.0;"ORANGE"
802115;2.98639;49.15667;"02° 59' 11.00'' Est, 49° 09' 24.00'' Nord";"60020";;"LA CLERGIE";"60620";"ANTILLY";"Bâtiment"; 15.0;"Particulier"
802314;2.87028;49.28278;"02° 52' 13.00'' Est, 49° 16' 58.00'' Nord";"60066";;"LES TROIS CESSIERS RTE DE GLAINES";"60129";"BETHANCOURT-EN-VALOIS";"Pylône autostable"; 30.0;"ORANGE"
802429;1.72083;49.40889;"01° 43' 15.00'' Est, 49° 24' 32.00'' Nord";"60592";"LA CROIX D'EPINE";"CHEM DE LA CORNAILLERÉE";"60850";"SAINT-PIERRE-ES-CHAMPS";"Mât béton"; 30.0;"ORANGE"
802459;3.00333;49.28722;"03° 00' 12.00'' Est, 49° 17' 14.00'' Nord";"60083";;"R DU CHÂTEAU D'EAU RÉSERVOIR COMMUNAL";"60123";"BONNEUIL-EN-VALOIS";"Pylône autostable"; 36.0;"ORANGE"
803185;1.90472;49.62444;"01° 54' 17.00'' Est, 49° 37' 28.00'' Nord";"60588";"LE BOUQUET";"DÉPARTEMENTALE 7";"60210";"SAINT-MAUR";"Château d'eau - réservoir"; 50.0;"Commune, communauté de commune"
803658;2.92861;49.23778;"02° 55' 43.00'' Est, 49° 14' 16.00'' Nord";"60561";"BUTTE DE MONTIGNY";;"60117";"RUSSY-BEMONT";"Pylône tubulaire"; 32.0;"Copropriété, Syndic, SCI"
806338;2.57778;49.20694;"02° 34' 40.00'' Est, 49° 12' 25.00'' Nord";"60612";;"AV DE CREIL";"60300";"SENLIS";"Pylône autostable"; 24.0;"ORANGE Services Fixes"
806342;2.78917;49.38833;"02° 47' 21.00'' Est, 49° 23' 18.00'' Nord";"60159";;"3BIS AV HENRI ADNOT ZAC DE MERCIÈRE";"60200";"COMPIEGNE";"Pylône tubulaire"; 20.0;"ORANGE"
806346;2.45528;49.15806;"02° 27' 19.00'' Est, 49° 09' 29.00'' Nord";"60346";;"CTRE DU BOIS LARRIS CROIX ROUGE FRANÇAISE";"60260";"LAMORLAYE";"Immeuble"; 30.0;"Association"
806350;2.50861;49.27194;"02° 30' 31.00'' Est, 49° 16' 19.00'' Nord";"60670";;"CHEM DU MUR DE VAUX PARC ALATA";"60550";"VERNEUIL-EN-HALATTE";"Pylône autostable"; 30.0;"ORANGE"
806356;2.22306;49.68639;"02° 13' 23.00'' Est, 49° 41' 11.00'' Nord";"60082";"LA CHANVRIÈRE";;"60120";"BONNEUIL-LES-EAUX";"Pylône autostable"; 34.0;"Sociétés d'Autoroutes"
806360;2.16750;49.20472;"02° 10' 03.00'' Est, 49° 12' 17.00'' Nord";"60010";"LA CHARBONNIÈRE";"A16 CHEM DES BOEUFS";"60110";"AMBLAINVILLE";"Pylône autostable"; 50.0;"Sociétés d'Autoroutes"
806376;2.83722;49.40583;"02° 50' 14.00'' Est, 49° 24' 21.00'' Nord";"60159";;"114 R ST LAZARE";"60200";"COMPIEGNE";"Bâtiment"; 19.0;"Copropriété, Syndic, SCI"
806380;2.85528;49.26944;"02° 51' 19.00'' Est, 49° 16' 10.00'' Nord";"60274";"LE CROUTAY";"CHEM DU PIÈGE";"60129";"GLAIGNES";"Pylône tubulaire"; 30.0;"Commune, communauté de commune"
806382;2.80361;49.42000;"02° 48' 13.00'' Est, 49° 25' 12.00'' Nord";"60665";;"SQ MAURICE RAVEL";"60280";"VENETTE";"Immeuble"; 16.0;"Société HLM"
806386;2.42056;49.37806;"02° 25' 14.00'' Est, 49° 22' 41.00'' Nord";"60157";;"CHEM DE ST LEU";"60600";"CLERMONT";"Pylône tubulaire"; 23.0;"ORANGE"
806390;2.25833;49.16389;"02° 15' 30.00'' Est, 49° 09' 50.00'' Nord";"60139";;"R ALFRED ROUZÉ RÉS DE LA BUTTE ARBORÉE";"60230";"CHAMBLY";"Immeuble"; 16.0;"Association"
806392;2.49694;49.20444;"02° 29' 49.00'' Est, 49° 12' 16.00'' Nord";"60695";;"4, RTE D'APREMONT  HÔTEL DOCE CHANTILLY";"60500";"VINEUIL-SAINT-FIRMIN";"Bâtiment"; 22.0;"Particulier"
806394;2.25000;49.17139;"02° 15' 00.00'' Est, 49° 10' 17.00'' Nord";"60139";;"R EMILE ZOLA RÉSIDENCE LES JONQUILLES";"60230";"CHAMBLY";"Immeuble"; 22.0;"Société HLM"
806396;2.12972;49.21917;"02° 07' 47.00'' Est, 49° 13' 09.00'' Nord";"60395";;"R ARISTIDE BRIAND ENTRÉE CENTRE CANIN";"60110";"MERU";"Pylône tubulaire"; 24.0;"ORANGE"
806398;2.60556;49.21278;"02° 36' 20.00'' Est, 49° 12' 46.00'' Nord";"60612";;"C R N°20 DE NOTRE DAME DE BON-SECOURS PRÉS N330";"60300";"SENLIS";"Pylône tubulaire"; 23.0;"ORANGE"
806400;2.88667;49.47556;"02° 53' 12.00'' Est, 49° 28' 32.00'' Nord";"60636";;"CHEM DU HALAGE PRÉS CANAL DE L'OISE";"60150";"THOUROTTE";"Pylône autostable"; 27.0;"Copropriété, Syndic, SCI"
806402;2.93833;49.09444;"02° 56' 18.00'' Est, 49° 05' 40.00'' Nord";"60005";"LES FOURNEAUX";"PRÈS D.18";"60620";"ACY-EN-MULTIEN";"Pylône autostable"; 35.0;"Conseil Général"
806404;1.90417;49.39444;"01° 54' 15.00'' Est, 49° 23' 40.00'' Nord";"60662";"LA FERME NEUVE";;"60390";"LE VAUROUX";"Pylône autostable"; 39.0;"Conseil Général"
806406;2.98639;49.23611;"02° 59' 11.00'' Est, 49° 14' 10.00'' Nord";"60661";;"R DU CHÂTEAU D'EAU";"60117";"VAUMOISE";"Château d'eau - réservoir"; 39.0;"Commune, communauté de commune"
806408;2.55889;49.09889;"02° 33' 32.00'' Est, 49° 05' 56.00'' Nord";"60494";"LA BLUQUETTE";"ZAC DU PRÉ DE LA DAME JEANNE ENTREPRISE NEXO";"60128";"PLAILLY";"Bâtiment"; 8.0;"Société Privée SA"
806410;3.02000;49.19333;"03° 01' 12.00'' Est, 49° 11' 36.00'' Nord";"60320";;"CHEM DE THURY";"60141";"IVORS";"Pylône autostable"; 40.0;"Conseil Général"
806414;2.59972;49.29306;"02° 35' 59.00'' Est, 49° 17' 35.00'' Nord";"60509";;"ALLÉE JEAN JACQUES ROUSSEAU PARKING DU GYMNASE";"60700";"PONT-SAINTE-MAXENCE";"Pylône tubulaire"; 19.0;"ORANGE"
806416;2.12972;49.38694;"02° 07' 47.00'' Est, 49° 23' 13.00'' Nord";"60009";"LE BOIS DU FECQ NORD";"PRÈS NATIONALE 1 LA COUTURE";"60000";"ALLONNE";"Pylône autostable"; 30.0;"ORANGE"
806418;2.12028;49.23417;"02° 07' 13.00'' Est, 49° 14' 03.00'' Nord";"60395";"LA MARE AU JONCS";"R HENRI BARBUSSE";"60110";"MERU";"Pylône autostable"; 33.0;"ORANGE Services Fixes"
806420;2.87111;49.47056;"02° 52' 16.00'' Est, 49° 28' 14.00'' Nord";"60636";;"R DES AMOURS STATION D EPURATION";"60150";"THOUROTTE";"Pylône autostable"; 28.0;"ORANGE"
806426;2.41611;49.19194;"02° 24' 58.00'' Est, 49° 11' 31.00'' Nord";"60282";"LE MOULIN";"D .162 ZA DES QUINZE SAULES";"60270";"GOUVIEUX";"Bâtiment"; 16.0;"Société Privée SA"
806428;2.60139;49.14083;"02° 36' 05.00'' Est, 49° 08' 27.00'' Nord";"60432";;"GARENNE DE CHARLEMONT/CERAM";"60128";"MORTEFONTAINE";"Immeuble"; 16.0;"ORANGE"
806430;2.93222;49.38889;"02° 55' 56.00'' Est, 49° 23' 20.00'' Nord";"60674";"LE FOSSE COULANT";"MAISON FORESTIÈRE DE VIEUX MOULIN";"60350";"VIEUX-MOULIN";"Pylône autostable"; 40.0;"ORANGE"
806432;2.37972;49.20361;"02° 22' 47.00'' Est, 49° 12' 13.00'' Nord";"60513";;"LA GARE QUAI DE L'OISE CHEM DU HALAGE";"60460";"PRECY-SUR-OISE";"Pylône tubulaire"; 25.0;"ORANGE"
806434;2.38806;49.22083;"02° 23' 17.00'' Est, 49° 13' 15.00'' Nord";"60686";"SUR LA CARRIÈRE";"CHEM RURAL DE ST LEU À MELLO";"60340";"VILLERS-SOUS-SAINT-LEU";"Pylône tubulaire"; 27.0;"ORANGE"
806436;2.14194;49.23278;"02° 08' 31.00'' Est, 49° 13' 58.00'' Nord";"60395";;"CHEM DU TOUR DE VILLE";"60110";"MERU";"Pylône tubulaire"; 25.0;"ORANGE"
806440;2.34667;49.29444;"02° 20' 48.00'' Est, 49° 17' 40.00'' Nord";"60044";;"IMP DE LA GARE ANCIENNE USINE";"60250";"BALAGNY-SUR-THERAIN";"Bâtiment"; 68.0;"Copropriété, Syndic, SCI"
806448;2.88222;49.48750;"02° 52' 56.00'' Est, 49° 29' 15.00'' Nord";"60636";"CHANTEREINE";"ZI DU PONT DE METZ STÉ COATES LORILLEUX PRÈS RN 32";"60150";"THOUROTTE";"Pylône tubulaire"; 30.0;"ORANGE"
806450;2.90583;49.34417;"02° 54' 21.00'' Est, 49° 20' 39.00'' Nord";"60579";"LE CLOS MICHEL";"RTE DES PRÉS DE ST JEAN";"60350";"SAINT-JEAN-AUX-BOIS";"Pylône tubulaire"; 38.0;"SFR"
806452;1.97944;49.42333;"01° 58' 46.00'' Est, 49° 25' 24.00'' Nord";"60591";;"R DE L'AVELON PARC D'ATTRACTION DE ST PAU";"60650";"SAINT-PAUL";"Pylône autostable"; 38.0;"SFR"
806454;2.43111;49.25889;"02° 25' 52.00'' Est, 49° 15' 32.00'' Nord";"60414";;"R JACQUES DUCLOS ADM : 1 R ROMAIN ROLLAND";"60160";"MONTATAIRE";"Pylône autostable"; 25.0;"ORANGE"
806456;2.46667;49.23611;"02° 28' 00.00'' Est, 49° 14' 10.00'' Nord";"60589";"LES HAIES";"R DES MONTAGNARDS CCAL";"60740";"SAINT-MAXIMIN";"Pylône tubulaire"; 21.0;"ORANGE"
806781;2.31139;49.30222;"02° 18' 41.00'' Est, 49° 18' 08.00'' Nord";"60044";"LES MASURES";"CHEM RURAL DE ULLY ST GEORGES À MOUY";"60250";"BALAGNY-SUR-THERAIN";"Pylône autostable"; 51.0;"ORANGE Services Fixes"
806795;3.02806;49.62111;"03° 01' 41.00'' Est, 49° 37' 16.00'' Nord";"60181";"LES USAGES";"D.932 CHÂTEAU D'EAU";"60400";"CRISOLLES";"Château d'eau - réservoir"; 43.0;"Commune, communauté de commune"
806803;2.23806;49.15806;"02° 14' 17.00'' Est, 49° 09' 29.00'' Nord";"60139";"LES GLAISES";"RN.1 PYLÔNE SANEF";"60230";"CHAMBLY";"Pylône autostable"; 50.0;"Sociétés d'Autoroutes"
806805;2.46194;49.18278;"02° 27' 43.00'' Est, 49° 10' 58.00'' Nord";"60141";;"5 AV. DE VERDUN AV. DE SYLVIE";"60500";"CHANTILLY";"Immeuble"; 34.0;"Copropriété, Syndic, SCI"
806807;2.60194;49.30861;"02° 36' 07.00'' Est, 49° 18' 31.00'' Nord";"60509";;"R DE LA GARE RÉS. POMPIDOU - BÂT. AUVERGNE";"60700";"PONT-SAINTE-MAXENCE";"Immeuble"; 33.0;"Société HLM"
806809;2.44528;49.19111;"02° 26' 43.00'' Est, 49° 11' 28.00'' Nord";"60282";"LES FONTAINES";"ROUTE DE CHANTILLY CHÂTEAU DES FONTAINES";"60270";"GOUVIEUX";"Bâtiment"; 18.0;"Société Privée SA"
806811;2.80944;49.41083;"02° 48' 34.00'' Est, 49° 24' 39.00'' Nord";"60159";;"4, SQ DU COLONEL SUTTERLIN VENETTE";"60200";"COMPIEGNE";"Immeuble"; 46.0;"Société HLM"
806813;2.36278;49.20833;"02° 21' 46.00'' Est, 49° 12' 30.00'' Nord";"60513";;"CHEM DE LA BLANCHE VOIE";"60460";"PRECY-SUR-OISE";"Pylône autostable"; 20.0;"ORANGE"
806831;2.83222;49.42806;"02° 49' 56.00'' Est, 49° 25' 41.00'' Nord";"60382";;"524 AVE RAYMOND POINCARÉ";"60280";"MARGNY-LES-COMPIEGNE";"Pylône autostable"; 30.0;"SFR"
806845;2.41194;49.37889;"02° 24' 43.00'' Est, 49° 22' 44.00'' Nord";"60157";;"R FREDERIC RABOISSON HOP  CENTRAL";"60600";"CLERMONT";"Immeuble"; 28.0;"Etablissement de soins"
806853;2.48444;49.26083;"02° 29' 04.00'' Est, 49° 15' 39.00'' Nord";"60175";;"84 R JEAN BAPTISTE CARPEAUX";"60100";"CREIL";"Immeuble"; 45.0;"Société HLM"
806879;2.45528;49.25806;"02° 27' 19.00'' Est, 49° 15' 29.00'' Nord";"60414";;"100, R LOUIS BLANC LES MARCHES DE L'OISE BÂT. BRUXELLES";"60160";"MONTATAIRE";"Immeuble"; 34.0;"Particulier"
807417;2.28194;49.16444;"02° 16' 55.00'' Est, 49° 09' 52.00'' Nord";"60398";"LE FOND DE PERSAN";"R DU  GAL DE GAULLE D.4B/D.924";"60530";"LE MESNIL-EN-THELLE";"Pylône tubulaire"; 33.0;"Commune, communauté de commune"
807424;2.46444;49.26528;"02° 27' 52.00'' Est, 49° 15' 55.00'' Nord";"60463";;"R LOUIS BLANC DOMAINE D'ACTIVITÉS PIERRE DE COUBERTIN";"60180";"NOGENT-SUR-OISE";"Pylône tubulaire"; 28.0;"Commune, communauté de commune"
807700;1.82778;49.71889;"01° 49' 40.00'' Est, 49° 43' 08.00'' Nord";"60545";"CARROIX";"RD 119";"60220";"ROMESCAMPS";"Château d'eau - réservoir"; 28.0;"Syndicat des eaux, Adduction"
813548;2.38611;49.29806;"02° 23' 10.00'' Est, 49° 17' 53.00'' Nord";"60551";"DESSUS LA CARRIÈRE L'AVOCAT";"CHEM RURAL";"60660";"ROUSSELOY";"Pylône autostable"; 37.0;"ORANGE"
821370;2.28889;49.47750;"02° 17' 20.00'' Est, 49° 28' 39.00'' Nord";"60222";"LA VALLÉE D'ESSUILE";"RTE DE ST RIMAULT";"60510";"ESSUILES";"Pylône autostable"; 25.0;"SFR"
826016;1.75917;49.68056;"01° 45' 33.00'' Est, 49° 40' 50.00'' Nord";"60076";"LE TÉFORÊT BELLEVILLE";"CHEM VICINAL ORDINAIRE N°2 DE MOLIENS À LANNOY CUI";"60220";"BLARGIES";"Château d'eau - réservoir"; 50.0;"Syndicat des eaux, Adduction"
831863;2.75667;49.25278;"02° 45' 24.00'' Est, 49° 15' 10.00'' Nord";"60447";"CANTON DES MONTS DE CORNON";;"60320";"NERY";"Pylône autostable"; 38.0;"FPS TOWERS"
831879;2.20167;49.60667;"02° 12' 06.00'' Est, 49° 36' 24.00'' Nord";"60299";;"AIRE DE SERVICE D'HARDIVILLERS A 16 PEAGES";"60120";"HARDIVILLERS";"Pylône autostable"; 56.0;"Sociétés d'Autoroutes"
831899;2.72750;49.11167;"02° 43' 39.00'' Est, 49° 06' 42.00'' Nord";"60213";"LA RAPERIE";"RN 330";"60950";"ERMENONVILLE";"Pylône autostable"; 47.0;"SFR"
831960;2.75139;49.18417;"02° 45' 05.00'' Est, 49° 11' 03.00'' Nord";"60047";"REMISE DE LA SENTE DE FRESNOY";"PRES LIGNE TGV NORD EUROPE";"60300";"BARON";"Pylône autostable"; 39.0;"ORANGE"
836980;2.32556;49.46500;"02° 19' 32.00'' Est, 49° 27' 54.00'' Nord";"60115";"LE POIRIER RENAULT";"CHEM DUPILLE";"60130";"BULLES";"Pylône autostable"; 22.0;"FPS TOWERS"
838303;2.86972;49.53556;"02° 52' 11.00'' Est, 49° 32' 08.00'' Nord";"60126";"LA GRANDE PIÈCE";"L ECOUVILLON";"60310";"CANNECTANCOURT";"Pylône autostable"; 40.0;"Particulier"
839518;2.40750;49.16972;"02° 24' 27.00'' Est, 49° 10' 11.00'' Nord";"60346";"GOLF DU LYS CHANTILLY";"7ÈME / 8ÈME AV GREEN 17 DOMAINE DU LYS";"60260";"LAMORLAYE";"Pylône autostable"; 35.0;"ORANGE"
842584;2.68306;49.49944;"02° 40' 59.00'' Est, 49° 29' 58.00'' Nord";"60281";"LA CHAPELLE";"PRES DE LA D82";"60190";"GOURNAY-SUR-ARONDE";"Pylône autostable"; 23.0;"FPS TOWERS"
855498;2.15639;49.37611;"02° 09' 23.00'' Est, 49° 22' 34.00'' Nord";"60700";"L'EPINE";"RUE DU MONTOIS CHEMIN RURAL N°52";"60430";"WARLUIS";"Pylône autostable"; 40.0;"TDF"
860950;2.82778;49.41694;"02° 49' 40.00'' Est, 49° 25' 01.00'' Nord";"60159";;"PL ST JACQUES EGLISE";"60200";"COMPIEGNE";"Monument religieux"; 49.0;"Commune, communauté de commune"
860957;2.46750;49.25278;"02° 28' 03.00'' Est, 49° 15' 10.00'' Nord";"60175";;"26 BLD JEAN BIONDI";"60100";"CREIL";"Immeuble"; 63.1;"Société HLM"
860979;2.90694;49.23306;"02° 54' 25.00'' Est, 49° 13' 59.00'' Nord";"60176";;"17 R ST GERMAIN SILO OCEAL";"60800";"CREPY-EN-VALOIS";"Silo"; 38.0;"Coopérative Agricole, Vinicole"
860986;2.59833;49.31139;"02° 35' 54.00'' Est, 49° 18' 41.00'' Nord";"60006";"LE TREMBLE";"R PATRICK SIEMAND";"60700";"LES AGEUX";"Château d'eau - réservoir"; 39.0;"Syndicat des eaux, Adduction"
861254;2.42972;49.15056;"02° 25' 47.00'' Est, 49° 09' 02.00'' Nord";"60346";"LA GROSSE AULNE";"LE STADE";"60260";"LAMORLAYE";"Pylône autostable"; 30.0;"SFR"
861260;2.44361;49.29139;"02° 26' 37.00'' Est, 49° 17' 29.00'' Nord";"60342";;"2 , IMP ANNA DE NOUAILLES RÉSIDENCE LAIGNEVILLAGE";"60290";"LAIGNEVILLE";"Immeuble"; 20.0;"Copropriété, Syndic, SCI"
861780;1.92528;49.65417;"01° 55' 31.00'' Est, 49° 39' 15.00'' Nord";"60295";"HAMEAU DE PETIT HALLOY";"11 B , R DE BRIOT      CD 119";"60210";"HALLOY";"Château d'eau - réservoir"; 38.5;"Commune, communauté de commune"
864959;2.32944;49.31028;"02° 19' 46.00'' Est, 49° 18' 37.00'' Nord";"60439";"LES PRÉS DU PRINCE";"R DU STADE BOULANGER D.137D";"60250";"MOUY";"Pylône tubulaire"; 30.0;"ORANGE"
875410;2.06806;49.41611;"02° 04' 05.00'' Est, 49° 24' 58.00'' Nord";"60057";"LE MOYEU FERRÉ";"R SENEFONTAINE//CHATEAU D'EAU";"60000";"BEAUVAIS";"Château d'eau - réservoir"; 60.0;"Commune, communauté de commune"
876519;2.86528;49.48306;"02° 51' 55.00'' Est, 49° 28' 59.00'' Nord";"60392";"LES PRÉS DES LIEUX";"AV FRANCOIS MITTERAND";"60150";"MELICOCQ";"Pylône tubulaire"; 30.0;"SFR"
889432;2.08139;49.42361;"02° 04' 53.00'' Est, 49° 25' 25.00'' Nord";"60057";;"1 R ALDEBERT BELLIER";"60000";"BEAUVAIS";"Bâtiment"; 20.0;"Société HLM"
901941;2.65917;49.43028;"02° 39' 33.00'' Est, 49° 25' 49.00'' Nord";"60223";;"D36 R DE COMPIEGNE POSTE SOURCE";"60190";"ESTREES-SAINT-DENIS";"Bâtiment"; 6.0;"Société Privée SA"
901943;2.66333;49.36500;"02° 39' 48.00'' Est, 49° 21' 54.00'' Nord";"60284";;"R D HERMONT POSTE SOURCE";"60680";"GRANDFRESNOY";"Bâtiment"; 6.0;"Société Privée SA"
901945;2.75389;49.35861;"02° 45' 14.00'' Est, 49° 21' 31.00'' Nord";"60402";;"R DU GL DE GAULLE POSTE SOURCE PEUPLERAIE";"60880";"LE MEUX";"Bâtiment"; 6.0;"Société Privée SA"
901947;2.76417;49.35528;"02° 45' 51.00'' Est, 49° 21' 19.00'' Nord";"60402";;"R DE LA NOUE POSTE DP LA NOUE";"60880";"LE MEUX";"Bâtiment"; 4.0;"Société Privée SA"
906618;1.92917;49.28778;"01° 55' 45.00'' Est, 49° 17' 16.00'' Nord";"60209";;"CV N°5 POSTE EDF DE REMISE";"60240";"ENENCOURT-LE-SEC";"Pylône autostable"; 30.0;"EDF GDF"
910817;2.81333;49.40667;"02° 48' 48.00'' Est, 49° 24' 24.00'' Nord";"60159";;"2 R DE L'AMIRAL WEMYSS";"60200";"COMPIEGNE";"Immeuble"; 26.5;"Société HLM"
911201;2.79000;49.39000;"02° 47' 24.00'' Est, 49° 23' 24.00'' Nord";"60159";;"ZAC DES MERCIERES 3 7 SQ BERTHELOT";"60200";"COMPIEGNE";"Bâtiment"; 27.0;"Société Privée SA"
914277;2.49556;49.27000;"02° 29' 44.00'' Est, 49° 16' 12.00'' Nord";"60175";;"589 AV DE TREMBLAY CTRE TECHNIQUE";"60100";"CREIL";"Bâtiment"; 12.0;"Commune, communauté de commune"
917071;1.82944;49.40389;"01° 49' 46.00'' Est, 49° 24' 14.00'' Nord";"60164";"LES COMMUNES EN TERRE";"CHEM DE LA BRIQUETERIE";"60850";"LE COUDRAY-SAINT-GERMER";"Pylône autostable"; 33.0;"Conseil Général"
921691;2.41667;49.21972;"02° 24' 60.00'' Est, 49° 13' 11.00'' Nord";"60584";;"PL DE LA MAIRIE MAIRIE";"60340";"SAINT-LEU-D'ESSERENT";"Bâtiment"; 10.0;"Commune, communauté de commune"
921892;3.04778;49.49056;"03° 02' 52.00'' Est, 49° 29' 26.00'' Nord";"60438";"PUISALEINE";"RTE DE VIC SUR AISNE (D145)";"60350";"MOULIN-SOUS-TOUVENT";"Pylône autostable"; 42.0;
924489;2.44667;49.19194;"02° 26' 48.00'' Est, 49° 11' 31.00'' Nord";"60282";;"LES 3 FONTAINES ELYO";"60270";"GOUVIEUX";"Bâtiment"; 5.0;"Société Privée SA"
924491;2.82000;49.40222;"02° 49' 12.00'' Est, 49° 24' 08.00'' Nord";"60159";;"13 R DE HUY LYCEE MIREILLE GRENET";"60200";"COMPIEGNE";"Bâtiment"; 26.0;"Etat, Ministère"
924493;2.32056;49.31972;"02° 19' 14.00'' Est, 49° 19' 11.00'' Nord";"60439";;"PL DE LA MAIRIE";"60250";"MOUY";"Immeuble"; 15.0;"Commune, communauté de commune"
927566;1.87444;49.26139;"01° 52' 28.00'' Est, 49° 15' 41.00'' Nord";"60143";;"AV DE LA GARE SCA FORCE 5";"60240";"CHAUMONT-EN-VEXIN";"Silo"; 53.0;"Coopérative Agricole, Vinicole"
928682;2.50528;49.28278;"02° 30' 19.00'' Est, 49° 16' 58.00'' Nord";"60684";;"SITE DE VILLERS ST PAUL CRAY VALLEY";"60870";"VILLERS-SAINT-PAUL";"Bâtiment"; 10.0;"Société Privée SA"
932361;2.77000;49.46333;"02° 46' 12.00'' Est, 49° 27' 48.00'' Nord";"60048";"LE BOSQUET CONAINE";"D.935 - CHEM D'EXPLOITATION TERRAIN CLAYE";"60190";"BAUGY";"Pylône autostable"; 32.0;"ORANGE"
948561;2.71750;49.49917;"02° 43' 03.00'' Est, 49° 29' 57.00'' Nord";"60019";"PORTES";"D.78 PYLÔNE RTE N° AM156";"60162";"ANTHEUIL-PORTES";"Pylône autostable"; 55.0;"RTE"
950736;2.74389;49.14417;"02° 44' 38.00'' Est, 49° 08' 39.00'' Nord";"60413";"LES VIGNETTES";;"60950";"MONTAGNY-SAINTE-FELICITE";"Pylône autostable"; 40.0;"TDF"
966601;2.78500;49.38028;"02° 47' 06.00'' Est, 49° 22' 49.00'' Nord";"60338";;"126 RUE ROBERT SCHUMAN HÔTEL MERCURE";"60610";"LACROIX-SAINT-OUEN";"Immeuble"; 18.0;"Société Privée SA"
968137;2.78222;49.41028;"02° 46' 56.00'' Est, 49° 24' 37.00'' Nord";"60665";;"BOULEVARD DE L'EUROPE CARREFOUR VENETTE";"60280";"VENETTE";"Pylône autostable"; 12.0;"ORANGE"
969029;2.86139;49.44028;"02° 51' 41.00'' Est, 49° 26' 25.00'' Nord";"60156";;"RUE DE LA REPUBLIQUE LE BAC A L AUMONE";"60280";"CLAIROIX";"Bâtiment"; 10.0;"Société Privée SA"
969845;1.80611;49.44806;"01° 48' 22.00'' Est, 49° 26' 53.00'' Nord";"60577";;"9 RUE DES USINES IMERYS";"60850";"SAINT-GERMER-DE-FLY";"Bâtiment"; 25.0;"Société Privée SA"
969847;1.83417;49.65361;"01° 50' 03.00'' Est, 49° 39' 13.00'' Nord";"60233";;"AVENUE HENRI DUMONT SAVER GLASS";"60960";"FEUQUIERES";"Bâtiment"; 10.0;"Société Privée SA"
977316;2.46417;49.24250;"02° 27' 51.00'' Est, 49° 14' 33.00'' Nord";"60175";;"177 RUE DE GALILEE ZAET SAINT MAXIMIN";"60100";"CREIL";"Bâtiment"; 13.0;"Société Privée SA"
980562;2.46028;49.24750;"02° 27' 37.00'' Est, 49° 14' 51.00'' Nord";"60175";;"BD LAENNEC HOPITAL DE CREIL";"60100";"CREIL";"Bâtiment"; 50.0;"Etablissement de soins"
981052;2.87556;49.47972;"02° 52' 32.00'' Est, 49° 28' 47.00'' Nord";"60636";;"RUE VICTOR HUGO RUE CHARLEMAGNE";"60150";"THOUROTTE";"Château d'eau - réservoir"; 25.0;"Syndicat des eaux, Adduction"
988203;1.76222;49.35694;"01° 45' 44.00'' Est, 49° 21' 25.00'' Nord";"60616";;"20 RUE MAURICETHOREZ";"60590";"SERIFONTAINE";"Bâtiment"; 16.0;"Société Privée SA"
990282;2.46333;49.17556;"02° 27' 48.00'' Est, 49° 10' 32.00'' Nord";"60141";"LA FORÊT";"AVENUE DE MONTMORENCY AVENUE DE BOURBON";"60500";"CHANTILLY";"Pylône tubulaire"; 25.0;"ORANGE"
992964;2.58889;49.15667;"02° 35' 20.00'' Est, 49° 09' 24.00'' Nord";"60631";"FORET DE PONTARME";"VOIE COMMUNALE 02 DE THIERS À CHAGLIS";"60520";"THIERS-SUR-THEVE";"Pylône autostable"; 12.0;"ORANGE"
993827;2.99972;49.40611;"02° 59' 59.00'' Est, 49° 24' 22.00'' Nord";"60647";;"RUE DU FLOTTAGE USINE DE LA MOTTE";"60350";"TROSLY-BREUIL";"Bâtiment"; 10.0;"Société Privée SA"
994266;2.99889;49.40667;"02° 59' 56.00'' Est, 49° 24' 24.00'' Nord";"60647";;"RUE DU FLOTTAGE USINE DE LA MOTTE";"60350";"TROSLY-BREUIL";"Bâtiment"; 10.0;"Société Privée SA"
994268;2.99806;49.40722;"02° 59' 53.00'' Est, 49° 24' 26.00'' Nord";"60647";;"RUE DU FLOTTAGE USINE DE LA MOTTE";"60350";"TROSLY-BREUIL";"Bâtiment"; 10.0;"Société Privée SA"
994270;2.99889;49.40611;"02° 59' 56.00'' Est, 49° 24' 22.00'' Nord";"60647";;"RUE DU FLOTTAGE USINE DE LA MOTTE";"60350";"TROSLY-BREUIL";"Bâtiment"; 10.0;"Société Privée SA"
994466;2.50639;49.29028;"02° 30' 23.00'' Est, 49° 17' 25.00'' Nord";"60684";;"RUE HENRI MOISSAN PLATEFORME VILLERS ST PAUL";"60870";"VILLERS-SAINT-PAUL";"Bâtiment"; 10.0;"Société Privée SA"
1002631;2.11556;49.46000;"02° 06' 56.00'' Est, 49° 27' 36.00'' Nord";"60639";"LE CHAMPS DE TILLOY";"AEROPORT BEAUVAIS-TILLE";"60000";"TILLE";"Pylône autostable"; 21.2;"BOUYGUES"
1005126;2.68056;49.32667;"02° 40' 50.00'' Est, 49° 19' 36.00'' Nord";"60369";;"D 155 ROUTE DE VERBERIE SABLIERE LES TAILLIS";"60126";"LONGUEIL-SAINTE-MARIE";"Bâtiment"; 3.0;"Société Privée SA"
1025434;2.22417;49.67722;"02° 13' 27.00'' Est, 49° 40' 38.00'' Nord";"60082";;"RUE D'AMIENS RÉSERVOIR";"60120";"BONNEUIL-LES-EAUX";"Château d'eau - réservoir"; 11.0;"Syndicat des eaux, Adduction"
1025438;2.00583;49.19611;"02° 00' 21.00'' Est, 49° 11' 46.00'' Nord";"60452";;"BOIS DE TUMBREL RESERVOIR";"60119";"NEUVILLE-BOSC";"Château d'eau - réservoir"; 8.0;"Syndicat des eaux, Adduction"
1025446;2.10278;49.25639;"02° 06' 10.00'' Est, 49° 15' 23.00'' Nord";"60370";;"RUE MACASSAR RESERVOIR";"60110";"LORMAISON";"Château d'eau - réservoir"; 43.0;"Syndicat des eaux, Adduction"
1025452;2.59917;49.37639;"02° 35' 57.00'' Est, 49° 22' 35.00'' Nord";"60152";;"CHOISY LA VICTOIRE STATION DE POMPAGE";"60190";"CHOISY-LA-VICTOIRE";"Château d'eau - réservoir"; 9.0;"Syndicat des eaux, Adduction"
1025454;2.76861;49.29833;"02° 46' 07.00'' Est, 49° 17' 54.00'' Nord";"60578";;"CHEMIN RURAL DE LA CAVEE (CR N°23) RESERVOIR";"60410";"SAINTINES";"Château d'eau - réservoir"; 6.0;"Syndicat des eaux, Adduction"
1029197;2.88639;49.53778;"02° 53' 11.00'' Est, 49° 32' 16.00'' Nord";"60126";;"D 57 GRANDE RUE FERME DE LA CARMOYE";"60310";"CANNECTANCOURT";"Pylône autostable"; 40.0;"EDF GDF"
1029915;2.46778;49.26083;"02° 28' 04.00'' Est, 49° 15' 39.00'' Nord";"60175";;"1 RUE FERNAND PELLOUTIER";"60100";"CREIL";"Bâtiment"; 15.0;"EDF GDF"
1030067;2.07500;49.42972;"02° 04' 30.00'' Est, 49° 25' 47.00'' Nord";"60057";;"AV NELSON MANDELA";"60000";"BEAUVAIS";"Bâtiment"; 10.0;"EDF GDF"
1035201;3.00944;49.57750;"03° 00' 34.00'' Est, 49° 34' 39.00'' Nord";"60471";;"LA GARE";"60400";"NOYON";"Pylône autostable"; 25.0;"SNCF Réseau"
1035205;2.94972;49.51861;"02° 56' 59.00'' Est, 49° 31' 07.00'' Nord";"60492";;"RUE ROBERT DELAGE D 608";"60170";"PIMPREZ";"Pylône autostable"; 30.0;"SNCF Réseau"
1035305;3.12139;49.58083;"03° 07' 17.00'' Est, 49° 34' 51.00'' Nord";"60021";;"LA GRANDE PÂTURE PK 115.300";"60400";"APPILLY";"Pylône autostable"; 22.0;"SNCF Réseau"
1035969;2.54139;49.30278;"02° 32' 29.00'' Est, 49° 18' 10.00'' Nord";"60102";"LE VILLAGE CENTRE";"RUE DE CHAALIS";"60870";"BRENOUILLE";"Pylône autostable"; 20.0;"SNCF Réseau"
1039472;2.11361;49.45889;"02° 06' 49.00'' Est, 49° 27' 32.00'' Nord";"60639";;"AÉROPORT DE BEAUVAIS TILLÉ";"60000";"TILLE";"Pylône tubulaire"; 20.9;"ORANGE"
1040235;2.64472;49.33194;"02° 38' 41.00'' Est, 49° 19' 55.00'' Nord";"60318";"LE PRIEURE";"RUE DES BOIS";"60710";"HOUDANCOURT";"Pylône autostable"; 30.0;"SNCF Réseau"
1042893;2.48611;49.29250;"02° 29' 10.00'' Est, 49° 17' 33.00'' Nord";"60684";;"CAMPING LA GARENNE CHEMIN DE LA GARENNE";"60870";"VILLERS-SAINT-PAUL";"Pylône haubané"; 34.0;"SFR"
1045223;2.48111;49.19056;"02° 28' 52.00'' Est, 49° 11' 26.00'' Nord";"60141";;"HIPPODROME DE CHANTILLY PRÉS D924A";"60500";"CHANTILLY";"Mât"; 12.0;"ORANGE"
1047866;2.77972;49.39222;"02° 46' 47.00'' Est, 49° 23' 32.00'' Nord";"60325";"LES BAS JARDINS";"RUELLE DU BARILLET";"60880";"JAUX";"Pylône autostable"; 20.0;"SNCF Réseau"
