Numéro du support;Longitude;Latitude;"Position";"Insee";"Lieu dit";"Adresse";"Code postal";"Commune";"Nature du support";Hauteur en m;"Propriétaire"
14846;2.12083;42.49250;"02° 07' 15.00'' Est, 42° 29' 33.00'' Nord";"66188";"LANS ESCOUMAIL";;"66210";"SAINT-PIERRE-DELS-FORCATS";"Bâtiment"; 20.0;"ORANGE Services Fixes"
14850;2.52444;42.80500;"02° 31' 28.00'' Est, 42° 48' 18.00'' Nord";"66097";"CRETE DE LESQUERDE";"SERRE DE L'ARTIGUE DEL BAURIEN";"66220";"LESQUERDE";"Pylône autostable"; 6.0;"ORANGE Services Fixes"
14852;2.50611;42.81000;"02° 30' 22.00'' Est, 42° 48' 36.00'' Nord";"66187";;"RUE DU DR LOUIS BRUN AUTOCOMMUTATEUR";"66220";"SAINT-PAUL-DE-FENOUILLET";"Pylône autostable"; 18.0;"ORANGE Services Fixes"
14856;2.66278;42.47250;"02° 39' 46.00'' Est, 42° 28' 21.00'' Nord";"66009";;"RTE DE MONTALBA";"66150";"ARLES-SUR-TECH";"Pylône autostable"; 9.0;"ORANGE Services Fixes"
14860;2.48472;42.40333;"02° 29' 05.00'' Est, 42° 24' 12.00'' Nord";"66150";;"AV DU HAUT VALLESPIR";"66230";"PRATS-DE-MOLLO-LA-PRESTE";"Pylône autostable"; 22.0;"ORANGE Services Fixes"
14862;2.61306;42.38889;"02° 36' 47.00'' Est, 42° 23' 20.00'' Nord";"66179";"LA SORT";;"66260";"SAINT-LAURENT-DE-CERDANS";"Pylône autostable"; 17.0;"ORANGE Services Fixes"
14874;2.55389;42.39667;"02° 33' 14.00'' Est, 42° 23' 48.00'' Nord";"66194";;"R DE ST ANTOINE RD 44";"66230";"SERRALONGUE";"Pylône autostable"; 12.0;"ORANGE Services Fixes"
14882;1.94556;42.43361;"01° 56' 44.00'' Est, 42° 26' 01.00'' Nord";"66025";;"AV DES GUINGUETTES AUTOCOMMUTATEUR";"66760";"BOURG-MADAME";"Pylône tubulaire"; 12.0;"ORANGE Services Fixes"
14898;2.74722;42.81361;"02° 44' 50.00'' Est, 42° 48' 49.00'' Nord";"66205";;"R DU CHATEAU";"66720";"TAUTAVEL";"Pylône autostable"; 12.0;"ORANGE Services Fixes"
14906;2.66944;42.47361;"02° 40' 10.00'' Est, 42° 28' 25.00'' Nord";"66003";;"AV GEORGES BOSC CENTRAL TÉLÉPHONIQUE";"66110";"AMELIE-LES-BAINS-PALALDA";"Pylône autostable"; 11.0;"ORANGE Services Fixes"
14910;2.44333;42.72639;"02° 26' 36.00'' Est, 42° 43' 35.00'' Nord";"66198";;"RTE DE PRADES AUTOCOMMUTATEUR";"66730";"SOURNIA";"Pylône autostable"; 12.0;"ORANGE Services Fixes"
36349;2.13583;42.64500;"02° 08' 09.00'' Est, 42° 38' 42.00'' Nord";"66159";;"RÉSERVOIR DE ODEILLO DE REAL CHEM RURAL DE LA MOUILLÈRE.";"66210";"REAL";"Pylône autostable"; 20.0;"HIVORY"
36489;2.96917;42.68833;"02° 58' 09.00'' Est, 42° 41' 18.00'' Nord";"66037";;"MAS D'EN VICTOR DÉCHETTERIE";"66140";"CANET-EN-ROUSSILLON";"Pylône autostable"; 25.0;"HIVORY"
45772;2.76139;42.53611;"02° 45' 41.00'' Est, 42° 32' 10.00'' Nord";"66233";"SERRA DE LES ERRES";;"66490";"VIVES";"Pylône autostable"; 46.0;
101559;2.78639;42.78028;"02° 47' 11.00'' Est, 42° 46' 49.00'' Nord";"66041";;"RUE DU JAUMET RÉSERVOIR D'EAU DE CASES DE PENE";"66600";"CASES-DE-PENE";"Château d'eau - réservoir"; 20.0;"Commune, communauté de commune"
101563;2.02917;42.45250;"02° 01' 45.00'' Est, 42° 27' 09.00'' Nord";"66167";"QUARTIER EL PLA";"RELAIS HERTZIEN FRANCE TELECOM RN.116";"66800";"SAILLAGOUSE";"Pylône tubulaire"; 15.0;"ORANGE Services Fixes"
101569;2.51306;42.39306;"02° 30' 47.00'' Est, 42° 23' 35.00'' Nord";"66150";"PUIG COLOM D'AVALL";"CHEM DE PUIG COLOM";"66230";"PRATS-DE-MOLLO-LA-PRESTE";"Pylône autostable"; 32.0;"ORANGE"
117965;2.67194;42.52667;"02° 40' 19.00'' Est, 42° 31' 36.00'' Nord";"66199";;"LE VILLAGE MAIRIE";"66400";"TAILLET";"Bâtiment"; 8.0;"Commune, communauté de commune"
117973;2.79278;42.42917;"02° 47' 34.00'' Est, 42° 25' 45.00'' Nord";"66106";"SUPER LAS ILLAS";;"66480";"MAUREILLAS-LAS-ILLAS";"Mât"; 7.0;"ORANGE Services Fixes"
117982;2.78528;42.42556;"02° 47' 07.00'' Est, 42° 25' 32.00'' Nord";"66106";"LAS ILLAS";"AUTOCOM";"66480";"MAUREILLAS-LAS-ILLAS";"Bâtiment"; 6.0;"ORANGE Services Fixes"
118005;2.69972;42.47667;"02° 41' 59.00'' Est, 42° 28' 36.00'' Nord";"66160";;"MAS DU COUILLET";"66400";"REYNES";"Bâtiment"; 7.0;"ORANGE Services Fixes"
118031;2.62056;42.53556;"02° 37' 14.00'' Est, 42° 32' 08.00'' Nord";"66183";"COBE DE MOLLO";"D 618";"66110";"SAINT-MARSAL";"Bâtiment"; 10.0;"ORANGE Services Fixes"
118048;2.64583;42.56444;"02° 38' 45.00'' Est, 42° 33' 52.00'' Nord";"66153";"CAN FOURTOU";;"66130";"PRUNET-ET-BELPUIG";"Bâtiment"; 5.0;"ORANGE Services Fixes"
118058;2.53028;42.80028;"02° 31' 49.00'' Est, 42° 48' 01.00'' Nord";"66097";;"R LA CHAPELLE FOYER COMMUNAL";"66220";"LESQUERDE";"Mât"; 10.0;"ORANGE Services Fixes"
144786;2.70000;42.72694;"02° 42' 00.00'' Est, 42° 43' 37.00'' Nord";"66108";"FORÇA REAL";"RÉÉMETTEUR TDF";"66170";"MILLAS";"Bâtiment"; 13.0;"ORANGE Services Fixes"
145816;2.88333;42.69694;"02° 53' 00.00'' Est, 42° 41' 49.00'' Nord";"66136";"STUDIO RF ROUSSILLON";"34 AVE GAL DE GAULLE STUDIO RF ROUSSILLON";"66100";"PERPIGNAN";"Mât métallique"; 25.0;"Titulaire programme Radio/TV"
161063;2.61389;42.38917;"02° 36' 50.00'' Est, 42° 23' 21.00'' Nord";"66179";;"VILLAGE";"66260";"SAINT-LAURENT-DE-CERDANS";"Support non décrit"; 9.0;
172316;2.75333;42.63583;"02° 45' 12.00'' Est, 42° 38' 09.00'' Nord";"66210";;"6 BD VILET";"66300";"THUIR";"Support non décrit";;
213996;3.09611;42.51306;"03° 05' 46.00'' Est, 42° 30' 47.00'' Nord";"66053";;"RST TUNNEL DE PORT VENDRE PK 496.640";"66190";"COLLIOURE";"Mât"; 5.0;"SNCF Réseau"
214004;3.12028;42.49250;"03° 07' 13.00'' Est, 42° 29' 33.00'' Nord";"66016";;"RST TUNNEL DE PERTERNERRE PK 501.050";"66650";"BANYULS-SUR-MER";"Mât"; 6.0;"SNCF Réseau"
214008;3.14028;42.47083;"03° 08' 25.00'' Est, 42° 28' 15.00'' Nord";"66016";;"RST TUNNEL DE PEYREFITTE PK 504.400";"66650";"BANYULS-SUR-MER";"Mât"; 5.0;"SNCF Réseau"
225746;1.88500;42.46667;"01° 53' 06.00'' Est, 42° 28' 00.00'' Nord";"66095";;"AV DE PUYMORENS CENTRE EXPLOITATION INTERVENTION RN 20";"66760";"LATOUR-DE-CAROL";"Bâtiment"; 17.0;"DDE"
243292;2.38278;42.55722;"02° 22' 58.00'' Est, 42° 33' 26.00'' Nord";"66057";"PRATS DE LAS RODES";"D 116";"66820";"CORNEILLA-DE-CONFLENT";"Bâtiment"; 6.0;"ORANGE Services Fixes"
251713;2.62639;42.66917;"02° 37' 35.00'' Est, 42° 40' 09.00'' Nord";"66088";"R D'ARISTREE";"AUTOCOMMUTATEUR LE VILLAGE";"66130";"ILLE-SUR-TET";"Bâtiment"; 6.0;"ORANGE Services Fixes"
255826;2.89111;42.70083;"02° 53' 28.00'' Est, 42° 42' 03.00'' Nord";"66136";;"9 R CAMILLE DESMOULIN";"66100";"PERPIGNAN";"Immeuble"; 28.0;"Société Privée SA"
260305;2.85667;42.68306;"02° 51' 24.00'' Est, 42° 40' 59.00'' Nord";"66136";"ORLE EST";"R DE ROME GRAND MARCHÉ ST CHARLES";"66100";"PERPIGNAN";"Pylône autostable"; 35.0;"SFR"
270628;2.87139;42.68361;"02° 52' 17.00'' Est, 42° 41' 01.00'' Nord";"66136";;"R JOSEPH CUGNOT ENTREPRISE CLAUDE MENCARINI";"66100";"PERPIGNAN";"Pylône tubulaire"; 20.0;"ORANGE"
273795;2.87139;42.77056;"02° 52' 17.00'' Est, 42° 46' 14.00'' Nord";"66164";;"16 AV LOUIS BLANC R ARMAND CARREL";"66600";"RIVESALTES";"Immeuble"; 20.0;"Particulier"
283717;2.90417;42.74417;"02° 54' 15.00'' Est, 42° 44' 39.00'' Nord";"66141";;"36 CHEM DE L'ÉTANG LONG ETS HUGO";"66380";"PIA";"Pylône autostable"; 25.0;"ORANGE"
286026;2.94944;42.62611;"02° 56' 58.00'' Est, 42° 37' 34.00'' Nord";"66059";;"R DU CHÂTEAU D'EAU RÉSERVOIR";"66200";"CORNEILLA-DEL-VERCOL";"Château d'eau - réservoir"; 16.1;"Commune, communauté de commune"
288564;2.07694;42.47306;"02° 04' 37.00'' Est, 42° 28' 23.00'' Nord";"66075";"EL PLA DEL BAC";"CHEM RURAL LA CARRERADA";"66800";"EYNE";"Pylône autostable"; 5.0;"Titulaire programme Radio/TV"
306193;2.03972;42.38694;"02° 02' 23.00'' Est, 42° 23' 13.00'' Nord";"66220";;"RESERVOIR UV LES ARCES";"66340";"VALCEBOLLERE";"Château d'eau - réservoir"; 8.0;
306195;2.04111;42.38278;"02° 02' 28.00'' Est, 42° 22' 58.00'' Nord";"66220";;"CHEM DE ST BARNABE LA TIRA";"66340";"VALCEBOLLERE";"Mât"; 8.0;
320972;2.89222;42.71556;"02° 53' 32.00'' Est, 42° 42' 56.00'' Nord";"66136";;"RUE PIERRE NICOLAU STADE DE RUGBY";"66100";"PERPIGNAN";"Pylône autostable"; 40.0;"Commune, communauté de commune"
320974;2.90056;42.69833;"02° 54' 02.00'' Est, 42° 41' 54.00'' Nord";"66136";;"46, R DES QUINZE DEGRÉS";"66100";"PERPIGNAN";"Bâtiment"; 21.0;"Particulier"
321446;2.89111;42.72000;"02° 53' 28.00'' Est, 42° 43' 12.00'' Nord";"66136";;"AV VIRGILE DIAZ HLM DIAZ BÂTIMENT B1";"66100";"PERPIGNAN";"Bâtiment"; 24.0;"Copropriété, Syndic, SCI"
323050;2.89639;42.69611;"02° 53' 47.00'' Est, 42° 41' 46.00'' Nord";"66136";;"14 R DES REMPARTS LA RÉAL";"66100";"PERPIGNAN";"Bâtiment"; 22.0;"Copropriété, Syndic, SCI"
323052;2.88361;42.76778;"02° 53' 01.00'' Est, 42° 46' 04.00'' Nord";"66164";"LA BOADELLA";"TERRAIN COMMUNAL PRÈS STADE";"66600";"RIVESALTES";"Pylône tubulaire"; 18.0;"Commune, communauté de commune"
323372;2.90028;42.67472;"02° 54' 01.00'' Est, 42° 40' 29.00'' Nord";"66136";"MAS COSTE";"AV DE VILLENEUVE PARC DES SPORTS";"66100";"PERPIGNAN";"Pylône autostable"; 32.0;"Commune, communauté de commune"
326272;2.79278;42.83139;"02° 47' 34.00'' Est, 42° 49' 53.00'' Nord";"66231";;"COMA ROUJOU CARRIERE DE VINGRAU";"66600";"VINGRAU";"Bâtiment"; 8.0;"Particulier"
327556;3.11417;42.51917;"03° 06' 51.00'' Est, 42° 31' 09.00'' Nord";"66148";"REDOUTE BEAR";"PORT FEU ANTÉRIEUR";"66660";"PORT-VENDRES";"Phare"; 6.3;"Phares et balises"
327558;3.11417;42.52111;"03° 06' 51.00'' Est, 42° 31' 16.00'' Nord";"66148";"FORT DU FANAL";"FEU DE LA BALISE DU FORT DU FANAL";"66660";"PORT-VENDRES";"Local technique"; 2.0;"Phares et balises"
327560;3.11361;42.52111;"03° 06' 49.00'' Est, 42° 31' 16.00'' Nord";"66148";"FORT DU FANAL";"FEU DU FORT DU FANAL 18 ROUTE DE LA MIRANDA";"66660";"PORT-VENDRES";"Phare"; 15.0;"Phares et balises"
327562;3.11250;42.52083;"03° 06' 45.00'' Est, 42° 31' 15.00'' Nord";"66148";"LA MIRANDA";"FEU DE LA CRIÉE";"66660";"PORT-VENDRES";"Fût"; 3.0;"Phares et balises"
327637;2.85250;42.71556;"02° 51' 09.00'' Est, 42° 42' 56.00'' Nord";"66172";;"6, R DES MÉTIERS Z.I. LA MIRANDE  IMPRIMERIE SAINT-ANDRÉ";"66240";"SAINT-ESTEVE";"Pylône tubulaire"; 12.0;"ORANGE"
327663;3.11750;42.52278;"03° 07' 03.00'' Est, 42° 31' 22.00'' Nord";"66148";;"PHARE DU MÔLE LA JETÉE";"66660";"PORT-VENDRES";"Phare"; 14.0;"Phares et balises"
327665;3.11333;42.51722;"03° 06' 48.00'' Est, 42° 31' 02.00'' Nord";"66148";;"FEU POSTÉRIEUR";"66660";"PORT-VENDRES";"Local technique"; 8.0;"Phares et balises"
327667;3.10917;42.51806;"03° 06' 33.00'' Est, 42° 31' 05.00'' Nord";"66148";"POINTE DE LA PRESQU'ILE";"FEU DE LA POITE DE LA PRESQU'ÎLE QUAI DE LA PRESQU'ÎLE";"66660";"PORT-VENDRES";"Local technique"; 0.5;"Phares et balises"
327670;3.11139;42.51972;"03° 06' 41.00'' Est, 42° 31' 11.00'' Nord";"66148";;"QUAI DE LA QUARANTAINE FEU DE LA QUARANTAINE";"66660";"PORT-VENDRES";"Local technique"; 0.5;"Phares et balises"
327788;3.10917;42.51750;"03° 06' 33.00'' Est, 42° 31' 03.00'' Nord";"66148";;"CAPITAINERIE GARE MARITIME QUAI DE LA RÉPUBLIQUE";"66660";"PORT-VENDRES";"Bâtiment"; 17.5;"Conseil Départemental"
327793;3.11278;42.52167;"03° 06' 46.00'' Est, 42° 31' 18.00'' Nord";"66148";"FORT-DU FANAL";"MÂT DE SIGNAUX ROUTE DE LA MIRANDE";"66660";"PORT-VENDRES";"Pylône autostable"; 25.5;"Conseil Départemental"
331641;1.97417;42.42056;"01° 58' 27.00'' Est, 42° 25' 14.00'' Nord";"66130";"LA PERLE CERDANNE";"LIEUDIT LA PERLE CERDANNE";"66340";"OSSEJA";"Pylône haubané"; 24.0;
347915;2.94750;42.48250;"02° 56' 51.00'' Est, 42° 28' 57.00'' Nord";"66196";"PIC DE NEOULOS";"2 AV ALFRED SAUVY";"66690";"SOREDE";"Local technique"; 3.5;"BOUYGUES"
349325;2.83861;42.53278;"02° 50' 19.00'' Est, 42° 31' 58.00'' Nord";"66024";"ZONE ARTISANALE";"20 CAUER DEN CAVAILLÈS SPORT 2000";"66160";"LE BOULOU";"Bâtiment"; 12.0;"Société Privée SA"
349660;2.14194;42.49639;"02° 08' 31.00'' Est, 42° 29' 47.00'' Nord";"66142";"LA TOSSE";"CHEM DE LA SERRE";"66210";"PLANES";"Bâtiment"; 6.0;"ORANGE Services Fixes"
364110;2.86861;42.74083;"02° 52' 07.00'' Est, 42° 44' 27.00'' Nord";"66136";;"AEROPORT PERPIGNAN RIVESALTES";"66100";"PERPIGNAN";"Bâtiment"; 15.0;"CCI,Ch Metiers,Port Aut,Aérop"
366917;2.06889;42.57528;"02° 04' 08.00'' Est, 42° 34' 31.00'' Nord";"66004";;"PEU DEL BOSC D 32";"66210";"LES ANGLES";"Bâtiment"; 12.0;"Association"
369479;2.36222;42.59944;"02° 21' 44.00'' Est, 42° 35' 58.00'' Nord";"66223";"BELLOC";;"66500";"VILLEFRANCHE-DE-CONFLENT";"Bâtiment"; 5.0;"ORANGE Services Fixes"
395671;2.83417;42.52417;"02° 50' 03.00'' Est, 42° 31' 27.00'' Nord";"66024";;"1 PL DE LA MAIRIE";"66160";"LE BOULOU";"Bâtiment"; 15.0;"Particulier"
396253;3.03694;42.53833;"03° 02' 13.00'' Est, 42° 32' 18.00'' Nord";"66008";;"2397, ROUTE DÉPARTEMENTALE 114 CENTRE DE VACANCES AZUREVA";"66700";"ARGELES-SUR-MER";"Bâtiment"; 12.0;"Société Privée SA"
408922;3.10500;42.51611;"03° 06' 18.00'' Est, 42° 30' 58.00'' Nord";"66148";;"PL CASTELLANE CENTRE CULTUREL";"66660";"PORT-VENDRES";"Bâtiment"; 15.0;"Commune, communauté de commune"
415192;2.05278;42.57028;"02° 03' 10.00'' Est, 42° 34' 13.00'' Nord";"66004";;"PLATEAU DE BIGORRE ARRIVEE TELESKI DU REFUGE";"66210";"LES ANGLES";"Bâtiment"; 5.0;
429068;2.04306;42.50528;"02° 02' 35.00'' Est, 42° 30' 19.00'' Nord";"66124";;"AV EMMANUEL BROUSSE PARKING MUNICIPAL";"66120";"FONT-ROMEU-ODEILLO-VIA";"Bâtiment"; 12.0;
435401;2.88222;42.67194;"02° 52' 56.00'' Est, 42° 40' 19.00'' Nord";"66136";"SERRAT D'EN VAQUER SUD";"PORTE D'ESPAGNE RESERVOIR";"66000";"PERPIGNAN";"Château d'eau - réservoir"; 13.3;"Commune, communauté de commune"
435866;2.89250;42.73639;"02° 53' 33.00'' Est, 42° 44' 11.00'' Nord";"66136";;"379 R LOUIS DELAUNAY";"66000";"PERPIGNAN";"Pylône autostable"; 32.0;"TDF"
437973;3.03389;42.80944;"03° 02' 02.00'' Est, 42° 48' 34.00'' Nord";"66017";;"R ROI RENÉ CH D'EAU";"66420";"LE BARCARES";"Château d'eau - réservoir"; 26.0;"Commune, communauté de commune"
440579;3.03361;42.78667;"03° 02' 01.00'' Est, 42° 47' 12.00'' Nord";"66017";;"AVENUE DES CORBIÈRES AV J.J ROUSSEAU CHATEAU D'EAU";"66420";"LE BARCARES";"Château d'eau - réservoir"; 33.0;"Commune, communauté de commune"
440890;3.00194;42.70556;"03° 00' 07.00'' Est, 42° 42' 20.00'' Nord";"66037";"R STE ANNE";"AV DE PERPIGNAN";"66140";"CANET-EN-ROUSSILLON";"Château d'eau - réservoir"; 23.0;"Commune, communauté de commune"
443175;2.84806;42.58472;"02° 50' 53.00'' Est, 42° 35' 05.00'' Nord";"66226";;"CHEM RURAL DE VILLEMOLAQUE À BANYULS DESL RES";"66300";"VILLEMOLAQUE";"Pylône autostable"; 38.0;"BOUYGUES"
443433;2.76694;42.82861;"02° 46' 01.00'' Est, 42° 49' 43.00'' Nord";"66205";"FOURAT DE LAS NAU BOUQUES";;"66720";"TAUTAVEL";"Pylône autostable"; 12.0;"ORANGE Services Fixes"
443454;3.03056;42.68472;"03° 01' 50.00'' Est, 42° 41' 05.00'' Nord";"66037";"LA MARENDA";"R DE L'AUTAN";"66140";"CANET-EN-ROUSSILLON";"Château d'eau - réservoir"; 38.0;"Commune, communauté de commune"
446958;2.05389;42.52556;"02° 03' 14.00'' Est, 42° 31' 32.00'' Nord";"66124";"SERRAT DE L'OS";"PYRÉNÉES 2000";"66120";"FONT-ROMEU-ODEILLO-VIA";"Pylône tubulaire"; 10.0;"ATC FRANCE"
451199;3.03361;42.60667;"03° 02' 01.00'' Est, 42° 36' 24.00'' Nord";"66171";"MAS DES CAPELLANS";"AV ARMAND LANOUX/R VERDI PARKING DU CLUB HOUSE";"66750";"SAINT-CYPRIEN";"Pylône autostable"; 34.0;"ORANGE"
451998;2.86944;42.76500;"02° 52' 10.00'' Est, 42° 45' 54.00'' Nord";"66164";;"1 AV JULES VERNES SALANQUE";"66600";"RIVESALTES";"Pylône autostable"; 21.0;"ORANGE Services Fixes"
453439;3.11139;42.51167;"03° 06' 41.00'' Est, 42° 30' 42.00'' Nord";"66148";"CAMI DE COLL DEL MIG";"CROIX BLANCHE PYLONE TDF";"66660";"PORT-VENDRES";"Pylône autostable"; 16.0;"TDF"
453769;2.82333;42.52111;"02° 49' 24.00'' Est, 42° 31' 16.00'' Nord";"66024";;"AV FOCH";"66160";"LE BOULOU";"Pylône autostable"; 38.0;"ORANGE Services Fixes"
454415;3.17417;42.43972;"03° 10' 27.00'' Est, 42° 26' 23.00'' Nord";"66048";"CAP CERBERE";"N.114 - PYLÔNE TDF";"66290";"CERBERE";"Pylône autostable"; 27.0;"TDF"
456264;2.75528;42.44861;"02° 45' 19.00'' Est, 42° 26' 55.00'' Nord";"66049";"PIC DE FONTFRÈDE";;"66400";"CERET";"Pylône autostable"; 20.0;"ORANGE Services Fixes"
456714;2.91917;42.54111;"02° 55' 09.00'' Est, 42° 32' 28.00'' Nord";"66175";;"R JEAN JAURÉS CH D'EAU";"66740";"SAINT-GENIS-DES-FONTAINES";"Château d'eau - réservoir"; 24.0;"Commune, communauté de commune"
457464;3.03444;42.63222;"03° 02' 04.00'' Est, 42° 37' 56.00'' Nord";"66171";;"8 R EUGÈNE DELACROIX RUE AUGUSTE RODIN HÔTEL MARISOL";"66750";"SAINT-CYPRIEN";"Immeuble"; 26.0;"Particulier"
458710;2.95972;42.54556;"02° 57' 35.00'' Est, 42° 32' 44.00'' Nord";"66168";;"RTE DE SORÈDE LA TUILERIE";"66690";"SAINT-ANDRE";"Château d'eau - réservoir"; 30.0;"Commune, communauté de commune"
463550;2.75222;42.68583;"02° 45' 08.00'' Est, 42° 41' 09.00'' Nord";"66140";"LES GOURGUES";"PRÉS D16A";"66370";"PEZILLA-LA-RIVIERE";"Pylône autostable"; 30.0;"ORANGE"
463626;2.69861;42.70139;"02° 41' 55.00'' Est, 42° 42' 05.00'' Nord";"66108";"PLANES D'ABAIX";"RD 614";"66170";"MILLAS";"Pylône autostable"; 18.0;"ORANGE"
464204;2.05944;42.51222;"02° 03' 34.00'' Est, 42° 30' 44.00'' Nord";"66020";;"2 AV DES LILAS GARAGE COMMUNAL";"66210";"BOLQUERE";"Pylône tubulaire"; 27.0;"ORANGE"
467760;2.91056;42.69861;"02° 54' 38.00'' Est, 42° 41' 55.00'' Nord";"66136";;"R ARISTIDE MAILLOL R MARCEL PROUST";"66000";"PERPIGNAN";"Château d'eau - réservoir"; 47.0;"Syndicat des eaux, Adduction"
467781;2.87167;42.68944;"02° 52' 18.00'' Est, 42° 41' 22.00'' Nord";"66136";;"93 AV DU DR TORREILLES";"66000";"PERPIGNAN";"Bâtiment"; 7.0;"Particulier"
468178;2.89444;42.69778;"02° 53' 40.00'' Est, 42° 41' 52.00'' Nord";"66136";;"46 R DES AUGUSTINS";"66000";"PERPIGNAN";"Immeuble"; 15.0;"Titulaire programme Radio/TV"
474842;2.51278;42.39306;"02° 30' 46.00'' Est, 42° 23' 35.00'' Nord";"66150";"PUIG COLOM";;"66230";"PRATS-DE-MOLLO-LA-PRESTE";"Pylône autostable"; 30.0;"HIVORY"
475196;2.91500;42.63528;"02° 54' 54.00'' Est, 42° 38' 07.00'' Nord";"66227";;"R DU CHÂTEAU D'EAU";"66180";"VILLENEUVE-DE-LA-RAHO";"Château d'eau - réservoir"; 22.4;"Commune, communauté de commune"
475223;2.84333;42.71250;"02° 50' 36.00'' Est, 42° 42' 45.00'' Nord";"66172";;"RTE DE RIVESALTES -PL DU CHATEAU D'EAU RESERVOIR DU BELVEDERE";"66240";"SAINT-ESTEVE";"Château d'eau - réservoir"; 19.0;"Commune, communauté de commune"
475237;2.98472;42.77083;"02° 59' 05.00'' Est, 42° 46' 15.00'' Nord";"66180";;"CHEM DE TOREILLES CHÂTEAU D'EAU";"66250";"SAINT-LAURENT-DE-LA-SALANQUE";"Château d'eau - réservoir"; 37.0;"Commune, communauté de commune"
479817;3.03333;42.69750;"03° 01' 60.00'' Est, 42° 41' 51.00'' Nord";"66037";;"AV DE LA CATALOGNE CH D'EAU";"66140";"CANET-EN-ROUSSILLON";"Château d'eau - réservoir"; 42.0;"Commune, communauté de commune"
481133;2.73222;42.62333;"02° 43' 56.00'' Est, 42° 37' 24.00'' Nord";"66170";;"ROUTE DE CASTELNOU";"66300";"SAINTE-COLOMBE-DE-LA-COMMANDERIE";"Bâtiment"; 3.0;"Particulier"
481135;2.73333;42.62333;"02° 44' 00.00'' Est, 42° 37' 24.00'' Nord";"66170";;"ROUTE DE CASTELNOU";"66300";"SAINTE-COLOMBE-DE-LA-COMMANDERIE";"Bâtiment"; 6.0;"Particulier"
481137;2.73278;42.62361;"02° 43' 58.00'' Est, 42° 37' 25.00'' Nord";"66170";;"RTE DE CASTELNOU";"66300";"SAINTE-COLOMBE-DE-LA-COMMANDERIE";"Bâtiment"; 6.0;"Particulier"
484049;2.92194;42.58833;"02° 55' 19.00'' Est, 42° 35' 18.00'' Nord";"66129";"CORREC DEL CAPELLA";"TERRAIN EDF";"66560";"ORTAFFA";"Pylône autostable"; 25.0;"EDF ou GDF"
484108;3.12417;42.51528;"03° 07' 27.00'' Est, 42° 30' 55.00'' Nord";"66148";;"FORT BEAR";"66660";"PORT-VENDRES";"Pylône autostable"; 20.0;"ORANGE Services Fixes"
486225;2.65833;42.65111;"02° 39' 30.00'' Est, 42° 39' 04.00'' Nord";"66055";;"EGLISE DU CHATEAU";"66130";"CORBERE";"Monument religieux"; 10.0;"Commune, communauté de commune"
486813;2.78000;42.68083;"02° 46' 48.00'' Est, 42° 40' 51.00'' Nord";"66195";;"R DU 11 NOVEMBRE-CHATEAU D'EAU CHATEAU D'EAU";"66270";"LE SOLER";"Château d'eau - réservoir"; 28.5;"Commune, communauté de commune"
492350;3.03417;42.82278;"03° 02' 03.00'' Est, 42° 49' 22.00'' Nord";"66017";"MAS DE LA GRÊLE";"AV DU LITTORAL";"66420";"LE BARCARES";"Pylône autostable"; 36.0;"ORANGE Services Fixes"
492639;2.75083;42.62861;"02° 45' 03.00'' Est, 42° 37' 43.00'' Nord";"66210";"LA CANTARRANA";"RÉSIDENCE LA CANTARRANA RUE DES PINS";"66300";"THUIR";"Immeuble"; 39.2;"Société HLM"
497483;2.86806;42.56611;"02° 52' 05.00'' Est, 42° 33' 58.00'' Nord";"66015";"R DE L'AIRE";"LE CHÂTEAU D'EAU COMMUNAL";"66300";"BANYULS-DELS-ASPRES";"Château d'eau - réservoir"; 30.0;"Commune, communauté de commune"
498688;2.52417;42.80500;"02° 31' 27.00'' Est, 42° 48' 18.00'' Nord";"66097";"CRETE DE LESQUERDE";"SERRE DE L'ARTIGUE DEL BAURIEN";"66220";"LESQUERDE";"Pylône autostable"; 45.0;"TDF"
498907;2.99944;42.61528;"02° 59' 58.00'' Est, 42° 36' 55.00'' Nord";"66171";"LE BELVÉDÈRE";"R PIERRE BENOIT CHÂTEAU D'EAU";"66750";"SAINT-CYPRIEN";"Château d'eau - réservoir"; 42.0;"Commune, communauté de commune"
500135;2.64389;42.48139;"02° 38' 38.00'' Est, 42° 28' 53.00'' Nord";"66113";"LOUS QUINTANS";"PIC DE CAN-KIRC STATION TDF D'AMELIE LES BAINS";"66110";"MONTBOLO";"Pylône autostable"; 23.0;"TDF"
500912;2.88917;42.85361;"02° 53' 21.00'' Est, 42° 51' 13.00'' Nord";"66190";"CRÈS DE MIL";;"66600";"SALSES-LE-CHATEAU";"Pylône autostable"; 12.0;"ORANGE Services Fixes"
501976;2.86778;42.86778;"02° 52' 04.00'' Est, 42° 52' 04.00'' Nord";"66127";;"ROUTE DE VINGRAU AUTOCOMMUTATEUR";"66600";"OPOUL-PERILLOS";"Pylône tubulaire"; 17.0;"ORANGE Services Fixes"
502871;2.36222;42.59917;"02° 21' 44.00'' Est, 42° 35' 57.00'' Nord";"66223";"BELLOC";"FORÊT DOMANIALE DU CORONAT";"66500";"VILLEFRANCHE-DE-CONFLENT";"Pylône autostable"; 45.0;"TDF"
502946;2.88194;42.70472;"02° 52' 55.00'' Est, 42° 42' 17.00'' Nord";"66136";;"IMP DE LA MUGA HLM CLODION - BAS VERNET";"66000";"PERPIGNAN";"Immeuble"; 34.0;"Société HLM"
502952;2.05583;42.57167;"02° 03' 21.00'' Est, 42° 34' 18.00'' Nord";"66004";"PIC DU LIARET";"PYLÔNE TDF DE LES ANGLES";"66210";"LES ANGLES";"Pylône autostable"; 30.0;"Commune, communauté de commune"
503628;1.82417;42.55139;"01° 49' 27.00'' Est, 42° 33' 05.00'' Nord";"66147";"LA RIBA REDONA";"RN 20";"66760";"PORTE-PUYMORENS";"Pylône autostable"; 24.0;"TDF"
507114;2.03194;42.42333;"02° 01' 55.00'' Est, 42° 25' 24.00'' Nord";"66181";"ROQUE D'EN VERT";"RTE DE PUIGMAL";"66800";"SAINTE-LEOCADIE";"Pylône autostable"; 37.0;"Commune, communauté de commune"
507599;2.66917;42.47722;"02° 40' 09.00'' Est, 42° 28' 38.00'' Nord";"66003";"PALALDA LE CALVAIRE";"LES TERRASSES ROUTE DE MONTBOLO";"66110";"AMELIE-LES-BAINS-PALALDA";"Pylône autostable"; 22.0;"TDF"
508791;2.28611;42.54028;"02° 17' 10.00'' Est, 42° 32' 25.00'' Nord";"66123";"PIC DE LA SERRE";"STATION TDF D'OLETTE 2 NYER";"66360";"NYER";"Pylône autostable"; 40.0;"TDF"
511126;2.37361;42.54167;"02° 22' 25.00'' Est, 42° 32' 30.00'' Nord";"66222";"LE PRA DAMONT";"CHEM LA SERRE";"66820";"VERNET-LES-BAINS";"Pylône autostable"; 32.7;"TDF"
513178;2.70000;42.72694;"02° 42' 00.00'' Est, 42° 43' 37.00'' Nord";"66108";"FORÇA REAL";"RÉÉMETTEUR TDF";"66170";"MILLAS";"Pylône autostable"; 49.0;"TDF"
517648;2.83528;42.49194;"02° 50' 07.00'' Est, 42° 29' 31.00'' Nord";"66063";"POUX SALERES";"A 9-POINT KILOMETRIQUE 276.5";"66480";"LES CLUSES";"Pylône tubulaire"; 11.0;"Sociétés d'Autoroutes"
517659;2.51417;42.39306;"02° 30' 51.00'' Est, 42° 23' 35.00'' Nord";"66150";"PUIG COLOM";;"66230";"PRATS-DE-MOLLO-LA-PRESTE";"Pylône autostable"; 23.0;"TDF"
520216;2.92056;42.83083;"02° 55' 14.00'' Est, 42° 49' 51.00'' Nord";"66190";"ST GAUDERIQUE";"AV F TUBEAU";"66600";"SALSES-LE-CHATEAU";"Château d'eau - réservoir"; 33.0;"Commune, communauté de commune"
520754;2.77778;42.76667;"02° 46' 40.00'' Est, 42° 45' 60.00'' Nord";"66030";"LAS COUMOS DE LA QUIRRO";;"66600";"CALCE";"Pylône autostable"; 20.0;"Société Privée SA"
521856;2.46028;42.67194;"02° 27' 37.00'' Est, 42° 40' 19.00'' Nord";"66007";"PIC DE BAU";;"66320";"ARBOUSSOLS";"Pylône autostable"; 37.0;"TDF"
526229;2.96917;42.71111;"02° 58' 09.00'' Est, 42° 42' 40.00'' Nord";"66136";;"ANCIENNE ROUTE DE CANET DOMAINE LAFAGE";"66000";"PERPIGNAN";"Pylône tubulaire"; 15.0;"ORANGE"
526330;1.73639;42.54444;"01° 44' 11.00'' Est, 42° 32' 40.00'' Nord";"66146";"PAS DE LA CASA";"LAS BAILLETAS";"66760";"PORTA";"Pylône autostable"; 22.0;"CELLNEX"
528884;2.97111;42.60278;"02° 58' 16.00'' Est, 42° 36' 10.00'' Nord";"66065";;"12 R JOFFRE PRES INTERSEC RN 114 ET D 11";"66200";"ELNE";"Pylône tubulaire"; 37.0;"ORANGE Services Fixes"
531994;2.80778;42.76028;"02° 48' 28.00'' Est, 42° 45' 37.00'' Nord";"66014";;"CARRIÈRE DE BAIXAS";"66390";"BAIXAS";"Pylône haubané"; 35.0;"Towercast"
533560;2.92611;42.69944;"02° 55' 34.00'' Est, 42° 41' 58.00'' Nord";"66136";;"93/95 R JEAN BULLANT";"66000";"PERPIGNAN";"Immeuble"; 23.0;"Copropriété, Syndic, SCI"
533628;2.89111;42.69722;"02° 53' 28.00'' Est, 42° 41' 50.00'' Nord";"66136";;"1 SQ ARAGO 4, PL DU 8 MAI 1945";"66000";"PERPIGNAN";"Immeuble"; 36.2;"Copropriété, Syndic, SCI"
533632;3.09000;42.52444;"03° 05' 24.00'' Est, 42° 31' 28.00'' Nord";"66053";;"22 RTE DE PORT VENDRES";"66190";"COLLIOURE";"Bâtiment"; 10.0;"Particulier"
538974;3.07444;42.49056;"03° 04' 28.00'' Est, 42° 29' 26.00'' Nord";"66148";"TORRE DE MADALOC";"STATION TDF DE PORT VENDRES TOUR MADELOC";"66660";"PORT-VENDRES";"Monument historique"; 38.0;"TDF"
541645;2.77056;42.83083;"02° 46' 14.00'' Est, 42° 49' 51.00'' Nord";"66205";"CRÊTE NORD";"FOURN DE LAS BOUGNES";"66720";"TAUTAVEL";"Pylône haubané"; 24.0;"Conseil Départemental"
542342;2.76694;42.82861;"02° 46' 01.00'' Est, 42° 49' 43.00'' Nord";"66205";"BAOU DE LA NOU";"FOURAT DE LAS NAU BOUQUES";"66720";"TAUTAVEL";"Pylône autostable"; 18.0;"EDF ou GDF"
549476;2.77861;42.76667;"02° 46' 43.00'' Est, 42° 45' 60.00'' Nord";"66014";"LES COUMOS DE LA QUIRRO";;"66390";"BAIXAS";"Pylône autostable"; 25.0;"Société Privée SA"
555620;2.80806;42.76083;"02° 48' 29.00'' Est, 42° 45' 39.00'' Nord";"66014";"LAS ESPERERES";;"66390";"BAIXAS";"Pylône haubané"; 42.0;"Lagardère Active Média"
559311;2.42194;42.63111;"02° 25' 19.00'' Est, 42° 37' 52.00'' Nord";"66045";;"MONTCAMILL";"66500";"CATLLAR";"Pylône autostable"; 12.0;"TDF"
560118;2.93139;42.67833;"02° 55' 53.00'' Est, 42° 40' 42.00'' Nord";"66028";"EL MOLINAS";"PYLONE TDF";"66330";"CABESTANY";"Pylône autostable"; 56.0;"TDF"
566894;2.70694;42.49944;"02° 42' 25.00'' Est, 42° 29' 58.00'' Nord";"66160";"LE VILA";"ROUTE DE L' ÉGLISE PROCHE D15 VERS LIEU DIT CLAIRE FONTAINE";"66400";"REYNES";"Pylône tubulaire"; 12.0;"ORANGE"
568454;2.73694;42.49972;"02° 44' 13.00'' Est, 42° 29' 59.00'' Nord";"66049";"RIVESALTES";"CHEM DE ST PAUL";"66400";"CERET";"Pylône autostable"; 8.0;"ORANGE"
573488;2.89083;42.70833;"02° 53' 27.00'' Est, 42° 42' 30.00'' Nord";"66136";;"57 AVE MARECHAL JOFFRE";"66000";"PERPIGNAN";"Immeuble"; 30.7;"Copropriété, Syndic, SCI"
574958;3.04694;42.55139;"03° 02' 49.00'' Est, 42° 33' 05.00'' Nord";"66008";;"ALLÉE DES PALMIERS";"66700";"ARGELES-SUR-MER";"Immeuble"; 18.0;"Copropriété, Syndic, SCI"
576987;3.03833;42.70361;"03° 02' 18.00'' Est, 42° 42' 13.00'' Nord";"66037";;"CAPITAINERIE DU PORT ZONE TECHNIQUE";"66140";"CANET-EN-ROUSSILLON";"Pylône tubulaire"; 12.0;"ORANGE"
577056;2.93528;42.68972;"02° 56' 07.00'' Est, 42° 41' 23.00'' Nord";"66028";;"AV CAMILLE CLAUDEL ROND-POINT COSTA ROJA";"66330";"CABESTANY";"Pylône tubulaire"; 16.5;"Etat, Ministère"
577703;2.94806;42.48222;"02° 56' 53.00'' Est, 42° 28' 56.00'' Nord";"66196";"PIC DE NEOULOS";"2 AV ALFRED SAUVY";"66690";"SOREDE";"Pylône autostable"; 67.0;"TDF"
590836;3.15722;42.43500;"03° 09' 26.00'' Est, 42° 26' 06.00'' Nord";"66048";;"RTE D'ESPAGNE POSTE FRONTIÈRE N 114";"66290";"CERBERE";"Bâtiment"; 7.0;"Particulier"
592279;2.41667;42.61556;"02° 24' 60.00'' Est, 42° 36' 56.00'' Nord";"66149";;"R JOSEPH ROUS";"66500";"PRADES";"Pylône autostable"; 28.0;"ORANGE Services Fixes"
594343;2.88917;42.70194;"02° 53' 21.00'' Est, 42° 42' 07.00'' Nord";"66136";;"22 RÉSIDENCE UNIVERSALIS 1 ESPACE MÉDITERRANÉE -20 AV GÉNÉRAL LECLERC";"66000";"PERPIGNAN";"Immeuble"; 31.0;"Copropriété, Syndic, SCI"
595193;2.86139;42.47222;"02° 51' 41.00'' Est, 42° 28' 20.00'' Nord";"66137";;"A 9 PK 280,470 ASF";"66480";"LE PERTHUS";"Pylône autostable"; 41.0;"Sociétés d'Autoroutes"
612443;2.89083;42.68333;"02° 53' 27.00'' Est, 42° 40' 60.00'' Nord";"66136";;"R DES ALOÉS CE PUIG JOAN";"66000";"PERPIGNAN";"Château d'eau - réservoir"; 26.0;"Commune, communauté de commune"
614397;1.98750;42.41722;"01° 59' 15.00'' Est, 42° 25' 02.00'' Nord";"66130";"PUJALS";"PYLÔNE AU N-E DU CTRE VILLE D'OSSEJA";"66340";"OSSEJA";"Pylône autostable"; 18.0;"ORANGE"
616958;1.89139;42.45667;"01° 53' 29.00'' Est, 42° 27' 24.00'' Nord";"66095";"TRAVALS";"LA TOUR DE CAROL";"66760";"LATOUR-DE-CAROL";"Pylône autostable"; 24.4;"TDF"
618626;2.78528;42.48250;"02° 47' 07.00'' Est, 42° 28' 57.00'' Nord";"66106";"LES BURGUERÊS";"CHEM RURAL";"66480";"MAUREILLAS-LAS-ILLAS";"Pylône autostable"; 20.0;"ORANGE"
618636;2.78083;42.76778;"02° 46' 51.00'' Est, 42° 46' 04.00'' Nord";"66041";"ROQUE REDOUN";;"66600";"CASES-DE-PENE";"Bâtiment"; 10.0;"Commune, communauté de commune"
619562;1.99528;42.50472;"01° 59' 43.00'' Est, 42° 30' 17.00'' Nord";"66202";"EL COLOMER";"RÉSERVOIR D'EAU";"66120";"TARGASSONNE";"Château d'eau - réservoir"; 7.7;"Commune, communauté de commune"
619808;2.97944;42.66861;"02° 58' 46.00'' Est, 42° 40' 07.00'' Nord";"66186";"EL TERRO BUIXA";"CHEM RURAL STADE MUNICIPAL";"66570";"SAINT-NAZAIRE";"Pylône tubulaire"; 20.0;"ORANGE"
623070;2.56083;42.55028;"02° 33' 39.00'' Est, 42° 33' 01.00'' Nord";"66018";;"CREU DEN TOURON";"66110";"LA BASTIDE";"Pylône autostable"; 13.6;"TDF"
625827;3.04278;42.56861;"03° 02' 34.00'' Est, 42° 34' 07.00'' Nord";"66008";"BD  DE LA MER";"CAMPING  LE ROUSSILLONNAIS";"66700";"ARGELES-SUR-MER";"Château d'eau - réservoir"; 16.0;"Commune, communauté de commune"
632251;3.11778;42.47472;"03° 07' 04.00'' Est, 42° 28' 29.00'' Nord";"66016";;"MAS REIG PRÈS D.86";"66650";"BANYULS-SUR-MER";"Pylône autostable"; 19.0;"ORANGE"
639364;3.00917;42.55833;"03° 00' 33.00'' Est, 42° 33' 30.00'' Nord";"66008";;"ZAE 3 RTE DE PERPIGNAN";"66700";"ARGELES-SUR-MER";"Bâtiment"; 6.0;"Copropriété, Syndic, SCI"
642830;2.44389;42.62250;"02° 26' 38.00'' Est, 42° 37' 21.00'' Nord";"66149";;"ESP ALFRED SAUVY";"66500";"PRADES";"Pylône tubulaire"; 18.0;"ORANGE"
646184;2.90194;42.67972;"02° 54' 07.00'' Est, 42° 40' 47.00'' Nord";"66136";;"R ALFRED SAUVY CENTRE TDF";"66000";"PERPIGNAN";"Bâtiment"; 28.4;"TDF"
648402;2.03778;42.50417;"02° 02' 16.00'' Est, 42° 30' 15.00'' Nord";"66124";;"2 AV EMMANUEL BROUSSE CENTRAL FT";"66120";"FONT-ROMEU-ODEILLO-VIA";"Bâtiment"; 25.0;"ORANGE Services Fixes"
653187;2.61306;42.44111;"02° 36' 47.00'' Est, 42° 26' 28.00'' Nord";"66009";"LE RIPOLL";;"66150";"ARLES-SUR-TECH";"Pylône tubulaire"; 23.0;"HIVORY"
654290;2.14194;42.49639;"02° 08' 31.00'' Est, 42° 29' 47.00'' Nord";"66142";"LA TOSSE";"CHEM DE LA SERRE";"66210";"PLANES";"Pylône autostable"; 24.0;"ORANGE"
656512;2.60944;42.39222;"02° 36' 34.00'' Est, 42° 23' 32.00'' Nord";"66179";"LA REDOUTE";"MAS DE LA SORT";"66260";"SAINT-LAURENT-DE-CERDANS";"Pylône autostable"; 29.0;"HIVORY"
661073;1.81139;42.55972;"01° 48' 41.00'' Est, 42° 33' 35.00'' Nord";"66147";"COL DE PUYMORENS";"HÔTEL DU COL";"66760";"PORTE-PUYMORENS";"Immeuble"; 10.0;"Société Privée SA"
661593;3.02250;42.62111;"03° 01' 21.00'' Est, 42° 37' 16.00'' Nord";"66171";;"CHEM DE LATOUR BAS-ELNE À LA MER ROUTE  PAL DEL MASSOT STATION D'ÉPURATION";"66750";"SAINT-CYPRIEN";"Pylône autostable"; 22.0;"ORANGE"
670472;2.77917;42.76806;"02° 46' 45.00'' Est, 42° 46' 05.00'' Nord";"66041";"LES COUMOS DE LA QUIRRO";;"66600";"CASES-DE-PENE";"Pylône autostable"; 24.0;"Titulaire programme Radio/TV"
671344;2.70194;42.77611;"02° 42' 07.00'' Est, 42° 46' 34.00'' Nord";"66071";;"165 AV DE LA COOPÉRATIVE";"66310";"ESTAGEL";"Bâtiment"; 24.0;"Coopérative Agricole, Vinicole"
673277;2.85639;42.69250;"02° 51' 23.00'' Est, 42° 41' 33.00'' Nord";"66136";"HORS DE ST ESTÈVE";"10 R GABRIEL LIPPMANN";"66000";"PERPIGNAN";"Pylône autostable"; 21.0;"ORANGE"
673385;2.82833;42.72028;"02° 49' 42.00'' Est, 42° 43' 13.00'' Nord";"66172";"QUATRE CAMINS";"CHEM DU FOURNAS CIMETIÈRE DE L'OUEST";"66240";"SAINT-ESTEVE";"Pylône tubulaire"; 20.0;"ORANGE"
673454;2.60194;42.80194;"02° 36' 07.00'' Est, 42° 48' 07.00'' Nord";"66107";"BAC DE L'AVÈZE EST";;"66460";"MAURY";"Pylône tubulaire"; 16.0;"SFR"
679175;3.07000;42.52694;"03° 04' 12.00'' Est, 42° 31' 37.00'' Nord";"66053";"PUIG D'AMBELLA";"ANCIENNE ROUTE DE COLLIOURE";"66190";"COLLIOURE";"Château d'eau - réservoir"; 6.0;"Commune, communauté de commune"
681541;2.81917;42.52667;"02° 49' 09.00'' Est, 42° 31' 36.00'' Nord";"66024";;"A 9 - POINT KILOMETRIQUE 271.5 - BARRIERE DE PEAGE";"66160";"LE BOULOU";"Pylône autostable"; 43.0;"Sociétés d'Autoroutes"
684345;1.94583;42.43556;"01° 56' 45.00'' Est, 42° 26' 08.00'' Nord";"66025";;"12 B AV EMMANUEL BROUSSE";"66760";"BOURG-MADAME";"Immeuble"; 12.0;"Particulier"
689024;3.07056;42.51556;"03° 04' 14.00'' Est, 42° 30' 56.00'' Nord";"66053";"PUIG D'AMBELLA";"RTE DE MADALOC";"66190";"COLLIOURE";"pylône arbre"; 6.0;"HIVORY"
693165;2.62361;42.45639;"02° 37' 25.00'' Est, 42° 27' 23.00'' Nord";"66009";"LE CHÂTEAU BLEU";"AV PIERRE BERGÉ";"66150";"ARLES-SUR-TECH";"Immeuble"; 19.5;"Association"
710262;2.98583;42.72806;"02° 59' 09.00'' Est, 42° 43' 41.00'' Nord";"66224";"LE CHRIST";"1 R JEAN MOULIN";"66410";"VILLELONGUE-DE-LA-SALANQUE";"Château d'eau - réservoir"; 30.3;"Commune, communauté de commune"
712418;2.89139;42.74944;"02° 53' 29.00'' Est, 42° 44' 58.00'' Nord";"66141";;"AIRE DE REPOS DE RIVESALTES A 9 LA CATALANE";"66380";"PIA";"Pylône autostable"; 45.0;"Sociétés d'Autoroutes"
719394;2.81139;42.71111;"02° 48' 41.00'' Est, 42° 42' 40.00'' Nord";"66012";"CAMI-DE-LA-PEDRERA";"STATION DVRN D 616";"66540";"BAHO";"Tour hertzienne"; 78.0;"TDF"
726038;3.03278;42.83667;"03° 01' 58.00'' Est, 42° 50' 12.00'' Nord";"66017";;"RÉSIDENCE DES BRIGANTINS";"66420";"LE BARCARES";"Pylône tubulaire"; 13.0;"HIVORY"
726972;2.11417;42.46750;"02° 06' 51.00'' Est, 42° 28' 03.00'' Nord";"66188";"CAMBRE D'AZE";"TÉLÉSKI DE FONTFRÈDE T60";"66210";"SAINT-PIERRE-DELS-FORCATS";"Pylône haubané"; 12.0;"Société Privée SA"
731134;2.60333;42.66306;"02° 36' 12.00'' Est, 42° 39' 47.00'' Nord";"66088";"LES ESCATLLARS";"42 ROUTE DE PRADES CENTRE EXPLOITATAION INTERVENTION";"66130";"ILLE-SUR-TET";"Pylône autostable"; 20.0;"BOUYGUES"
736102;2.37194;42.78917;"02° 22' 19.00'' Est, 42° 47' 21.00'' Nord";"66077";"LA COUME";"LES BORDES";"66220";"FENOUILLET";"Mât"; 10.0;"ORANGE"
736661;2.37861;42.77833;"02° 22' 43.00'' Est, 42° 46' 42.00'' Nord";"66077";"ROC DE LA MARTINE";;"66220";"FENOUILLET";"Pylône autostable"; 27.0;"ATC FRANCE"
739743;3.15222;42.46722;"03° 09' 08.00'' Est, 42° 28' 02.00'' Nord";"66016";"COL DE SÉRIS";"RTE DE CERBERE RD 914";"66650";"BANYULS-SUR-MER";"Pylône autostable"; 24.0;"TDF"
745557;2.55972;42.76639;"02° 33' 35.00'' Est, 42° 45' 59.00'' Nord";"66092";;"AV DES JARDINS D 79";"66720";"LANSAC";"Mât"; 8.0;"ORANGE Services Fixes"
748066;2.53083;42.64833;"02° 31' 51.00'' Est, 42° 38' 54.00'' Nord";"66230";;"CSE POMPIERS DE VINCA";"66320";"VINCA";"Pylône autostable"; 24.0;"ORANGE"
749131;2.85861;42.66556;"02° 51' 31.00'' Est, 42° 39' 56.00'' Nord";"66136";"ECHENGEUR PERPIGNAN SUD";"A.9 - ECH PERPIGNAN SUD PÉAGE";"66100";"PERPIGNAN";"Pylône autostable"; 40.0;"Sociétés d'Autoroutes"
752150;2.52889;42.65528;"02° 31' 44.00'' Est, 42° 39' 19.00'' Nord";"66007";"COME D'UTRERE";"CH DE TAREACH";"66320";"ARBOUSSOLS";"Bâtiment"; 12.0;"Particulier"
753226;2.40861;42.77417;"02° 24' 31.00'' Est, 42° 46' 27.00'' Nord";"66232";"CORTAL DEL MANAUD";;"66220";"VIRA";"Pylône autostable"; 20.0;"ORANGE"
753228;2.46389;42.78472;"02° 27' 50.00'' Est, 42° 47' 05.00'' Nord";"66184";"LE GINESTET";"D 7";"66220";"SAINT-MARTIN";"Mât béton"; 8.0;"ORANGE"
754849;2.45472;42.77083;"02° 27' 17.00'' Est, 42° 46' 15.00'' Nord";"66234";;"R DU CHATEAU";"66730";"LE VIVIER";"Mât"; 1.2;"ORANGE Services Fixes"
754853;2.42944;42.78639;"02° 25' 46.00'' Est, 42° 47' 11.00'' Nord";"66083";"LAS CABANES";"R DES JARDINS";"66220";"FOSSE";"Mât béton"; 10.0;"ORANGE Services Fixes"
756990;1.95000;42.43361;"01° 57' 00.00'' Est, 42° 26' 01.00'' Nord";"66025";;"10 LOT CASANOVA";"66760";"BOURG-MADAME";"Immeuble"; 25.0;"Société Privée SA"
758687;2.72694;42.54944;"02° 43' 37.00'' Est, 42° 32' 58.00'' Nord";"66099";"TORRER BLANC";"RTE DE OMS";"66300";"LLAURO";"Pylône autostable"; 45.0;"Société Privée SA"
760327;2.85167;42.60694;"02° 51' 06.00'' Est, 42° 36' 25.00'' Nord";"66217";;"CAMP LLARG STATION ASF - A9/D612";"66300";"TROUILLAS";"Pylône autostable"; 40.0;"Sociétés d'Autoroutes"
761357;2.30306;42.63861;"02° 18' 11.00'' Est, 42° 38' 19.00'' Nord";"66219";;"CHEM DE LAS PLANES PYLONE TDF";"66500";"URBANYA";"Pylône autostable"; 19.0;"TDF"
776956;2.60833;42.73472;"02° 36' 30.00'' Est, 42° 44' 05.00'' Nord";"66042";;"PRÈS RÉSERVOIRS ROC DEL FRARE - D 17";"66720";"CASSAGNES";"Pylône autostable"; 11.0;"Commune, communauté de commune"
776975;2.61667;42.75611;"02° 37' 00.00'' Est, 42° 45' 22.00'' Nord";"66042";"LES PRATS";;"66720";"CASSAGNES";"Pylône autostable"; 26.0;"Commune, communauté de commune"
783060;2.89694;42.73500;"02° 53' 49.00'' Est, 42° 44' 06.00'' Nord";"66136";"HAUT VERNET";"R JEAN-BAPTISTE BIOT  POSTE SOURCE HAUT VERNET";"66000";"PERPIGNAN";"Bâtiment"; 10.0;"EDF ou GDF"
783090;3.00333;42.78806;"03° 00' 12.00'' Est, 42° 47' 17.00'' Nord";"66180";"L'AVARATXA";"CHEM DE L'AVARATXA  POSTE ÉLECTRIQUE DE L'AVARATXA";"66250";"SAINT-LAURENT-DE-LA-SALANQUE";"Bâtiment"; 7.0;"EDF ou GDF"
792132;3.02611;42.54278;"03° 01' 34.00'' Est, 42° 32' 34.00'' Nord";"66008";;"R JEAN MOULIN HLM BAT C";"66700";"ARGELES-SUR-MER";"Immeuble"; 24.0;"Particulier"
795404;2.99889;42.75167;"02° 59' 56.00'' Est, 42° 45' 06.00'' Nord";"66212";"LA MADRAGUERA";"RD 11 SERVICES MUNICIPAUX";"66440";"TORREILLES";"Pylône tubulaire"; 30.1;"ATC FRANCE"
803971;2.97611;42.60778;"02° 58' 34.00'' Est, 42° 36' 28.00'' Nord";"66065";;"R DENIS PAPIN AGENCE D'EXPLOITATION";"66200";"ELNE";"Mât métallique"; 10.0;"EDF ou GDF"
804172;2.92806;42.73306;"02° 55' 41.00'' Est, 42° 43' 59.00'' Nord";"66021";"PRÉS LES VINYES";"R DU CH D'EAU";"66430";"BOMPAS";"Château d'eau - réservoir"; 33.0;"Commune, communauté de commune"
809018;2.90222;42.68472;"02° 54' 08.00'' Est, 42° 41' 05.00'' Nord";"66136";"MOULIN À VENT";"1 R DE PALALDA TOUR N°9";"66000";"PERPIGNAN";"Immeuble"; 35.0;"Copropriété, Syndic, SCI"
809020;2.86806;42.69028;"02° 52' 05.00'' Est, 42° 41' 25.00'' Nord";"66136";;"AV D'ATHÈNES CITÉ DE ST ASSICLES BAT 17-18";"66000";"PERPIGNAN";"Immeuble"; 25.0;"Société HLM"
809022;2.92167;42.69472;"02° 55' 18.00'' Est, 42° 41' 41.00'' Nord";"66136";;"27 ROBERT DE COTTE";"66000";"PERPIGNAN";"Immeuble"; 20.0;"Copropriété, Syndic, SCI"
809266;2.89583;42.70167;"02° 53' 45.00'' Est, 42° 42' 06.00'' Nord";"66136";;"8 BD WILSON HOTEL";"66000";"PERPIGNAN";"Immeuble"; 31.0;"Copropriété, Syndic, SCI"
809275;2.96250;42.65472;"02° 57' 45.00'' Est, 42° 39' 17.00'' Nord";"66189";"LA COLOMINA DE CANET";"STATION D'ÉPURATION";"66280";"SALEILLES";"Pylône tubulaire"; 26.2;"ORANGE"
809283;2.86194;42.46500;"02° 51' 43.00'' Est, 42° 27' 54.00'' Nord";"66137";;"R CARRER DE DALT RES BELLEGARDE";"66480";"LE PERTHUS";"Immeuble"; 28.0;"Société HLM"
809287;2.89528;42.71139;"02° 53' 43.00'' Est, 42° 42' 41.00'' Nord";"66136";;"CHEM DE LA POUDRIÈRE RÉSIDENCE LE PETIT VIVIER";"66000";"PERPIGNAN";"Immeuble"; 30.0;"Société HLM"
809289;2.58306;42.36667;"02° 34' 59.00'' Est, 42° 22' 00.00'' Nord";"66179";"DOMAINE DE FALGOS";"GOLF";"66260";"SAINT-LAURENT-DE-CERDANS";"Pylône tubulaire"; 12.0;"Société Privée SA"
809291;2.81389;42.68694;"02° 48' 50.00'' Est, 42° 41' 13.00'' Nord";"66195";"LES CAPELLES";"QUARTIER STE EUGÉNIE PYLÔNE SFR";"66270";"LE SOLER";"Pylône autostable"; 25.0;"HIVORY"
809293;2.28333;42.54250;"02° 16' 60.00'' Est, 42° 32' 33.00'' Nord";"66123";"LA SERRE";;"66360";"NYER";"Pylône autostable"; 27.0;"ORANGE Services Fixes"
809295;2.95278;42.77944;"02° 57' 10.00'' Est, 42° 46' 46.00'' Nord";"66176";"L'ARGILE";"D 83 PYLÔNE SFR";"66510";"SAINT-HIPPOLYTE";"Pylône autostable"; 28.5;"HIVORY"
809297;3.03111;42.79806;"03° 01' 52.00'' Est, 42° 47' 53.00'' Nord";"66017";;"AV. DU STADE STADE MUNICIPAL";"66420";"LE BARCARES";"Pylône tubulaire"; 23.0;"Commune, communauté de commune"
809299;2.88278;42.60417;"02° 52' 58.00'' Est, 42° 36' 15.00'' Nord";"66011";;"RTE DE ST-JEAN LASSEILLE";"66670";"BAGES";"Château d'eau - réservoir"; 19.0;"Syndicat des eaux, Adduction"
809301;2.90083;42.72750;"02° 54' 03.00'' Est, 42° 43' 39.00'' Nord";"66136";;"10325 AV. DE LA SALANQUE  MAS ST JOSEPH";"66000";"PERPIGNAN";"Immeuble"; 18.0;"Particulier"
809305;2.99333;42.77861;"02° 59' 36.00'' Est, 42° 46' 43.00'' Nord";"66180";;"R GUYNEMER RUE DU BAC";"66250";"SAINT-LAURENT-DE-LA-SALANQUE";"Pylône tubulaire"; 21.0;"ORANGE"
809307;2.74444;42.64389;"02° 44' 40.00'' Est, 42° 38' 38.00'' Nord";"66210";"MAS RIPOLL";"CHÂTEAU D'EAU DE THUIR";"66300";"THUIR";"Château d'eau - réservoir"; 40.0;"Commune, communauté de commune"
809309;2.92083;42.77667;"02° 55' 15.00'' Est, 42° 46' 36.00'' Nord";"66050";;"RTE DU BARCARES D 83";"66530";"CLAIRA";"Pylône autostable"; 25.0;"ORANGE"
809313;2.84806;42.68361;"02° 50' 53.00'' Est, 42° 41' 01.00'' Nord";"66136";;"R DE VALENCIA MARCHÉ INTERN. ST CHARLES";"66000";"PERPIGNAN";"Immeuble"; 20.5;"CCI,Ch Metiers,Port Aut,Aérop"
809319;3.02056;42.63639;"03° 01' 14.00'' Est, 42° 38' 11.00'' Nord";"66171";;"IMP FRANÇOIS JAUBERT DE PASSA";"66750";"SAINT-CYPRIEN";"pylône arbre"; 19.0;"ORANGE"
809323;2.82833;42.67111;"02° 49' 42.00'' Est, 42° 40' 16.00'' Nord";"66213";;"AVE DE L'ACHAU";"66350";"TOULOUGES";"Château d'eau - réservoir"; 35.0;"Commune, communauté de commune"
809327;2.89000;42.80306;"02° 53' 24.00'' Est, 42° 48' 11.00'' Nord";"66164";;"ALLÉE ALFRED NOBEL";"66600";"RIVESALTES";"Pylône autostable"; 27.0;"SFR"
809329;2.88306;42.71528;"02° 52' 59.00'' Est, 42° 42' 55.00'' Nord";"66136";;"24 R DU SACRÉ COEUR HLM LES MÉSANGES";"66000";"PERPIGNAN";"Bâtiment"; 18.0;"Société HLM"
809331;3.03528;42.73389;"03° 02' 07.00'' Est, 42° 44' 02.00'' Nord";"66182";;"AV DES MARENDES ROND POINT DE L'OMÉGA";"66470";"SAINTE-MARIE";"Pylône tubulaire"; 18.0;"Commune, communauté de commune"
809341;2.82306;42.77583;"02° 49' 23.00'' Est, 42° 46' 33.00'' Nord";"66069";"MIRANDES BASSES";"RÉSERVOIR OUEST";"66600";"ESPIRA-DE-L'AGLY";"Pylône autostable"; 20.0;"ORANGE"
809345;2.98333;42.72750;"02° 59' 00.00'' Est, 42° 43' 39.00'' Nord";"66224";;"AV. DE LA SALANQUE EGLISE ST-PIERRE";"66410";"VILLELONGUE-DE-LA-SALANQUE";"Monument religieux"; 28.0;"Commune, communauté de commune"
809347;3.09028;42.52500;"03° 05' 25.00'' Est, 42° 31' 30.00'' Nord";"66053";;"28 RTE DE PORT VENDRES RES. MAEVA";"66190";"COLLIOURE";"Immeuble"; 14.0;"Société Privée SA"
809349;2.81056;42.61667;"02° 48' 38.00'' Est, 42° 37' 00.00'' Nord";"66217";"CAVE COOPÉRATIVE VINICOLE";"1 MAS DEU";"66300";"TROUILLAS";"Bâtiment"; 18.0;"Coopérative Agricole, Vinicole"
809355;2.96806;42.57500;"02° 58' 05.00'' Est, 42° 34' 30.00'' Nord";"66133";;"R DU STADE MUNICIPAL G. VAILS";"66690";"PALAU-DEL-VIDRE";"Pylône autostable"; 33.0;"ORANGE"
809359;3.13639;42.48111;"03° 08' 11.00'' Est, 42° 28' 52.00'' Nord";"66016";;"CAPITAINERIE DU PORT QUAI RACOVIZTA";"66650";"BANYULS-SUR-MER";"Pylône tubulaire"; 20.0;"ORANGE"
809361;2.92389;42.74583;"02° 55' 26.00'' Est, 42° 44' 45.00'' Nord";"66141";"LES  BASSES";"AV DU STADE";"66380";"PIA";"Pylône tubulaire"; 24.0;"ORANGE"
809365;2.92111;42.68806;"02° 55' 16.00'' Est, 42° 41' 17.00'' Nord";"66028";"MAS GUÉRIDO";"3 R MICHEL CARRÉ R MAURICE DE BROGLIE";"66330";"CABESTANY";"Pylône autostable"; 12.0;"ORANGE"
809369;3.02778;42.72889;"03° 01' 40.00'' Est, 42° 43' 44.00'' Nord";"66182";"CAMPS DELS PRATS";"AV. DU STADE D'EAU";"66470";"SAINTE-MARIE";"Pylône autostable"; 18.0;"ORANGE"
809371;2.87806;42.69361;"02° 52' 41.00'' Est, 42° 41' 37.00'' Nord";"66136";;"BD ST ASCICLE QUAI HENRU DUNANT RÉSIDENCE LES ALBÈRES";"66000";"PERPIGNAN";"Immeuble"; 36.8;"Copropriété, Syndic, SCI"
809378;3.01639;42.54500;"03° 00' 59.00'' Est, 42° 32' 42.00'' Nord";"66008";;"RTE DE SOREDE  CSE DES POMPIERS";"66700";"ARGELES-SUR-MER";"Pylône autostable"; 25.0;"ORANGE"
809380;2.87444;42.69806;"02° 52' 28.00'' Est, 42° 41' 53.00'' Nord";"66136";;"19 AV DE PRADES RÉS LES ALBÈRES DIRECTION DÉPARTEMENTALE DE LA PAF";"66000";"PERPIGNAN";"Bâtiment"; 26.0;"Copropriété, Syndic, SCI"
809382;2.89889;42.69167;"02° 53' 56.00'' Est, 42° 41' 30.00'' Nord";"66136";;"113  BLD ARISTIDE BRIAND";"66000";"PERPIGNAN";"Immeuble"; 21.0;"Société HLM"
809384;2.88639;42.72139;"02° 53' 11.00'' Est, 42° 43' 17.00'' Nord";"66136";;"2 ET 6 AV DU LANGUEDOC HÔTEL RESTAURANT AU BON COIN";"66000";"PERPIGNAN";"Immeuble"; 20.0;"Copropriété, Syndic, SCI"
809386;2.93333;42.71556;"02° 56' 00.00'' Est, 42° 42' 56.00'' Nord";"66021";"MAS GAFFARD";"AV. DE LA TÊT";"66430";"BOMPAS";"Pylône tubulaire"; 27.0;"ORANGE"
809388;2.57139;42.73278;"02° 34' 17.00'' Est, 42° 43' 58.00'' Nord";"66039";"MONT REDON";;"66720";"CARAMANY";"Pylône autostable"; 23.5;"TDF"
809390;3.03333;42.76583;"03° 01' 60.00'' Est, 42° 45' 57.00'' Nord";"66212";"TOREILLES PLAGE";"D.11E VOIE DE BARCELONE CAMPING LES DUNES";"66440";"TORREILLES";"Pylône tubulaire"; 13.0;"ORANGE"
809403;2.90250;42.70861;"02° 54' 09.00'' Est, 42° 42' 31.00'' Nord";"66136";;"AV. DE BOMPAS PARC DES EXPOSITIONS";"66000";"PERPIGNAN";"Bâtiment"; 19.0;"Commune, communauté de commune"
809922;1.81611;42.52250;"01° 48' 58.00'' Est, 42° 31' 21.00'' Nord";"66146";"PLETA D'EN SAPI";;"66760";"PORTA";"Pylône autostable"; 30.0;"TDF"
809971;2.94722;42.52833;"02° 56' 50.00'' Est, 42° 31' 42.00'' Nord";"66093";"L'HORTA D'EN CARRERA";"PRÈS D.2  CENTRAL TÉLÉPHONIQUE FT";"66740";"LAROQUE-DES-ALBERES";"Pylône autostable"; 27.0;"ORANGE"
809973;2.07222;42.57111;"02° 04' 20.00'' Est, 42° 34' 16.00'' Nord";"66004";;"CHEM DE PLANÈS";"66210";"LES ANGLES";"Bâtiment"; 15.0;"Société Privée SA"
810030;3.01472;42.70139;"03° 00' 53.00'' Est, 42° 42' 05.00'' Nord";"66037";;"139 AV DES HAUTS DE CANET HÔTEL EUROPA";"66140";"CANET-EN-ROUSSILLON";"Immeuble"; 28.0;"Société Privée SA"
810040;3.01944;42.70361;"03° 01' 10.00'' Est, 42° 42' 13.00'' Nord";"66037";;"21 AV GUY DRUT";"66140";"CANET-EN-ROUSSILLON";"Pylône tubulaire"; 16.0;"ORANGE"
814870;2.88889;42.85417;"02° 53' 20.00'' Est, 42° 51' 15.00'' Nord";"66127";"CRÊTE DE LA BARRE";"CAMPS DE LA SEGNORE";"66600";"OPOUL-PERILLOS";"Pylône autostable"; 30.0;"Conseil Départemental"
817375;2.89222;42.70500;"02° 53' 32.00'' Est, 42° 42' 18.00'' Nord";"66136";;"R HENRI BATAILLE CENTRAL FT JOFFRE";"66000";"PERPIGNAN";"Bâtiment"; 30.0;"ORANGE Services Fixes"
833828;2.88833;42.71500;"02° 53' 18.00'' Est, 42° 42' 54.00'' Nord";"66136";;"181 AV MAL JOFFRE";"66000";"PERPIGNAN";"Immeuble"; 30.0;"Copropriété, Syndic, SCI"
833830;2.89194;42.69278;"02° 53' 31.00'' Est, 42° 41' 34.00'' Nord";"66136";;"31 BD FÉLIX MERCADER";"66000";"PERPIGNAN";"Immeuble"; 23.0;"Société HLM"
833845;2.82611;42.67889;"02° 49' 34.00'' Est, 42° 40' 44.00'' Nord";"66195";"EL PUIG SEC";"CHEMIN DU MAS FRAICHE";"66270";"LE SOLER";"Pylône autostable"; 39.0;"TDF"
833849;2.90083;42.69861;"02° 54' 03.00'' Est, 42° 41' 55.00'' Nord";"66136";;"2 PL DU PUIG";"66000";"PERPIGNAN";"Immeuble"; 15.0;"Particulier"
833864;2.34750;42.67167;"02° 20' 51.00'' Est, 42° 40' 18.00'' Nord";"66119";"LA TEULERIA";"NORD DE MOSSET PYLONE TDF APRES LE RVOIR";"66500";"MOSSET";"Pylône autostable"; 18.0;"TDF"
833868;2.37222;42.50806;"02° 22' 20.00'' Est, 42° 30' 29.00'' Nord";"66155";"COL DE LA MANDRE";"PYLONE TDF";"66360";"PY";"Pylône autostable"; 27.0;"TDF"
835923;2.06611;42.56306;"02° 03' 58.00'' Est, 42° 33' 47.00'' Nord";"66004";;"LE PLA DEL MIR";"66210";"LES ANGLES";"Mât"; 6.0;"Société Privée SA"
839993;3.03917;42.61806;"03° 02' 21.00'' Est, 42° 37' 05.00'' Nord";"66171";;"QUAI JULES VERNE PORT DE ST CYPRIEN CLUB NAUTIQUE UDSIST";"66750";"SAINT-CYPRIEN";"Bâtiment"; 15.8;"Conseil Départemental"
842245;2.69250;42.68306;"02° 41' 33.00'' Est, 42° 40' 59.00'' Nord";"66108";"LES ARGILES";"VC N°5 DIT  CHEM RÉALET";"66170";"MILLAS";"Pylône tubulaire"; 16.0;"ORANGE"
850260;2.94611;42.48194;"02° 56' 46.00'' Est, 42° 28' 55.00'' Nord";"66093";"PIC DE NEULOS";;"66740";"LAROQUE-DES-ALBERES";"Pylône autostable"; 15.0;"TDF"
858367;2.10972;42.60556;"02° 06' 35.00'' Est, 42° 36' 20.00'' Nord";"66082";"LES BOSIGUES";"D 118 POSTE ÉLECTRIQUE";"66210";"FORMIGUERES";"Bâtiment"; 4.0;"EDF ou GDF"
863106;2.85111;42.68167;"02° 51' 04.00'' Est, 42° 40' 54.00'' Nord";"66136";;"MARCHÉ ST CHARLES AV DE FRANCFORT";"66000";"PERPIGNAN";"Pylône autostable"; 41.0;"TDF"
863108;2.45250;42.76750;"02° 27' 09.00'' Est, 42° 46' 03.00'' Nord";"66234";"MATE REDOUNE";;"66730";"LE VIVIER";"Pylône autostable"; 15.0;"TDF"
863215;2.26194;42.54944;"02° 15' 43.00'' Est, 42° 32' 58.00'' Nord";"66036";;"CHEM DE CABRILS SARRAT DE L'HOMME";"66360";"CANAVEILLES";"Pylône autostable"; 20.0;"TDF"
863217;2.48361;42.73583;"02° 29' 01.00'' Est, 42° 44' 09.00'' Nord";"66139";;"STATION TDF DE PEZILLA - LE VILLAGE";"66730";"PEZILLA-DE-CONFLENT";"Pylône autostable"; 15.0;"TDF"
863247;2.90944;42.82944;"02° 54' 34.00'' Est, 42° 49' 46.00'' Nord";"66190";;"RTE D'OPOUL A 9 - KM 236";"66600";"SALSES-LE-CHATEAU";"Pylône autostable"; 40.0;"Sociétés d'Autoroutes"
879830;2.91417;42.87861;"02° 54' 51.00'' Est, 42° 52' 43.00'' Nord";"66190";"EOLIENNE DU SERRE BUIS";"CHEM D'OPOUL";"66600";"SALSES-LE-CHATEAU";"Mât béton"; 6.0;"ORANGE Services Fixes"
880416;2.94778;42.48250;"02° 56' 52.00'' Est, 42° 28' 57.00'' Nord";"66196";"PIC DE NEOULOS";"2 AV ALFRED SAUVY";"66690";"SOREDE";"Bâtiment"; 16.0;"TDF"
886949;2.51639;42.70111;"02° 30' 59.00'' Est, 42° 42' 04.00'' Nord";"66215";"LE CAMP DES TARTIERS";;"66130";"TREVILLACH";"Pylône autostable"; 32.5;"ORANGE"
894945;2.88389;42.68861;"02° 53' 02.00'' Est, 42° 41' 19.00'' Nord";"66136";"ST MARTIN";"AV VICTOR ALBIEZ";"66000";"PERPIGNAN";"Bâtiment"; 10.0;"EDF ou GDF"
894956;2.10500;42.47639;"02° 06' 18.00'' Est, 42° 28' 35.00'' Nord";"66075";"ROQUES BLANQUES";"EYNES 2600";"66800";"EYNE";"Pylône autostable"; 15.0;"EDF ou GDF"
895272;2.51000;42.81028;"02° 30' 36.00'' Est, 42° 48' 37.00'' Nord";"66187";"R DU LESQUERDE";"CAVE COOP POSTE SOURCE";"66220";"SAINT-PAUL-DE-FENOUILLET";"Bâtiment"; 4.0;"EDF ou GDF"
895279;2.09167;42.49500;"02° 05' 30.00'' Est, 42° 29' 42.00'' Nord";"66027";"COL DE LA PERCHE";;"66210";"LA CABANASSE";"Bâtiment"; 3.0;"EDF ou GDF"
898257;3.16111;42.43889;"03° 09' 40.00'' Est, 42° 26' 20.00'' Nord";"66048";;"TUNNEL DES BALITRES";"66290";"CERBERE";"Mât"; 7.0;"Société Privée SA"
900239;2.94806;42.48222;"02° 56' 53.00'' Est, 42° 28' 56.00'' Nord";"66196";"PIC DE NEOULOS";;"66690";"SOREDE";"Pylône autostable"; 67.0;"TDF"
901402;2.44722;42.68278;"02° 26' 50.00'' Est, 42° 40' 58.00'' Nord";"66074";;"ROC JALERE PYLONE EDF";"66500";"EUS";"Pylône autostable"; 20.0;"EDF ou GDF"
907960;2.86500;42.91833;"02° 51' 54.00'' Est, 42° 55' 06.00'' Nord";"66127";;"MONTOULLIE RADAR MÉTÉO";"66600";"OPOUL-PERILLOS";"Bâtiment"; 15.0;"Météo"
908549;2.03472;42.49722;"02° 02' 05.00'' Est, 42° 29' 50.00'' Nord";"66124";"ODEILLO";"R DE L'ABBÉ PONS";"66120";"FONT-ROMEU-ODEILLO-VIA";"Bâtiment"; 3.0;"EDF ou GDF"
909534;2.11278;42.57667;"02° 06' 46.00'' Est, 42° 34' 36.00'' Nord";"66105";"BARRAGE MATEMALE USINE";;"66210";"MATEMALE";"Pylône tubulaire"; 2.0;"EDF ou GDF"
909538;2.11333;42.57250;"02° 06' 48.00'' Est, 42° 34' 21.00'' Nord";"66105";"BARRAGE DE MATEMALE TOUR";;"66210";"MATEMALE";"Bâtiment"; 3.0;"EDF ou GDF"
909790;2.86806;42.69806;"02° 52' 05.00'' Est, 42° 41' 53.00'' Nord";"66136";"LA GARRIGOLE";"96 AV DE PRADES BÂTIMENT 20 M";"66000";"PERPIGNAN";"Bâtiment"; 20.0;"EDF ou GDF"
909849;2.11361;42.64139;"02° 06' 49.00'' Est, 42° 38' 29.00'' Nord";"66082";"GALBE";;"66210";"FORMIGUERES";"Pylône tubulaire"; 2.0;"EDF ou GDF"
909860;2.69556;42.53778;"02° 41' 44.00'' Est, 42° 32' 16.00'' Nord";"66126";"EL PUIG";;"66400";"OMS";"Pylône autostable"; 18.0;"EDF ou GDF"
909912;2.09000;42.60833;"02° 05' 24.00'' Est, 42° 36' 30.00'' Nord";"66082";"LLADURE";;"66210";"FORMIGUERES";"Bâtiment"; 2.0;"EDF ou GDF"
910350;1.82444;42.55111;"01° 49' 28.00'' Est, 42° 33' 04.00'' Nord";"66147";"LA RIBA RODONA";"N320";"66760";"PORTE-PUYMORENS";"Pylône autostable"; 15.0;"EDF ou GDF"
910401;2.12472;42.64833;"02° 07' 29.00'' Est, 42° 38' 54.00'' Nord";"66154";"BARRAGE";"BARRAGE DE PUYVALADOR";"66210";"PUYVALADOR";"Mât"; 2.0;"EDF ou GDF"
922437;2.39389;42.73306;"02° 23' 38.00'' Est, 42° 43' 59.00'' Nord";"66156";"PIC ALBEL";;"66730";"RABOUILLET";"Pylône autostable"; 22.0;"ATC FRANCE"
935064;2.99167;42.66806;"02° 59' 30.00'' Est, 42° 40' 05.00'' Nord";"66186";;"4 R DU LITTORAL";"66570";"SAINT-NAZAIRE";"Bâtiment"; 10.0;"Société Privée SA"
936332;2.76500;42.45139;"02° 45' 54.00'' Est, 42° 27' 05.00'' Nord";"66049";"PIC DE FONTFREDE";;"66400";"CERET";"Pylône autostable"; 23.0;"TDF"
938291;2.03167;42.42306;"02° 01' 54.00'' Est, 42° 25' 23.00'' Nord";"66181";"ROQUE D'EN VERT";;"66800";"SAINTE-LEOCADIE";"Pylône autostable"; 37.0;"Towercast"
938305;2.34722;42.57278;"02° 20' 50.00'' Est, 42° 34' 22.00'' Nord";"66193";"STE EULALIE";"NORD EST DE SERDINYA";"66360";"SERDINYA";"Pylône autostable"; 22.0;"TDF"
939106;3.05389;42.54306;"03° 03' 14.00'' Est, 42° 32' 35.00'' Nord";"66008";"FEU JETÉE SUD OUEST";"PORT ARGELES";"66700";"ARGELES-SUR-MER";"Mât"; 5.0;"Phares et balises"
939110;3.05500;42.54306;"03° 03' 18.00'' Est, 42° 32' 35.00'' Nord";"66008";"FEUX DE LA JETÉE NORD EST";"PORT ARGELES";"66700";"ARGELES-SUR-MER";"Mât"; 6.0;"Phares et balises"
939116;3.03778;42.70778;"03° 02' 16.00'' Est, 42° 42' 28.00'' Nord";"66037";;"CANET-PLAGE FEU DE JALONNEMENT";"66140";"CANET-EN-ROUSSILLON";"Phare"; 24.0;"Phares et balises"
940312;2.42306;42.61722;"02° 25' 23.00'' Est, 42° 37' 02.00'' Nord";"66149";;"PL DE LA REPUBLIQUE";"66500";"PRADES";"Bâtiment"; 15.0;"Commune, communauté de commune"
940390;2.51389;42.39361;"02° 30' 50.00'' Est, 42° 23' 37.00'' Nord";"66150";"PUIG COLOM";;"66230";"PRATS-DE-MOLLO-LA-PRESTE";"Pylône autostable"; 35.0;"Towercast"
941802;2.09361;42.62472;"02° 05' 37.00'' Est, 42° 37' 29.00'' Nord";"66081";"CENTRE ÉQUESTRE";;"66210";"FONTRABIOUSE";"Pylône autostable"; 11.0;"Commune, communauté de commune"
941825;2.10167;42.61806;"02° 06' 06.00'' Est, 42° 37' 05.00'' Nord";"66082";"EL SOLA";;"66210";"FORMIGUERES";"Pylône autostable"; 20.0;"Commune, communauté de commune"
941843;2.07528;42.56806;"02° 04' 31.00'' Est, 42° 34' 05.00'' Nord";"66004";"RIBA LLENSA";;"66210";"LES ANGLES";"Immeuble"; 13.0;"Société Privée SA"
941879;2.02667;42.43833;"02° 01' 36.00'' Est, 42° 26' 18.00'' Nord";"66067";"LOS BACES";;"66800";"ERR";"Pylône autostable"; 9.0;"Société Privée SA"
941908;2.12056;42.58667;"02° 07' 14.00'' Est, 42° 35' 12.00'' Nord";"66105";"LES PLANES";;"66210";"MATEMALE";"Pylône autostable"; 4.0;"Société Privée SA"
941922;2.07611;42.47306;"02° 04' 34.00'' Est, 42° 28' 23.00'' Nord";"66075";"EL PLA DEL BAC";;"66800";"EYNE";"Pylône autostable"; 10.0;"Commune, communauté de commune"
941942;2.14667;42.51222;"02° 08' 48.00'' Est, 42° 30' 44.00'' Nord";"66192";"FONT DEL POU";;"66210";"SAUTO";"Pylône autostable"; 5.0;"Commune, communauté de commune"
941968;1.95889;42.48389;"01° 57' 32.00'' Est, 42° 29' 02.00'' Nord";"66005";"CIMTIÈRE";"R DE L'EGLISE ROMANE";"66760";"ANGOUSTRINE-VILLENEUVE-DES-ESCALDES";"Pylône autostable"; 4.0;"Commune, communauté de commune"
941996;2.11972;42.48917;"02° 07' 11.00'' Est, 42° 29' 21.00'' Nord";"66188";"CAMPS DE REC D'AMUNT";;"66210";"SAINT-PIERRE-DELS-FORCATS";"Pylône autostable"; 12.0;"Commune, communauté de commune"
942035;2.17667;42.50944;"02° 10' 36.00'' Est, 42° 30' 34.00'' Nord";"66080";"LO BAINAT D' AVAILL";"D 28";"66360";"FONTPEDROUSE";"Pylône autostable"; 11.0;"Commune, communauté de commune"
942078;3.17667;42.43944;"03° 10' 36.00'' Est, 42° 26' 22.00'' Nord";"66048";"CAP CERBÈRE";"JEU DE JALONNEMENT DE CERBÈRE";"66290";"CERBERE";"Pylône autostable"; 2.0;"Phares et balises"
942892;3.04167;42.62083;"03° 02' 30.00'' Est, 42° 37' 15.00'' Nord";"66171";;"FEU DE LA JETÉE SUD";"66750";"SAINT-CYPRIEN";"Mât métallique"; 7.0;"Phares et balises"
943031;3.13444;42.48167;"03° 08' 04.00'' Est, 42° 28' 54.00'' Nord";"66016";;"FEU DE LA JETEE NORD EST PORT DE PLAISANCE";"66650";"BANYULS-SUR-MER";"Fût"; 5.0;"Phares et balises"
943716;3.10111;42.47389;"03° 06' 04.00'' Est, 42° 28' 26.00'' Nord";"66016";"CAN XICOT";;"66650";"BANYULS-SUR-MER";"Pylône autostable"; 8.0;"Société Privée SA"
944919;2.76694;42.82917;"02° 46' 01.00'' Est, 42° 49' 45.00'' Nord";"66205";"FOURAT DE LAS NAU BOUQUES";"CRETE NORD";"66720";"TAUTAVEL";"Pylône autostable"; 16.0;"TDF"
944977;2.86444;42.46500;"02° 51' 52.00'' Est, 42° 27' 54.00'' Nord";"66137";"TOUR DE L'HORLOGE";;"66480";"LE PERTHUS";"Pylône autostable"; 16.0;"TDF"
945470;2.10167;42.63500;"02° 06' 06.00'' Est, 42° 38' 06.00'' Nord";"66081";"LA CREU";;"66210";"FONTRABIOUSE";"Pylône autostable"; 8.0;"Commune, communauté de commune"
945538;2.17806;42.57583;"02° 10' 41.00'' Est, 42° 34' 33.00'' Nord";"66010";"COL DE JOUEL";;"66360";"AYGUATEBIA-TALAU";"Pylône autostable"; 25.0;"TDF"
945542;2.45639;42.59444;"02° 27' 23.00'' Est, 42° 35' 40.00'' Nord";"66051";"LA FONTAINE";;"66500";"CLARA";"Pylône autostable"; 21.0;"TDF"
945563;2.22417;42.52361;"02° 13' 27.00'' Est, 42° 31' 25.00'' Nord";"66209";"TOMB";;"66360";"THUES-ENTRE-VALLS";"Pylône autostable"; 11.0;"TDF"
945583;2.43444;42.57861;"02° 26' 04.00'' Est, 42° 34' 43.00'' Nord";"66204";"VISTES DE LA MAR";;"66500";"TAURINYA";"Pylône autostable"; 17.0;"TDF"
946200;2.38167;42.64333;"02° 22' 54.00'' Est, 42° 38' 36.00'' Nord";"66034";"LES ESCOMES";;"66500";"CAMPOME";"Pylône autostable"; 16.0;"Commune, communauté de commune"
947382;3.05833;42.53500;"03° 03' 30.00'' Est, 42° 32' 06.00'' Nord";"66008";"LA RACOU";;"66700";"ARGELES-SUR-MER";"Pylône autostable"; 4.0;"Société Privée SA"
947415;2.37583;42.81306;"02° 22' 33.00'' Est, 42° 48' 47.00'' Nord";"66046";;"R DE L'ÉGLISE";"66220";"CAUDIES-DE-FENOUILLEDES";"Bâtiment"; 21.0;"Commune, communauté de commune"
947438;2.43194;42.82278;"02° 25' 55.00'' Est, 42° 49' 22.00'' Nord";"66152";"LARBOUSSA";;"66220";"PRUGNANES";"Pylône autostable"; 10.0;"Commune, communauté de commune"
947460;2.59556;42.80778;"02° 35' 44.00'' Est, 42° 48' 28.00'' Nord";"66107";"LA FLORINE";;"66460";"MAURY";"Pylône autostable"; 22.0;"Commune, communauté de commune"
948017;3.13278;42.51611;"03° 07' 58.00'' Est, 42° 30' 58.00'' Nord";"66148";"SÉMAPHORE DE CAP BÉAR";;"66660";"PORT-VENDRES";"Pylône autostable"; 35.0;"Gendarmerie"
948623;2.42056;42.77861;"02° 25' 14.00'' Est, 42° 46' 43.00'' Nord";"66232";"LAUZINA";"SOURCE CAPTÉE";"66220";"VIRA";"Pylône autostable"; 27.0;"ATC FRANCE"
949297;2.27333;42.53333;"02° 16' 24.00'' Est, 42° 31' 60.00'' Nord";"66123";"LA FARGA NOVA";;"66360";"NYER";"Pylône autostable"; 26.0;"Commune, communauté de commune"
949361;2.29444;42.57167;"02° 17' 40.00'' Est, 42° 34' 18.00'' Nord";"66090";"LA GÉNÉGUE";;"66360";"JUJOLS";"Pylône autostable"; 8.0;"Commune, communauté de commune"
949396;2.31861;42.61806;"02° 19' 07.00'' Est, 42° 37' 05.00'' Nord";"66054";"VELTRANS";;"66500";"CONAT";"Pylône autostable"; 5.0;"Commune, communauté de commune"
949416;2.61306;42.44083;"02° 36' 47.00'' Est, 42° 26' 27.00'' Nord";"66009";"AL RIPOULL";;"66150";"ARLES-SUR-TECH";"Pylône autostable"; 15.0;"Commune, communauté de commune"
949430;2.40333;42.40806;"02° 24' 12.00'' Est, 42° 24' 29.00'' Nord";"66150";"LA PRESTE";;"66230";"PRATS-DE-MOLLO-LA-PRESTE";"Pylône autostable"; 7.0;"Commune, communauté de commune"
949456;2.17583;42.60944;"02° 10' 33.00'' Est, 42° 36' 34.00'' Nord";"66191";"PERDIGOULIERES 2";;"66360";"SANSA";"Pylône autostable"; 15.0;"TDF"
949520;2.60972;42.39167;"02° 36' 35.00'' Est, 42° 23' 30.00'' Nord";"66179";"LA REDOUTE";;"66260";"SAINT-LAURENT-DE-CERDANS";"Pylône autostable"; 17.0;"Commune, communauté de commune"
949693;2.46500;42.53444;"02° 27' 54.00'' Est, 42° 32' 04.00'' Nord";"66204";"LES CORTALETS";"CHALETS DES CORTALETS";"66500";"TAURINYA";"Bâtiment"; 12.0;"Particulier"
951185;1.98806;42.40778;"01° 59' 17.00'' Est, 42° 24' 28.00'' Nord";"66130";"ELS PALLES";;"66340";"OSSEJA";"Pylône autostable"; 8.0;"Commune, communauté de commune"
951290;2.03389;42.38667;"02° 02' 02.00'' Est, 42° 23' 12.00'' Nord";"66220";"LES LLATES";;"66340";"VALCEBOLLERE";"Pylône autostable"; 11.0;"Commune, communauté de commune"
951791;3.05694;42.50528;"03° 03' 25.00'' Est, 42° 30' 19.00'' Nord";"66053";"LE RIMBAU";;"66190";"COLLIOURE";"Mât béton"; 3.0;"Société Privée SA"
951820;3.13639;42.45444;"03° 08' 11.00'' Est, 42° 27' 16.00'' Nord";"66016";"PIC JOAN";;"66650";"BANYULS-SUR-MER";"Pylône autostable"; 11.0;"Société Privée SA"
951836;3.15639;42.43556;"03° 09' 23.00'' Est, 42° 26' 08.00'' Nord";"66048";"COLL DELS BALISTRES";;"66290";"CERBERE";"Pylône autostable"; 13.0;"Commune, communauté de commune"
957504;2.90194;42.77306;"02° 54' 07.00'' Est, 42° 46' 23.00'' Nord";"66164";;"CH DE LA COLOMINE AU MAS STATION HYDROLOGIQUE AGLY";"66600";"RIVESALTES";"Mât métallique"; 8.0;"Conseil Régional"
957506;2.85250;42.51139;"02° 51' 09.00'' Est, 42° 30' 41.00'' Nord";"66024";;"AVE D EN CARBOUNER";"66160";"LE BOULOU";"Mât métallique"; 8.0;"Conseil Régional"
957508;2.15972;42.52611;"02° 09' 35.00'' Est, 42° 31' 34.00'' Nord";"66192";"PIC DE FIGUEMA";"D 10";"66210";"SAUTO";"Pylône autostable"; 16.0;"Conseil Départemental"
957510;2.50972;42.40833;"02° 30' 35.00'' Est, 42° 24' 30.00'' Nord";"66150";;"D 115 LA POLLANGARDA";"66230";"PRATS-DE-MOLLO-LA-PRESTE";"Mât métallique"; 3.0;"Conseil Régional"
957512;2.51417;42.39306;"02° 30' 51.00'' Est, 42° 23' 35.00'' Nord";"66150";;"D 115 PUIG COLOM";"66230";"PRATS-DE-MOLLO-LA-PRESTE";"Mât métallique"; 5.0;"Conseil Régional"
957514;2.40194;42.40694;"02° 24' 07.00'' Est, 42° 24' 25.00'' Nord";"66150";;"D 115 A LA PRESTE LES BAINS";"66230";"PRATS-DE-MOLLO-LA-PRESTE";"Mât métallique"; 3.0;"Conseil Régional"
957516;2.44306;42.41306;"02° 26' 35.00'' Est, 42° 24' 47.00'' Nord";"66150";"CAN ROURE";"D 115 A STATION ST SAUVEUR";"66230";"PRATS-DE-MOLLO-LA-PRESTE";"Mât métallique"; 8.0;"Conseil Régional"
957520;2.76500;42.45139;"02° 45' 54.00'' Est, 42° 27' 05.00'' Nord";"66049";;"D 13 F FONTFREDE PIC DEL BOLARIC";"66400";"CERET";"Pylône autostable"; 12.0;"Conseil Régional"
957522;2.72694;42.54944;"02° 43' 37.00'' Est, 42° 32' 58.00'' Nord";"66099";;"RTE DES OHMS RIVIERE REART STATION HYDROLOGIQUE";"66300";"LLAURO";"Mât métallique"; 8.0;"Conseil Régional"
957524;2.27472;42.68250;"02° 16' 29.00'' Est, 42° 40' 57.00'' Nord";"66119";;"D 14 STATION HYDROLOGIQUE TET";"66500";"MOSSET";"Mât métallique"; 8.0;"Conseil Régional"
957526;2.71861;42.49500;"02° 43' 07.00'' Est, 42° 29' 42.00'' Nord";"66160";"ROUTE DE TAILLET";"D 15 PONT SNCF";"66400";"REYNES";"Mât métallique"; 3.0;"Conseil Départemental"
957528;2.54500;42.65833;"02° 32' 42.00'' Est, 42° 39' 30.00'' Nord";"66165";;"D 16 BARRAGE DE VINCA";"66320";"RODES";"Mât métallique"; 8.0;"Société Privée SA"
957530;2.75250;42.68472;"02° 45' 09.00'' Est, 42° 41' 05.00'' Nord";"66140";;"D 16 A STATION HYDROLOGIQUE TET";"66370";"PEZILLA-LA-RIVIERE";"Mât métallique"; 8.0;"Conseil Régional"
957532;2.44139;42.72556;"02° 26' 29.00'' Est, 42° 43' 32.00'' Nord";"66198";"RTE DE PRADES";"D 169 STATION HYDROLOGIQUE AGLY";"66730";"SOURNIA";"Mât métallique"; 8.0;"Conseil Régional"
957534;2.73167;42.59889;"02° 43' 54.00'' Est, 42° 35' 56.00'' Nord";"66044";;"D 18 MOLI DE CANTARANA";"66300";"CASTELNOU";"Mât métallique"; 8.0;"Conseil Régional"
957536;2.98611;42.52444;"02° 59' 10.00'' Est, 42° 31' 28.00'' Nord";"66008";;"D 2 STATION HYDROLOGIQUE MAS D EN TORRENS";"66700";"ARGELES-SUR-MER";"Mât métallique"; 8.0;"Conseil Régional"
957538;2.50083;42.62472;"02° 30' 03.00'' Est, 42° 37' 29.00'' Nord";"66070";"EL CASTELLAS";"D 25";"66320";"ESPIRA-DE-CONFLENT";"Mât métallique"; 3.0;"Conseil Régional"
957540;2.59639;42.43500;"02° 35' 47.00'' Est, 42° 26' 06.00'' Nord";"66009";;"D 3 STATION HYDROLOGIQUE LE TECH PAS DU LOUP";"66150";"ARLES-SUR-TECH";"Mât métallique"; 8.0;"Conseil Régional"
957542;2.02028;42.45972;"02° 01' 13.00'' Est, 42° 27' 35.00'' Nord";"66167";;"D 33 RO";"66800";"SAILLAGOUSE";"Mât métallique"; 3.0;"Conseil Régional"
957544;2.83000;42.59667;"02° 49' 48.00'' Est, 42° 35' 48.00'' Nord";"66217";;"D 37 ST DE VILLEMOLAQUE";"66300";"TROUILLAS";"Mât métallique"; 8.0;"Conseil Régional"
957546;2.17250;42.60333;"02° 10' 21.00'' Est, 42° 36' 12.00'' Nord";"66191";;"CHEMIN DE PLANOL STATION HYDROLOGIQUE TET D 4E";"66360";"SANSA";"Mât métallique"; 8.0;"Conseil Régional"
957548;2.66861;42.46833;"02° 40' 07.00'' Est, 42° 28' 06.00'' Nord";"66003";"L'ESCALADOR";"D 53 RIVIERE LE MONDONY";"66110";"AMELIE-LES-BAINS-PALALDA";"Mât métallique"; 3.0;"Conseil Régional"
957550;2.74444;42.80944;"02° 44' 40.00'' Est, 42° 48' 34.00'' Nord";"66205";;"RUE DE LA REVOLUTION LE VERDOUBLE D59";"66720";"TAUTAVEL";"Mât métallique"; 3.0;"Conseil Régional"
957552;2.35611;42.49750;"02° 21' 22.00'' Est, 42° 29' 51.00'' Nord";"66155";;"D 6 STATION HYDROLOGIQUE TET";"66360";"PY";"Mât métallique"; 8.0;"Conseil Régional"
957554;2.05500;42.54028;"02° 03' 18.00'' Est, 42° 32' 25.00'' Nord";"66098";"JACA DE LES CABRES";"D 60 STATION HYDROLOGIQUE";"66210";"LA LLAGONNE";"Mât métallique"; 8.0;"Conseil Régional"
957556;2.98139;42.71472;"02° 58' 53.00'' Est, 42° 42' 53.00'' Nord";"66224";"MAS GAILLARD";"R JULES FERRY PROLONGÉE D 61 7 B STATION LA TET";"66410";"VILLELONGUE-DE-LA-SALANQUE";"Mât métallique"; 8.0;"Conseil Régional"
957558;2.71833;42.64694;"02° 43' 06.00'' Est, 42° 38' 49.00'' Nord";"66044";;"D 615 MAS DE LA TOURRE";"66300";"CASTELNOU";"Mât métallique"; 3.0;"Conseil Régional"
957560;2.62778;42.66694;"02° 37' 40.00'' Est, 42° 40' 01.00'' Nord";"66088";;"D 615 STATION HYDROLOGIQUE LE BOLES";"66130";"ILLE-SUR-TET";"Mât métallique"; 8.0;"Conseil Régional"
957564;2.93194;42.71556;"02° 55' 55.00'' Est, 42° 42' 56.00'' Nord";"66021";;"AV DE LA TET   D617 STATION HYDROLOGIQUE";"66430";"BOMPAS";"Mât métallique"; 8.0;"Conseil Régional"
957568;2.49750;42.79944;"02° 29' 51.00'' Est, 42° 47' 58.00'' Nord";"66097";;"D 7 ST PAUL DE FENOUILLET";"66220";"LESQUERDE";"Mât métallique"; 8.0;"Conseil Régional"
957570;2.94167;42.48111;"02° 56' 30.00'' Est, 42° 28' 52.00'' Nord";"66093";;"D 71 A PIC DE NEOULOUS";"66740";"LAROQUE-DES-ALBERES";"Mât métallique"; 3.0;"Conseil Régional"
957572;2.77056;42.83083;"02° 46' 14.00'' Est, 42° 49' 51.00'' Nord";"66205";"CRETE NORD";"D 9 CRETE NORD";"66720";"TAUTAVEL";"Pylône autostable"; 15.0;"Conseil Régional"
957574;2.75417;42.83833;"02° 45' 15.00'' Est, 42° 50' 18.00'' Nord";"66205";"CAUNA DE L ARAGO";"D 9 STATION VINGRAU";"66720";"TAUTAVEL";"Mât métallique"; 8.0;"Conseil Départemental"
957576;2.52333;42.75500;"02° 31' 24.00'' Est, 42° 45' 18.00'' Nord";"66006";"LA PAYSSÈRE DE LA FIGUERASSE";"D 9B STATION HYDROLOGIQUE AGLY";"66220";"ANSIGNAN";"Mât métallique"; 8.0;"Conseil Régional"
957578;2.73528;42.77722;"02° 44' 07.00'' Est, 42° 46' 38.00'' Nord";"66071";"MAS DE JAU";"STATION HYDROLOGIQUE L'AGLY D117";"66310";"ESTAGEL";"Mât métallique"; 8.0;"Conseil Régional"
957580;2.70111;42.49472;"02° 42' 04.00'' Est, 42° 29' 41.00'' Nord";"66160";"POUX DE LLOUBE";"D15 STATION HYDROLOGIQUE L AMPLE COURS D EAU LE VILA";"66400";"REYNES";"Mât métallique"; 8.0;"Conseil Régional"
957582;2.84528;42.89667;"02° 50' 43.00'' Est, 42° 53' 48.00'' Nord";"66127";;"PERILLOS";"66600";"OPOUL-PERILLOS";"Mât métallique"; 3.0;"Conseil Régional"
957584;2.92694;42.65278;"02° 55' 37.00'' Est, 42° 39' 10.00'' Nord";"66227";;"N 114 EL MAS CAHORS";"66180";"VILLENEUVE-DE-LA-RAHO";"Mât métallique"; 8.0;"Conseil Régional"
957586;3.13556;42.45306;"03° 08' 08.00'' Est, 42° 27' 11.00'' Nord";"66048";;"N 114 PIC JOAN";"66290";"CERBERE";"Pylône autostable"; 11.0;"Conseil Régional"
957588;2.72833;42.68944;"02° 43' 42.00'' Est, 42° 41' 22.00'' Nord";"66173";;"N 116 STATION HYDROLOGIQUE TET";"66170";"SAINT-FELIU-D'AMONT";"Mât métallique"; 8.0;"Conseil Régional"
957590;2.38361;42.60222;"02° 23' 01.00'' Est, 42° 36' 08.00'' Nord";"66161";;"N 116 VILLEFRANCHE ENGORNER";"66500";"RIA-SIRACH";"Mât métallique"; 8.0;"Conseil Régional"
957592;2.38806;42.54639;"02° 23' 17.00'' Est, 42° 32' 47.00'' Nord";"66222";;"PROMENADE ALBIOT STATION LA TET";"66820";"VERNET-LES-BAINS";"Mât métallique"; 8.0;"Conseil Régional"
957594;2.88833;42.69722;"02° 53' 18.00'' Est, 42° 41' 50.00'' Nord";"66136";;"QUAI PIERRE BOURDAN";"66000";"PERPIGNAN";"Mât métallique"; 3.0;"Conseil Régional"
957596;2.48722;42.64500;"02° 29' 14.00'' Est, 42° 38' 42.00'' Nord";"66103";;"R DU MOULIN STATION HYDROLOGIQUE LA TE";"66320";"MARQUIXANES";"Mât métallique"; 8.0;"Conseil Régional"
957598;2.62000;42.40639;"02° 37' 12.00'' Est, 42° 24' 23.00'' Nord";"66179";;"RTE DU BAC STATION HYDROLOGIQUE TECH";"66260";"SAINT-LAURENT-DE-CERDANS";"Mât métallique"; 8.0;"Conseil Régional"
957600;2.42167;42.63250;"02° 25' 18.00'' Est, 42° 37' 57.00'' Nord";"66045";;"RN STATION HYDROLOGIQUE";"66500";"CATLLAR";"Mât métallique"; 8.0;"Conseil Régional"
957602;3.02750;42.54444;"03° 01' 39.00'' Est, 42° 32' 40.00'' Nord";"66008";;"R ANTOINE BOURDELLE";"66700";"ARGELES-SUR-MER";"Mât métallique"; 8.0;"Conseil Régional"
957604;2.58833;42.74528;"02° 35' 18.00'' Est, 42° 44' 43.00'' Nord";"66042";;"R DES CORBIERES BARRAGE SUR L AGLY";"66720";"CASSAGNES";"Mât métallique"; 8.0;"Conseil Régional"
957606;2.31611;42.56611;"02° 18' 58.00'' Est, 42° 33' 58.00'' Nord";"66193";;"R DU PEYROU STATION HYDROLOGIQUE TET";"66360";"SERDINYA";"Mât métallique"; 8.0;"Conseil Régional"
957608;2.83056;42.51972;"02° 49' 50.00'' Est, 42° 31' 11.00'' Nord";"66024";;"R JEAN NOGUES STATION HYDROLOGIQUE TET";"66160";"LE BOULOU";"Mât métallique"; 8.0;"Conseil Régional"
957610;2.98472;42.58556;"02° 59' 05.00'' Est, 42° 35' 08.00'' Nord";"66065";"PONT SUR LE TECH N114";"STATION HYDROLOGIQUE";"66200";"ELNE";"Mât métallique"; 8.0;"Conseil Régional"
957612;3.10722;42.46556;"03° 06' 26.00'' Est, 42° 27' 56.00'' Nord";"66016";;"STATION HYDROLOGIQUE RTE DE MAS BAILLAURY";"66650";"BANYULS-SUR-MER";"Mât métallique"; 8.0;"Conseil Régional"
957792;2.89278;42.70528;"02° 53' 34.00'' Est, 42° 42' 19.00'' Nord";"66136";;"9 AV DES EAUX VIVES PONT JOFFRE";"66000";"PERPIGNAN";"Mât métallique"; 8.0;"Conseil Régional"
957794;2.90833;42.85917;"02° 54' 30.00'' Est, 42° 51' 33.00'' Nord";"66190";;"A 9 LE TROU DU BUIS";"66600";"SALSES-LE-CHATEAU";"Mât métallique"; 3.0;"Conseil Régional"
957796;2.58083;42.46667;"02° 34' 51.00'' Est, 42° 28' 00.00'' Nord";"66060";;"LA CROUETTE STATION HYDROLOGIQUE";"66150";"CORSAVY";"Mât métallique"; 8.0;"Conseil Régional"
957798;2.61833;42.76611;"02° 37' 06.00'' Est, 42° 45' 58.00'' Nord";"66143";"LE CAMOU";"LA CLOTADE STATION HYDROLOGIQUE AGLY";"66720";"PLANEZES";"Mât métallique"; 8.0;"Conseil Régional"
957800;2.74361;42.49528;"02° 44' 37.00'' Est, 42° 29' 43.00'' Nord";"66049";;"AV DES ASPRES PONT DU DIABLE";"66400";"CERET";"Mât métallique"; 8.0;"Conseil Régional"
957802;2.67278;42.47333;"02° 40' 22.00'' Est, 42° 28' 24.00'' Nord";"66003";;"AV DU 8 MAI 1945 PALALDA";"66110";"AMELIE-LES-BAINS-PALALDA";"Mât métallique"; 8.0;"Conseil Régional"
957804;2.56083;42.66028;"02° 33' 39.00'' Est, 42° 39' 37.00'' Nord";"66165";;"CARRER DE LA BLANQUERA STATION HYDROLOGIQUE TET";"66320";"RODES";"Mât métallique"; 8.0;"Conseil Régional"
958634;2.89194;42.70556;"02° 53' 31.00'' Est, 42° 42' 20.00'' Nord";"66136";;"2 R JEAN RICHEPIN";"66000";"PERPIGNAN";"Immeuble"; 17.0;"Particulier"
961709;2.89083;42.75139;"02° 53' 27.00'' Est, 42° 45' 05.00'' Nord";"66164";;"AIRE DE REPOS DE RIVESALTES ZER RIVESALTES";"66600";"RIVESALTES";"Bâtiment"; 10.0;"Sociétés d'Autoroutes"
962942;2.64389;42.48139;"02° 38' 38.00'' Est, 42° 28' 53.00'' Nord";"66113";"LOUS QUINTANS";"PIC DE CAN-KIRC STATION TDF D'AMELIE LES BAINS";"66110";"MONTBOLO";"Pylône autostable"; 13.0;"ORANGE Services Fixes"
963483;2.60000;42.40389;"02° 36' 00.00'' Est, 42° 24' 14.00'' Nord";"66179";"LA FARGA DEL MIG";"RUE DES EVADÉS DE FRANCE";"66260";"SAINT-LAURENT-DE-CERDANS";"Pylône autostable"; 13.0;"Commune, communauté de commune"
971525;2.37500;42.81028;"02° 22' 30.00'' Est, 42° 48' 37.00'' Nord";"66046";"LE CIMETIÈRE";"EMPRISE SNCF";"66220";"CAUDIES-DE-FENOUILLEDES";"Mât"; 6.0;"ORANGE Services Fixes"
971527;2.35833;42.82583;"02° 21' 30.00'' Est, 42° 49' 33.00'' Nord";"66046";"LE MOUSQUIER";"CHEMIN DE MALABRAC";"66220";"CAUDIES-DE-FENOUILLEDES";"Bâtiment"; 3.0;"Particulier"
971853;2.11139;42.57500;"02° 06' 41.00'' Est, 42° 34' 30.00'' Nord";"66105";"TOUR DU BARRAGE DE MATEMALE";"TOUR DU BARRAGE DE MATEMALE";"66210";"MATEMALE";"Bâtiment"; 5.0;"EDF ou GDF"
975387;2.43778;42.76222;"02° 26' 16.00'' Est, 42° 45' 44.00'' Nord";"66234";"BELLEGARDE";"CORTAL D'EN BENET";"66730";"LE VIVIER";"Mât"; 9.0;"ORANGE Services Fixes"
976932;2.36306;42.59889;"02° 21' 47.00'' Est, 42° 35' 56.00'' Nord";"66223";"BELLOC";"FORÊT DOMANIALE DU CORONAT CEAF SARL";"66500";"VILLEFRANCHE-DE-CONFLENT";"Pylône autostable"; 11.0;"Société Privée SA"
979250;3.12417;42.51472;"03° 07' 27.00'' Est, 42° 30' 53.00'' Nord";"66148";;"FORT BEAR";"66660";"PORT-VENDRES";"Pylône autostable"; 22.0;"EDF ou GDF"
981283;2.52944;42.65528;"02° 31' 46.00'' Est, 42° 39' 19.00'' Nord";"66007";"COUME D'OUTREIRA";"M. HERMAN CAMI DE TARERACH";"66320";"ARBOUSSOLS";"Bâtiment"; 4.0;"Particulier"
981285;2.53083;42.64806;"02° 31' 51.00'' Est, 42° 38' 53.00'' Nord";"66230";"CREU ESCASADE";"AUTOCOM";"66320";"VINCA";"Bâtiment"; 5.0;"ORANGE Services Fixes"
983004;3.13667;42.51556;"03° 08' 12.00'' Est, 42° 30' 56.00'' Nord";"66148";"CAP BEAR";"PHARE";"66660";"PORT-VENDRES";"Phare"; 27.0;"Phares et balises"
988461;2.58806;42.54750;"02° 35' 17.00'' Est, 42° 32' 51.00'' Nord";"66018";"LA PLANE";;"66110";"LA BASTIDE";"Bâtiment"; 6.0;"ORANGE Services Fixes"
1012690;2.94833;42.75556;"02° 56' 54.00'' Est, 42° 45' 20.00'' Nord";"66050";"CAMI DES COUTIVES";;"66530";"CLAIRA";"Mât"; 3.0;"ORANGE"
1014449;2.60250;42.80222;"02° 36' 09.00'' Est, 42° 48' 08.00'' Nord";"66107";"BAC DE L'ALVÈSE2";;"66460";"MAURY";"Mât métallique"; 3.0;"ORANGE Services Fixes"
1032635;2.40806;42.50222;"02° 24' 29.00'' Est, 42° 30' 08.00'' Nord";"66043";"ROC DE MARIAILLES";"REFUGE DE MARIAILLES";"66820";"CASTEIL";"Mât"; 6.0;"ORANGE Services Fixes"
1041636;2.41972;42.60222;"02° 25' 11.00'' Est, 42° 36' 08.00'' Nord";"66052";"CHEMIN DE NOUGAROL";;"66500";"CODALET";"Pylône haubané"; 16.0;"Titulaire programme Radio/TV"
1053817;1.80778;42.56944;"01° 48' 28.00'' Est, 42° 34' 10.00'' Nord";"66147";;"RTE DE LA SAPINIERE";"66760";"PORTE-PUYMORENS";"Pylône autostable"; 21.0;"DDE"
1054007;1.84222;42.48194;"01° 50' 32.00'' Est, 42° 28' 55.00'' Nord";"66146";"PLA DE LLAURO";;"66760";"PORTA";"Pylône autostable"; 12.0;"Gendarmerie"
1055350;2.63139;42.52472;"02° 37' 53.00'' Est, 42° 31' 29.00'' Nord";"66203";"CAMP DE LAMOURE";;"66110";"TAULIS";"Bâtiment"; 6.0;"ORANGE Services Fixes"
1056587;2.89111;42.70222;"02° 53' 28.00'' Est, 42° 42' 08.00'' Nord";"66136";;"STUDIO FRANCE BLEU ROUSSILLON";"66001";"PERPIGNAN";"Bâtiment"; 25.0;"Société Privée SA"
1097797;2.77667;42.76667;"02° 46' 36.00'' Est, 42° 45' 60.00'' Nord";"66030";"LAS COUMOS DE LA QUIRRO";;"66600";"CALCE";"Pylône autostable"; 15.0;"Société Privée SA"
1101581;2.86806;42.68472;"02° 52' 05.00'' Est, 42° 41' 05.00'' Nord";"66136";;"RUE PIERRE PASCAL FAUVELLE RUE LOUIS BRAILLE";"66000";"PERPIGNAN";"Pylône autostable"; 17.0;"Société Privée SA"
1192799;2.11250;42.48417;"02° 06' 45.00'' Est, 42° 29' 03.00'' Nord";"66188";"LA JACA";;"66210";"SAINT-PIERRE-DELS-FORCATS";"Pylône autostable"; 30.0;"TDF"
1194535;2.87167;42.68028;"02° 52' 18.00'' Est, 42° 40' 49.00'' Nord";"66136";;"1191 CHEMIN DE MAILLOLES";"66000";"PERPIGNAN";"Bâtiment"; 3.0;"Etat, Ministère"
1200483;2.89222;42.66472;"02° 53' 32.00'' Est, 42° 39' 53.00'' Nord";"66136";"PORTE D'ESPAGNE";"RUE LEON BINET STADE MUNICIPAL";"66000";"PERPIGNAN";"Pylône tubulaire"; 25.0;"TDF"
1201271;2.95417;42.51444;"02° 57' 15.00'' Est, 42° 30' 52.00'' Nord";"66196";"MAS DEL CA";;"66690";"SOREDE";"Mât béton"; 7.0;"Société Privée SA"
1201273;2.97222;42.51667;"02° 58' 20.00'' Est, 42° 30' 60.00'' Nord";"66196";"NOTRE-DAME DU CHÂTEAU";;"66690";"SOREDE";"Mât béton"; 10.0;"Société Privée SA"
1205351;2.40278;42.60528;"02° 24' 10.00'' Est, 42° 36' 19.00'' Nord";"66161";;"EGLISE DE SIRACH";"66500";"RIA-SIRACH";"Monument religieux"; 10.0;"Société Privée SA"
1205717;2.56222;42.65944;"02° 33' 44.00'' Est, 42° 39' 34.00'' Nord";"66165";;"RÉSERVOIR";"66320";"RODES";"Château d'eau - réservoir"; 5.0;"Syndicat des eaux, Adduction"
1205719;2.76722;42.82917;"02° 46' 02.00'' Est, 42° 49' 45.00'' Nord";"66205";"RAVIN DE LES NAU BOUQUES";;"66720";"TAUTAVEL";"Pylône autostable"; 15.0;"Société Privée SA"
1207999;2.61583;42.55389;"02° 36' 57.00'' Est, 42° 33' 14.00'' Nord";"66153";"ROQUECOURBE";"COL XATARD";"66130";"PRUNET-ET-BELPUIG";"Mât béton"; 12.0;"ORANGE Services Fixes"
1211842;2.37028;42.59194;"02° 22' 13.00'' Est, 42° 35' 31.00'' Nord";"66223";"GARE SNCF";"QUARTIER DE LA GARE";"66500";"VILLEFRANCHE-DE-CONFLENT";"Bâtiment"; 7.0;"SNCF"
1212035;2.84611;42.70778;"02° 50' 46.00'' Est, 42° 42' 28.00'' Nord";"66172";;"RUE DE LA REPUBLIQUE MAIRIE";"66240";"SAINT-ESTEVE";"Bâtiment"; 15.0;"Commune, communauté de commune"
1212593;2.18889;42.51361;"02° 11' 20.00'' Est, 42° 30' 49.00'' Nord";"66080";"GARE SNCF";"RUE DE LA GARE";"66360";"FONTPEDROUSE";"Mât métallique"; 11.1;"SNCF Réseau"
1213113;2.27250;42.55500;"02° 16' 21.00'' Est, 42° 33' 18.00'' Nord";"66125";"GARE SNCF";"RUE DE LA GARE";"66360";"OLETTE";"Mât métallique"; 11.1;"SNCF Réseau"
1215168;2.11278;42.50222;"02° 06' 46.00'' Est, 42° 30' 08.00'' Nord";"66027";"GARE SNCF";"1, AVENUE MOFFRE";"66210";"LA CABANASSE";"Mât métallique"; 11.1;"SNCF Réseau"
1215546;2.03806;42.49139;"02° 02' 17.00'' Est, 42° 29' 29.00'' Nord";"66124";"GARE SNCF";"1, RUE DE LA GARE";"66120";"FONT-ROMEU-ODEILLO-VIA";"Mât métallique"; 11.1;"SNCF Réseau"
1215548;2.03250;42.45694;"02° 01' 57.00'' Est, 42° 27' 25.00'' Nord";"66167";"GARE SNCF";"ROUTE DE LIVIA";"66800";"SAILLAGOUSE";"Mât métallique"; 11.1;"SNCF Réseau"
1215550;1.94833;42.43250;"01° 56' 54.00'' Est, 42° 25' 57.00'' Nord";"66025";"GARE SNCF";"3 AVENUE DE LA GARE";"66760";"BOURG-MADAME";"Mât métallique"; 11.1;"SNCF Réseau"
1215552;1.90500;42.45889;"01° 54' 18.00'' Est, 42° 27' 32.00'' Nord";"66066";;"D34A GARE SNCF";"66760";"ENVEITG";"Bâtiment"; 15.0;"SNCF"
1283131;2.56556;42.65028;"02° 33' 56.00'' Est, 42° 39' 01.00'' Nord";"66165";"LES TERRALBES";"CHEMIN CARRERADE";"66320";"RODES";"Pylône autostable"; 18.0;"ORANGE"
1303398;3.02889;42.55056;"03° 01' 44.00'' Est, 42° 33' 02.00'' Nord";"66008";;"AV JULES FERRY CENTRAL TELEPHONIQUE";"66700";"ARGELES-SUR-MER";"Bâtiment"; 31.0;"ORANGE Services Fixes"
1334025;2.77028;42.73361;"02° 46' 13.00'' Est, 42° 44' 01.00'' Nord";"66030";"PÉDRE NÈGRE";;"66600";"CALCE";"Bâtiment"; 28.0;"Société Privée SA"
1358383;2.62444;42.66361;"02° 37' 28.00'' Est, 42° 39' 49.00'' Nord";"66088";;"PONT DE LA FUSTA";"66130";"ILLE-SUR-TET";"Pylône autostable"; 30.0;"HIVORY"
1371900;3.10417;42.51306;"03° 06' 15.00'' Est, 42° 30' 47.00'' Nord";"66148";"LA GARE";;"66660";"PORT-VENDRES";"Pylône tubulaire"; 25.0;"SNCF Réseau"
1372921;2.38250;42.64361;"02° 22' 57.00'' Est, 42° 38' 37.00'' Nord";"66034";"PARACOLLS";;"66500";"CAMPOME";"Mât"; 12.0;"ORANGE"
1378943;2.76222;42.49944;"02° 45' 44.00'' Est, 42° 29' 58.00'' Nord";"66049";;"ROUTE DE SAINT-JEAN OULRICH ESPACE TECHNIQUE ULRICH";"66400";"CERET";"Bâtiment"; 8.0;"Société Privée SA"
1382163;2.42139;42.61444;"02° 25' 17.00'' Est, 42° 36' 52.00'' Nord";"66149";;"ROUTE DE VERDUN CENTRE DE SECOURS";"66500";"PRADES";"Bâtiment"; 18.0;"SDIS, secours, incendie"
1392538;2.69861;42.77778;"02° 41' 55.00'' Est, 42° 46' 40.00'' Nord";"66071";;"MONT D'ESTAGEL";"66310";"ESTAGEL";"Pylône autostable"; 25.0;"TDF"
1397479;2.78056;42.76806;"02° 46' 50.00'' Est, 42° 46' 05.00'' Nord";"66041";;"ND DE L'HERMITAGE";"66600";"CASES-DE-PENE";"Pylône autostable"; 29.0;"TDF"
1406365;2.94528;42.62722;"02° 56' 43.00'' Est, 42° 37' 38.00'' Nord";"66208";"LES CLOSES";"0";"66200";"THEZA";"Pylône autostable"; 20.0;"SNCF Réseau"
1406369;2.93222;42.58639;"02° 55' 56.00'' Est, 42° 35' 11.00'' Nord";"66129";"ELS COMMUNS";"AVENUE DE LA MÉDITERRANNÉE";"66560";"ORTAFFA";"Pylône autostable"; 25.0;"SNCF Réseau"
1410529;2.81444;42.64333;"02° 48' 52.00'' Est, 42° 38' 36.00'' Nord";"66038";"MANRESES";"VOIE COMMUNALE 105";"66680";"CANOHES";"Pylône tubulaire"; 13.0;"ORANGE"
1413802;2.80639;42.73222;"02° 48' 23.00'' Est, 42° 43' 56.00'' Nord";"66014";"CAMI DE VILANOVA";"D 614";"66390";"BAIXAS";"Pylône autostable"; 13.0;"RTE"
1422081;2.86583;42.55500;"02° 51' 57.00'' Est, 42° 33' 18.00'' Nord";"66015";"VIGNES DEL CAMI D'ELNES";;"66300";"BANYULS-DELS-ASPRES";"Pylône autostable"; 20.0;"SNCF Réseau"
1425431;2.88250;42.69222;"02° 52' 57.00'' Est, 42° 41' 32.00'' Nord";"66136";;"19 ET 21 R HENRI RIBERE";"66000";"PERPIGNAN";"Immeuble"; 30.5;"Copropriété, Syndic, SCI"
1434437;3.01944;42.70333;"03° 01' 10.00'' Est, 42° 42' 12.00'' Nord";"66037";"COLLINE DES LOISIRS";"R GUY DRUT";"66140";"CANET-EN-ROUSSILLON";"Bâtiment"; 12.0;"Société Privée SA"
1443544;2.85111;42.66583;"02° 51' 04.00'' Est, 42° 39' 57.00'' Nord";"66136";;"MAS COMA SERRA NORD";"66000";"PERPIGNAN";"Pylône autostable"; 35.0;"HIVORY"
1444540;2.06917;42.57528;"02° 04' 09.00'' Est, 42° 34' 31.00'' Nord";"66004";;"GARE DES TELECABINES";"66210";"LES ANGLES";"Bâtiment"; 10.0;"Conseil Régional"
1446888;2.82278;42.77556;"02° 49' 22.00'' Est, 42° 46' 32.00'' Nord";"66069";;"MIRANDES BASSES";"66600";"ESPIRA-DE-L'AGLY";"Pylône autostable"; 22.0;"SFR"
1449764;2.96361;42.59333;"02° 57' 49.00'' Est, 42° 35' 36.00'' Nord";"66065";"LE DEVES";;"66200";"ELNE";"Pylône autostable"; 35.0;"HIVORY"
1454467;2.94694;42.75500;"02° 56' 49.00'' Est, 42° 45' 18.00'' Nord";"66050";"CAMI DES COUTIVES";"CHEM DE MATABURROS";"66530";"CLAIRA";"Pylône tubulaire"; 30.0;"SFR"
1457968;2.90250;42.68667;"02° 54' 09.00'' Est, 42° 41' 12.00'' Nord";"66136";;"1 AVENUE DE VILLENEUVE";"66000";"PERPIGNAN";"Immeuble"; 35.0;"Copropriété, Syndic, SCI"
1458985;2.94722;42.48306;"02° 56' 50.00'' Est, 42° 28' 59.00'' Nord";"66093";"PIC DE NEULOS";;"66740";"LAROQUE-DES-ALBERES";"Pylône autostable"; 32.0;"Towercast"
1460613;2.76750;42.82944;"02° 46' 03.00'' Est, 42° 49' 46.00'' Nord";"66205";"FOURAT DE LAS NAU BOUQUES";;"66720";"TAUTAVEL";"Pylône autostable"; 17.0;"Towercast"
1461406;2.52444;42.80528;"02° 31' 28.00'' Est, 42° 48' 19.00'' Nord";"66187";"LA BRUYÈRE";;"66220";"SAINT-PAUL-DE-FENOUILLET";"Pylône autostable"; 37.0;"Towercast"
1463693;2.89500;42.70250;"02° 53' 42.00'' Est, 42° 42' 09.00'' Nord";"66136";;"5 - 5, BIS COURS PALMAROLE HOTEL MERCURE";"66000";"PERPIGNAN";"Immeuble"; 29.0;"Société Privée SA"
1465805;2.46000;42.67194;"02° 27' 36.00'' Est, 42° 40' 19.00'' Nord";"66074";"CAMP D'AL CABRE";;"66500";"EUS";"Pylône autostable"; 39.0;"Towercast"
1471079;3.04139;42.83722;"03° 02' 29.00'' Est, 42° 50' 14.00'' Nord";"66017";;"AVENUE DE LA PLAGE";"66420";"LE BARCARES";"Immeuble"; 26.6;"Copropriété, Syndic, SCI"
1473316;2.86778;42.77722;"02° 52' 04.00'' Est, 42° 46' 38.00'' Nord";"66164";;"CHEMIN DE VINGRAU";"66600";"RIVESALTES";"Pylône tubulaire"; 25.0;"SNCF Réseau"
1474455;2.83389;42.68278;"02° 50' 02.00'' Est, 42° 40' 58.00'' Nord";"66213";"MAS PUIG SEC";"CHEMIN DE LA BASSE";"66350";"TOULOUGES";"Pylône autostable"; 25.0;"SNCF Réseau"
1475158;3.02472;42.73056;"03° 01' 29.00'' Est, 42° 43' 50.00'' Nord";"66182";"PAS DAL FANG";;"66470";"SAINTE-MARIE";"Pylône autostable"; 27.0;"ATC FRANCE"
1477233;2.93083;42.62556;"02° 55' 51.00'' Est, 42° 37' 32.00'' Nord";"66227";"LA PRADA";;"66180";"VILLENEUVE-DE-LA-RAHO";"Pylône autostable"; 20.4;"HIVORY"
1478600;3.15667;42.45778;"03° 09' 24.00'' Est, 42° 27' 28.00'' Nord";"66048";"PEYREFITE";;"66290";"CERBERE";"Pylône autostable"; 12.0;"SNCF Réseau"
1478805;2.87333;42.76667;"02° 52' 24.00'' Est, 42° 45' 60.00'' Nord";"66164";;"R DU DR PARES COPROPRIÉTÉ ST ANDRÉ";"66600";"RIVESALTES";"Immeuble"; 21.3;"Copropriété, Syndic, SCI"
1484333;3.12500;42.48306;"03° 07' 30.00'' Est, 42° 28' 59.00'' Nord";"66016";"CENTRE VILLE";"AVENUE DE LA GARE GARE";"66650";"BANYULS-SUR-MER";"Pylône tubulaire"; 20.0;"SNCF Réseau"
1485084;3.16250;42.44111;"03° 09' 45.00'' Est, 42° 26' 28.00'' Nord";"66048";;"GARE SNCF";"66290";"CERBERE";"Pylône autostable"; 12.0;"SNCF Réseau"
1485086;2.90083;42.67194;"02° 54' 03.00'' Est, 42° 40' 19.00'' Nord";"66136";"PONTET DE BAGES EST";;"66000";"PERPIGNAN";"Pylône autostable"; 20.0;"SNCF Réseau"
1485088;2.88000;42.69472;"02° 52' 48.00'' Est, 42° 41' 41.00'' Nord";"66136";;"BOULEVARD SAINT ASSISE";"66000";"PERPIGNAN";"Pylône autostable"; 20.0;"SNCF Réseau"
1490216;2.87306;42.72111;"02° 52' 23.00'' Est, 42° 43' 16.00'' Nord";"66136";"MAS ST CHRISTOPHE";"CHEMIN DE TORREMILLA  SARL AUDOUY";"66000";"PERPIGNAN";"Pylône autostable"; 20.0;"SFR"
1497111;2.86917;42.74111;"02° 52' 09.00'' Est, 42° 44' 28.00'' Nord";"66136";;"AEROPORT INTERNATIONAL PERPIGNAN AVENUE MAURICE BELLONTE";"66000";"PERPIGNAN";"Bâtiment"; 10.0;"CCI,Ch Metiers,Port Aut,Aérop"
1507855;2.60000;42.66167;"02° 36' 00.00'' Est, 42° 39' 42.00'' Nord";"66088";;"PRES DE D916";"66130";"ILLE-SUR-TET";"Pylône autostable"; 30.7;"TDF"
1508789;2.89861;42.77750;"02° 53' 55.00'' Est, 42° 46' 39.00'' Nord";"66164";"MAS DE LA GARRIGUE SUD";"RUE OLIVIER DE SERRES";"66600";"RIVESALTES";"Pylône autostable"; 25.0;"HIVORY"
1510228;2.96889;42.57611;"02° 58' 08.00'' Est, 42° 34' 34.00'' Nord";"66133";;"RUE DU STADE MUNICIPAL GEORGES VAILS";"66690";"PALAU-DEL-VIDRE";"Pylône autostable"; 34.4;"Commune, communauté de commune"
1518200;2.85694;42.63972;"02° 51' 25.00'' Est, 42° 38' 23.00'' Nord";"66144";;"ROUTE DE CANOHES";"66450";"POLLESTRES";"Pylône autostable"; 15.6;"IFW-FREE"
1519046;2.69833;42.70139;"02° 41' 54.00'' Est, 42° 42' 05.00'' Nord";"66108";"PLANES D'ABAIX";"CHEMIN DU CORREC";"66170";"MILLAS";"Pylône autostable"; 18.0;"ATC FRANCE"
1523572;2.64361;42.48139;"02° 38' 37.00'' Est, 42° 28' 53.00'' Nord";"66113";"LOUS QUINTANS";"PIC DE CAN-KIRC STATION TDF D'AMELIE LES BAINS";"66110";"MONTBOLO";"Pylône autostable"; 8.0;"TDF"
1524050;2.94444;42.52111;"02° 56' 40.00'' Est, 42° 31' 16.00'' Nord";"66093";;"RTE DU MOULIN DE CASSANYES-CAMPING LES ALBERES";"66740";"LAROQUE-DES-ALBERES";"Pylône autostable"; 22.0;"ATC FRANCE"
1527374;2.94861;42.75556;"02° 56' 55.00'' Est, 42° 45' 20.00'' Nord";"66050";"CAMI DES COUTIVES";"PYLÔNE BOUYGUES";"66530";"CLAIRA";"Pylône tubulaire"; 28.6;"BOUYGUES"
1529116;1.82361;42.53806;"01° 49' 25.00'' Est, 42° 32' 17.00'' Nord";"66146";;"RN 20 TUNNEL DU PUYMORENS BASE RADIO EXPLOITATION";"66760";"PORTA";"Bâtiment"; 8.0;"Sociétés d'Autoroutes"
1531317;2.93389;42.71639;"02° 56' 02.00'' Est, 42° 42' 59.00'' Nord";"66021";;"ROND-POINT DU MILLÉNAIRE  AV.DE LA TÊT";"66430";"BOMPAS";"Pylône autostable"; 26.3;"IFW-FREE"
1534539;3.00306;42.76889;"03° 00' 11.00'' Est, 42° 46' 08.00'' Nord";"66180";"LA PASSEJADE";"VOIE COMMUNALE N 113";"66250";"SAINT-LAURENT-DE-LA-SALANQUE";"Pylône tubulaire"; 27.1;"IFW-FREE"
1539354;2.96306;42.65528;"02° 57' 47.00'' Est, 42° 39' 19.00'' Nord";"66189";;"STADE COMMUNAL DE SALEILLES";"66280";"SALEILLES";"Pylône tubulaire"; 32.1;"IFW-FREE"
1540906;3.12472;42.48861;"03° 07' 29.00'' Est, 42° 29' 19.00'' Nord";"66016";"BACH DE LAS ELMES";;"66650";"BANYULS-SUR-MER";"Tunnel"; 8.5;"SNCF Réseau"
1540908;3.12000;42.49083;"03° 07' 12.00'' Est, 42° 29' 27.00'' Nord";"66016";"BACH DE LAS ELMES";;"66650";"BANYULS-SUR-MER";"Tunnel"; 6.2;"SNCF Réseau"
1541017;2.45639;42.79028;"02° 27' 23.00'' Est, 42° 47' 25.00'' Nord";"66184";;"COUME DE CANANILLE";"66220";"SAINT-MARTIN";"Pylône autostable"; 14.0;"HIVORY"
1541457;3.11722;42.49361;"03° 07' 02.00'' Est, 42° 29' 37.00'' Nord";"66148";"CAMP MATHEU OUEST";;"66660";"PORT-VENDRES";"Tunnel"; 9.0;"SNCF Réseau"
1541459;3.16778;42.44639;"03° 10' 04.00'' Est, 42° 26' 47.00'' Nord";"66048";"TERRIMBO EST";;"66290";"CERBERE";"Tunnel"; 9.0;"SNCF Réseau"
1541461;3.16111;42.43889;"03° 09' 40.00'' Est, 42° 26' 20.00'' Nord";"66048";;"GARE SNCF";"66290";"CERBERE";"Tunnel"; 5.9;"SNCF Réseau"
1541463;3.16139;42.44944;"03° 09' 41.00'' Est, 42° 26' 58.00'' Nord";"66048";"TERRIMBO EST";;"66290";"CERBERE";"Mât"; 10.0;"SNCF Réseau"
1541846;2.81722;42.52889;"02° 49' 02.00'' Est, 42° 31' 44.00'' Nord";"66024";"LA CAZETTE";"RÉSERVOIR D'EAU PÉAGE OUEST DE L'A A19";"66160";"LE BOULOU";"Château d'eau - réservoir"; 14.8;"Commune, communauté de commune"
1542012;3.14083;42.47083;"03° 08' 27.00'' Est, 42° 28' 15.00'' Nord";"66016";"SERIS";;"66650";"BANYULS-SUR-MER";"Tunnel"; 9.5;"SNCF Réseau"
1542014;3.15028;42.46222;"03° 09' 01.00'' Est, 42° 27' 44.00'' Nord";"66016";"PEYREFITTE";"0";"66650";"BANYULS-SUR-MER";"Tunnel"; 9.5;"SNCF Réseau"
1542637;3.07694;42.52750;"03° 04' 37.00'' Est, 42° 31' 39.00'' Nord";"66053";;"RUE ARISTIDE MAILLOL";"66190";"COLLIOURE";"Tunnel"; 9.0;"SNCF Réseau"
1542639;3.08806;42.51944;"03° 05' 17.00'' Est, 42° 31' 10.00'' Nord";"66053";"CORREC D EN BAUS";;"66190";"COLLIOURE";"Tunnel"; 9.0;"SNCF Réseau"
1542641;3.07167;42.53083;"03° 04' 18.00'' Est, 42° 31' 51.00'' Nord";"66053";"L OLLA";"0";"66190";"COLLIOURE";"Tunnel"; 9.0;"SNCF Réseau"
1542643;3.09556;42.51444;"03° 05' 44.00'' Est, 42° 30' 52.00'' Nord";"66053";"VALL DE PINTES";;"66190";"COLLIOURE";"Tunnel"; 9.0;"SNCF Réseau"
1542645;3.11639;42.51278;"03° 06' 59.00'' Est, 42° 30' 46.00'' Nord";"66148";"LE PLA DU PORT";;"66660";"PORT-VENDRES";"Tunnel"; 9.0;"SNCF Réseau"
1543259;3.11861;42.50944;"03° 07' 07.00'' Est, 42° 30' 34.00'' Nord";"66148";"PAULILLES NORD";;"66660";"PORT-VENDRES";"Tunnel"; 9.0;"SNCF Réseau"
1543261;3.11806;42.50194;"03° 07' 05.00'' Est, 42° 30' 07.00'' Nord";"66148";"PIERRE PINTADE";;"66660";"PORT-VENDRES";"Ouvrage d'art (pont, viaduc)"; 5.5;"SNCF Réseau"
1544720;2.48111;42.40333;"02° 28' 52.00'' Est, 42° 24' 12.00'' Nord";"66150";;"1 BIS PLACE DU FOIRAL FOYER RURAL";"66230";"PRATS-DE-MOLLO-LA-PRESTE";"Bâtiment"; 10.0;"Commune, communauté de commune"
1551488;2.63972;42.49083;"02° 38' 23.00'' Est, 42° 29' 27.00'' Nord";"66113";;"LA REDOUTE";"66110";"MONTBOLO";"Mât"; 10.0;"Société Privée SA"
1553371;3.14583;42.46667;"03° 08' 45.00'' Est, 42° 28' 00.00'' Nord";"66016";"SERIS";;"66650";"BANYULS-SUR-MER";"Tunnel"; 6.4;"SNCF Réseau"
1553373;3.15972;42.43528;"03° 09' 35.00'' Est, 42° 26' 07.00'' Nord";"66048";"COLLINE DELS BALITRES";;"66290";"CERBERE";"Tunnel"; 5.9;"SNCF Réseau"
1553390;2.55250;42.61972;"02° 33' 09.00'' Est, 42° 37' 11.00'' Nord";"66086";;"RIGARDA MIRAILLES";"66320";"GLORIANES";"Pylône haubané"; 24.0;"Etat, Ministère"
1558815;2.96306;42.63028;"02° 57' 47.00'' Est, 42° 37' 49.00'' Nord";"66059";"EL PAS DEL FANG";"ANCIENNE STATION EPURATION";"66200";"CORNEILLA-DEL-VERCOL";"Pylône autostable"; 30.0;"ORANGE"
1565401;1.73583;42.54389;"01° 44' 09.00'' Est, 42° 32' 38.00'' Nord";"66146";"LES BAILLETTES";"PAS DE LA CASA DENEIGEMENT RN 22";"66760";"PORTA";"Bâtiment"; 13.0;"DDE"
1565530;3.03056;42.54194;"03° 01' 50.00'' Est, 42° 32' 31.00'' Nord";"66008";;"30 RUE DE COLLIOURE";"66700";"ARGELES-SUR-MER";"Bâtiment"; 15.0;"Conseil Départemental"
1565532;2.87306;42.68722;"02° 52' 23.00'' Est, 42° 41' 14.00'' Nord";"66136";;"1265  AVENUE JULIEN PANCHOT";"66000";"PERPIGNAN";"Bâtiment"; 10.0;"Conseil Départemental"
1565534;2.87306;42.68833;"02° 52' 23.00'' Est, 42° 41' 18.00'' Nord";"66136";;"1260 AVENUE JULIEN PANCHOT";"66000";"PERPIGNAN";"Pylône haubané"; 18.0;"Conseil Départemental"
1571572;2.85694;42.63972;"02° 51' 25.00'' Est, 42° 38' 23.00'' Nord";"66144";"CAMI DE CANOHES";"AV DE CANOHES RÉSERVOIR";"66450";"POLLESTRES";"Pylône autostable"; 15.0;"ORANGE"
1574056;2.41000;42.40972;"02° 24' 36.00'' Est, 42° 24' 35.00'' Nord";"66150";"LA PRESTE";"RAVIN DE STE MARIE DEVESA D'EN RIBES NORD";"66230";"PRATS-DE-MOLLO-LA-PRESTE";"Pylône autostable"; 20.0;"ORANGE Services Fixes"
1583582;2.61333;42.44111;"02° 36' 48.00'' Est, 42° 26' 28.00'' Nord";"66009";;"AL RIPOULL";"66150";"ARLES-SUR-TECH";"Pylône autostable"; 17.5;"TDF"
1590397;2.77778;42.76667;"02° 46' 40.00'' Est, 42° 45' 60.00'' Nord";"66030";"LAS COUMOS DE LA QUIRRO";;"66600";"CALCE";"Pylône tubulaire"; 13.0;"Towercast"
1600257;2.91056;42.71139;"02° 54' 38.00'' Est, 42° 42' 41.00'' Nord";"66136";;"441 AVENUE LOUIS DE BROGLIE CENTRE TECHNIQUE MUNICIPAL";"66000";"PERPIGNAN";"Pylône tubulaire"; 21.0;"Commune, communauté de commune"
1606579;2.86806;42.69833;"02° 52' 05.00'' Est, 42° 41' 54.00'' Nord";"66136";"LA GARRIGOLE";"96 AV DE PRADES BÂTIMENT 5 M";"66000";"PERPIGNAN";"Bâtiment"; 5.0;"EDF ou GDF"
1623181;3.04694;42.55167;"03° 02' 49.00'' Est, 42° 33' 06.00'' Nord";"66008";;"RUE DES ROSES 6 ALLÉE DES PALMIERS";"66700";"ARGELES-SUR-MER";"Bâtiment"; 19.7;"Copropriété, Syndic, SCI"
1623187;2.93056;42.62556;"02° 55' 50.00'' Est, 42° 37' 32.00'' Nord";"66227";"LA PRADA";;"66180";"VILLENEUVE-DE-LA-RAHO";"Pylône autostable"; 32.4;"IFW-FREE"
1629439;3.01917;42.70389;"03° 01' 09.00'' Est, 42° 42' 14.00'' Nord";"66037";;"RUE GUY DRUT";"66140";"CANET-EN-ROUSSILLON";"Pylône tubulaire"; 17.0;"IFW-FREE"
1630034;2.82306;42.77611;"02° 49' 23.00'' Est, 42° 46' 34.00'' Nord";"66069";"MIRANDES BASSES";;"66600";"ESPIRA-DE-L'AGLY";"Pylône autostable"; 22.0;"ATC FRANCE"
1632102;2.89111;42.80111;"02° 53' 28.00'' Est, 42° 48' 04.00'' Nord";"66164";;"1 RUE EDOUARD BRANLY ESPACE ENTREPRISE MEDITERRANEE";"66600";"RIVESALTES";"Bâtiment"; 10.0;"EDF ou GDF"
1632258;2.69583;42.79639;"02° 41' 45.00'' Est, 42° 47' 47.00'' Nord";"66205";;"ESTANG POULIT OUEST";"66720";"TAUTAVEL";"Bâtiment"; 5.0;"EDF ou GDF"
1632366;1.90139;42.45889;"01° 54' 05.00'' Est, 42° 27' 32.00'' Nord";"66095";"LA LIATA";"5001F RUE DE LA VIGNOLE";"66760";"LATOUR-DE-CAROL";"Bâtiment"; 6.0;"EDF ou GDF"
1632407;2.36056;42.58333;"02° 21' 38.00'' Est, 42° 35' 00.00'' Nord";"66085";"LES COVES";"145 LAS COBAS";"66820";"FUILLA";"Bâtiment"; 10.0;"EDF ou GDF"
1632419;2.64806;42.65667;"02° 38' 53.00'' Est, 42° 39' 24.00'' Nord";"66088";"MAS MONTOS";"LES ARÈNES";"66130";"ILLE-SUR-TET";"Bâtiment"; 6.0;"EDF ou GDF"
1632745;2.85889;42.69639;"02° 51' 32.00'' Est, 42° 41' 47.00'' Nord";"66136";"LA GARRIGOLE PYLONE";"200 AVENUE DE PRADES";"66000";"PERPIGNAN";"Pylône autostable"; 20.0;"RTE"
1632854;3.15972;42.45833;"03° 09' 35.00'' Est, 42° 27' 30.00'' Nord";"66048";"PLAGE DE PEYREFITE";"9 RESIDÈNCIA EL REPAIRO PEYREFITE PS TERRIMBO";"66290";"CERBERE";"Bâtiment"; 6.0;"EDF ou GDF"
1632863;3.00778;42.55028;"03° 00' 28.00'' Est, 42° 33' 01.00'' Nord";"66008";"SAINT PIERRE";"RUE DES CYPRÈS";"66700";"ARGELES-SUR-MER";"Bâtiment"; 10.0;"EDF ou GDF"
1632912;2.99944;42.63333;"02° 59' 58.00'' Est, 42° 37' 60.00'' Nord";"66171";"PAS DE LA MAR";"3001 VILLERASE";"66750";"SAINT-CYPRIEN";"Bâtiment"; 8.0;"EDF ou GDF"
1632931;2.98611;42.70778;"02° 59' 10.00'' Est, 42° 42' 28.00'' Nord";"66037";"MAS MANY";"194 AVENUE DE PERPIGNAN POSTE SOURCE";"66140";"CANET-EN-ROUSSILLON";"Bâtiment"; 10.0;"EDF ou GDF"
1632937;2.92250;42.68583;"02° 55' 21.00'' Est, 42° 41' 09.00'' Nord";"66028";"MAS SANTA CAMILLA";"14 AVENUE DE SAINT-GAUDERIQUE";"66330";"CABESTANY";"Bâtiment"; 6.0;"EDF ou GDF"
1633275;2.82222;42.61194;"02° 49' 20.00'' Est, 42° 36' 43.00'' Nord";"66217";"PUIG DEL PAL";"D612 LOUS PLAS";"66300";"TROUILLAS";"Bâtiment"; 8.0;"EDF ou GDF"
1633292;2.85972;42.55056;"02° 51' 35.00'' Est, 42° 33' 02.00'' Nord";"66015";"PLA DE LA CREU VERDA";"LA CREU VERDE";"66300";"BANYULS-DELS-ASPRES";"Bâtiment"; 8.0;"EDF ou GDF"
1640780;2.48278;42.76278;"02° 28' 58.00'' Est, 42° 45' 46.00'' Nord";"66076";"FIGUERA LE VILLAGE";"AIRE DE LOISIRS";"66730";"FELLUNS";"Pylône autostable"; 22.0;"HIVORY"
1645458;2.03194;42.42306;"02° 01' 55.00'' Est, 42° 25' 23.00'' Nord";"66181";"ROC D'ERR";"ROUTE FORESTIERE DE SAINTE LEOCADIE";"66800";"SAINTE-LEOCADIE";"Pylône autostable"; 25.0;"BOUYGUES"
1649546;2.91167;42.57528;"02° 54' 42.00'' Est, 42° 34' 31.00'' Nord";"66026";"LAS MILLERES";"STATION D'EPURATION";"66620";"BROUILLA";"Pylône autostable"; 30.0;"CELLNEX"
1649556;2.87861;42.69444;"02° 52' 43.00'' Est, 42° 41' 40.00'' Nord";"66136";;"1 RUE AUGUSTIN FRESNEL RESIDENCE LE FRESNEL";"66000";"PERPIGNAN";"Immeuble"; 27.0;"Copropriété, Syndic, SCI"
1650894;2.09500;42.61194;"02° 05' 42.00'' Est, 42° 36' 43.00'' Nord";"66082";"LA DEVEZE";;"66210";"FORMIGUERES";"Pylône autostable"; 32.5;"ATC FRANCE"
1653827;2.88611;42.68667;"02° 53' 10.00'' Est, 42° 41' 12.00'' Nord";"66136";;"ALLÉE DE BACCHUS";"66000";"PERPIGNAN";"Pylône autostable"; 36.0;"ORANGE"
1655946;3.03361;42.68444;"03° 02' 01.00'' Est, 42° 41' 04.00'' Nord";"66037";;"132 BD HIPPOLYTE TIXADOR HÔTEL LE RÉGINA";"66140";"CANET-EN-ROUSSILLON";"Bâtiment"; 21.0;"Copropriété, Syndic, SCI"
1659956;2.18944;42.51361;"02° 11' 22.00'' Est, 42° 30' 49.00'' Nord";"66080";"LIOU";"N 116";"66360";"FONTPEDROUSE";"Pylône autostable"; 28.0;"CELLNEX"
1659971;2.88361;42.79806;"02° 53' 01.00'' Est, 42° 47' 53.00'' Nord";"66164";;"AVENUE GUSTAVE EIFFEL ENTREPRISE PACAR";"66600";"RIVESALTES";"Pylône tubulaire"; 21.0;"ATC FRANCE"
1663220;3.09167;42.52389;"03° 05' 30.00'' Est, 42° 31' 26.00'' Nord";"66053";;"ROUTE IMPÉRIALE";"66190";"COLLIOURE";"Mât métallique"; 10.0;"Société Privée SA"
1663293;2.89361;42.69833;"02° 53' 37.00'' Est, 42° 41' 54.00'' Nord";"66136";;"13 RUE DE L'ANGE";"66000";"PERPIGNAN";"Immeuble"; 30.0;"Copropriété, Syndic, SCI"
1663297;3.04639;42.55250;"03° 02' 47.00'' Est, 42° 33' 09.00'' Nord";"66008";;"RUE DES ALOES HOTEL AL PESCADOU";"66700";"ARGELES-SUR-MER";"Immeuble"; 17.7;"Société Privée SA"
1666359;2.96778;42.57528;"02° 58' 04.00'' Est, 42° 34' 31.00'' Nord";"66133";"MAS SAIS";"RTE D'ELNE TERRAIN DE SPORT";"66690";"PALAU-DEL-VIDRE";"Pylône autostable"; 26.7;"CELLNEX"
1667737;2.98444;42.63722;"02° 59' 04.00'' Est, 42° 38' 14.00'' Nord";"66002";;"RUE FRANCINE SABATE STADE ALENYA";"66200";"ALENYA";"Pylône autostable"; 22.0;"SFR"
1667825;2.85722;42.64000;"02° 51' 26.00'' Est, 42° 38' 24.00'' Nord";"66144";;"AV. DE CANOHES RÉSERVOIR COMMUNAL";"66450";"POLLESTRES";"Pylône autostable"; 23.0;"CELLNEX"
1668276;2.87222;42.68222;"02° 52' 20.00'' Est, 42° 40' 56.00'' Nord";"66136";;"9 RUE JOSEPH CUGNOT";"66000";"PERPIGNAN";"Pylône autostable"; 26.0;"IFW-FREE"
1671847;2.01556;42.53528;"02° 00' 56.00'' Est, 42° 32' 07.00'' Nord";"66124";"ROC DE LA CALMA";"TELESIEGE DU ROC";"66120";"FONT-ROMEU-ODEILLO-VIA";"Pylône autostable"; 12.0;"BOUYGUES"
1672510;2.96222;42.65556;"02° 57' 44.00'' Est, 42° 39' 20.00'' Nord";"66189";"LA COLOMINA DE CANET";;"66280";"SALEILLES";"Pylône tubulaire"; 29.0;"ATC FRANCE"
1674293;3.08111;42.52389;"03° 04' 52.00'' Est, 42° 31' 26.00'' Nord";"66053";;"RUE DE LA TOURETTE RÉSIDENCE BAIE DU GRAND BLEU";"66190";"COLLIOURE";"Immeuble"; 16.3;"Copropriété, Syndic, SCI"
1680522;1.82222;42.53944;"01° 49' 20.00'' Est, 42° 32' 22.00'' Nord";"66146";;"TUNNEL DU PUYMORENS PYLONE PLATEFORME P O";"66760";"PORTA";"Pylône autostable"; 20.0;"Sociétés d'Autoroutes"
1682390;2.87778;42.69667;"02° 52' 40.00'' Est, 42° 41' 48.00'' Nord";"66136";;"2 RUE PASCAL MARIE AGASSE";"66000";"PERPIGNAN";"Mât"; 35.4;"Copropriété, Syndic, SCI"
1685111;2.89722;42.64250;"02° 53' 50.00'' Est, 42° 38' 33.00'' Nord";"66227";"MAS AZIDRET";"LES DEVESES D39";"66180";"VILLENEUVE-DE-LA-RAHO";"Pylône autostable"; 29.9;"ATC FRANCE"
1685813;2.88611;42.68806;"02° 53' 10.00'' Est, 42° 41' 17.00'' Nord";"66136";;"16 ALLÉE BACCHUS OPHLM DES PYRÉNÉES ORIENTALES";"66000";"PERPIGNAN";"Immeuble"; 24.0;"Société HLM"
1685821;2.89750;42.70167;"02° 53' 51.00'' Est, 42° 42' 06.00'' Nord";"66136";;"8  R ELIE DELCROS";"66000";"PERPIGNAN";"Immeuble"; 27.0;"Copropriété, Syndic, SCI"
1685872;2.90083;42.71444;"02° 54' 03.00'' Est, 42° 42' 52.00'' Nord";"66136";;"CHEM DEL VIVES RÉSIDENCE DEL VIVES - BÂT. 4D";"66000";"PERPIGNAN";"Immeuble"; 26.0;"Société HLM"
1686528;2.90778;42.68667;"02° 54' 28.00'' Est, 42° 41' 12.00'' Nord";"66136";;"170 AV GUYNEMER HÔTEL EOLIENNE";"66000";"PERPIGNAN";"Immeuble"; 25.1;"Société Privée SA"
1686533;2.87528;42.70722;"02° 52' 31.00'' Est, 42° 42' 26.00'' Nord";"66136";"HORTS DE ST ESTÈVE";;"66000";"PERPIGNAN";"Pylône autostable"; 28.0;"HIVORY"
