Numéro du support;Longitude;Latitude;"Position";"Insee";"Lieu dit";"Adresse";"Code postal";"Commune";"Nature du support";Hauteur en m;"Propriétaire"
15222;7.45139;47.87056;"07° 27' 05.00'' Est, 47° 52' 14.00'' Nord";"68225";"R DE LA CHAPELLE";;"68740";"MUNCHHOUSE";"Pylône tubulaire"; 13.0;"ORANGE Services Fixes"
36929;7.16667;47.71750;"07° 10' 00.00'' Est, 47° 43' 03.00'' Nord";"68059";;"14, R DE LA CROIX";"68520";"BURNHAUPT-LE-BAS";"Silo"; 30.0;"Société Privée SA"
36993;7.29778;47.51111;"07° 17' 52.00'' Est, 47° 30' 40.00'' Nord";"68347";;"RTE DE FELDBACH SILO C.A.C";"68480";"VIEUX-FERRETTE";"Silo"; 40.6;"Société Privée SA"
37057;7.23000;47.79694;"07° 13' 48.00'' Est, 47° 47' 49.00'' Nord";"68375";;"R DE REININGUE CHÂTEAU D'EAU";"68310";"WITTELSHEIM";"Château d'eau - réservoir"; 44.5;"Syndicat des eaux, Adduction"
37063;7.27778;48.10194;"07° 16' 40.00'' Est, 48° 06' 07.00'' Nord";"68237";"SOMMERBERG";;"68230";"NIEDERMORSCHWIHR";"Mât"; 7.0;"SFR"
37087;7.23083;48.09944;"07° 13' 51.00'' Est, 48° 05' 58.00'' Nord";"68237";"HOTEL MAJESTIC";"SENTIER DE LA FORÊT";"68230";"NIEDERMORSCHWIHR";"Bâtiment"; 16.0;"Société Privée SA"
37129;7.28722;47.65472;"07° 17' 14.00'' Est, 47° 39' 17.00'' Nord";"68191";;"1 R DE LEGLISE";"68720";"LUEMSCHWILLER";"Bâtiment"; 20.0;"Commune, communauté de commune"
64171;7.38000;47.80139;"07° 22' 48.00'' Est, 47° 48' 05.00'' Nord";"68015";;"R DE L'EGLISE";"68390";"BALDERSHEIM";"Monument religieux"; 27.0;"Commune, communauté de commune"
82896;7.22278;48.25833;"07° 13' 22.00'' Est, 48° 15' 30.00'' Nord";"68294";"ROCHE ST BLAISE";;"68160";"SAINTE-CROIX-AUX-MINES";"Pylône autostable"; 17.0;"TDF"
94345;7.31389;47.75694;"07° 18' 50.00'' Est, 47° 45' 25.00'' Nord";"68224";;"25, R JOSUÉ HOFER";"68100";"MULHOUSE";"Mât métallique"; 15.0;"Titulaire programme Radio/TV"
97962;6.85889;47.80639;"06° 51' 32.00'' Est, 47° 48' 23.00'' Nord";"68307";;"RTE DU BALLON D'ALSACE AUBERGE DU LANGENBERG";"68290";"SEWEN";"Bâtiment"; 12.0;
102130;7.22861;48.19806;"07° 13' 43.00'' Est, 48° 11' 53.00'' Nord";"68014";"LE MUESBERG";"CTRE DE RÉADAPTATION FONCTIONNELLE";"68150";"AUBURE";"Immeuble"; 33.0;"Etablissement de soins"
102152;7.43500;47.61778;"07° 26' 06.00'' Est, 47° 37' 04.00'' Nord";"68160";;"60 R DE L'EGLISE";"68510";"KAPPELEN";"Immeuble"; 16.0;"Commune, communauté de commune"
118046;7.12833;47.96389;"07° 07' 42.00'' Est, 47° 57' 50.00'' Nord";"68188";"SCHNAPSACKER";;"68610";"LINTHAL";"Bâtiment"; 5.0;
118050;7.22306;48.19611;"07° 13' 23.00'' Est, 48° 11' 46.00'' Nord";"68014";;"R DES PINS AUBURE CENTRAL TÉLÉPHONIQUE";"68150";"AUBURE";"Pylône autostable"; 14.0;"ORANGE Services Fixes"
118080;7.20722;48.17333;"07° 12' 26.00'' Est, 48° 10' 24.00'' Nord";"68097";"LE KALBLIN";;"68240";"FRELAND";"Pylône autostable"; 12.0;"ORANGE Services Fixes"
132331;6.96500;47.92889;"06° 57' 54.00'' Est, 47° 55' 44.00'' Nord";"68171";"R NOIRE";"CENTRAL TELE¦PHONIQUE";"68820";"KRUTH";"Bâtiment"; 9.0;"ORANGE Services Fixes"
133172;7.01278;47.75250;"07° 00' 46.00'' Est, 47° 45' 09.00'' Nord";"68201";"ALLEMEND";"RSVOIR D' EAU";"68290";"MASEVAUX";"Pylône autostable"; 41.0;"TDF"
133681;7.33861;47.85861;"07° 20' 19.00'' Est, 47° 51' 31.00'' Nord";"68082";;"R DE PULVERSHEIM";"68190";"ENSISHEIM";"Immeuble"; 25.0;"Particulier"
143268;7.26972;47.85333;"07° 16' 11.00'' Est, 47° 51' 12.00'' Nord";"68088";;"9 R DU PEUPLIER";"68540";"FELDKIRCH";"Bâtiment"; 11.0;"ORANGE Services Fixes"
164078;7.39611;47.80361;"07° 23' 46.00'' Est, 47° 48' 13.00'' Nord";"68015";"SABLIERE";"25 R DE BALDERSHEIM SABLIERE";"68390";"BALDERSHEIM";"Bâtiment"; 15.0;"Société Privée SA"
164080;7.49944;47.61028;"07° 29' 58.00'' Est, 47° 36' 37.00'' Nord";"68042";;"R DE L INDUSTRIE";"68730";"BLOTZHEIM";"Bâtiment"; 10.0;"Société Privée SA"
171028;7.52278;47.60806;"07° 31' 22.00'' Est, 47° 36' 29.00'' Nord";"68297";;"AEROPORT BALE MULHOUSE";"68300";"SAINT-LOUIS";"Support non décrit"; 10.0;
197324;7.23694;47.90167;"07° 14' 13.00'' Est, 47° 54' 06.00'' Nord";"68156";"LE FLORIVAL";"RUE DE GUEBWILLER";"68500";"ISSENHEIM";"Château d'eau - réservoir"; 40.0;"Syndicat des eaux, Adduction"
197354;7.30944;47.78500;"07° 18' 34.00'' Est, 47° 47' 06.00'' Nord";"68166";;"150 R DE PFASTATT";"68260";"KINGERSHEIM";"Bâtiment"; 30.0;"Société Privée SA"
225629;7.22056;47.79083;"07° 13' 14.00'' Est, 47° 47' 27.00'' Nord";"68375";"HAERTHLE";"BOIS COMMUNAL";"68310";"WITTELSHEIM";"Pylône autostable"; 30.0;"ORANGE"
244928;7.34139;47.75111;"07° 20' 29.00'' Est, 47° 45' 04.00'' Nord";"68224";;"2 R D'ANVERS";"68100";"MULHOUSE";"Immeuble"; 46.0;"Société Privée SA"
246070;7.38194;47.82056;"07° 22' 55.00'' Est, 47° 49' 14.00'' Nord";"68022";;"R PRINCIPALE R DE RUELISHEIM EGILSE";"68390";"BATTENHEIM";"Monument religieux"; 24.0;"Commune, communauté de commune"
273903;7.43750;47.67028;"07° 26' 15.00'' Est, 47° 40' 13.00'' Nord";"68309";;"CHEME RURAL DIT GEISPITZEN VIEHWEG RN 66";"68510";"SIERENTZ";"Pylône autostable"; 53.0;"SFR"
284075;7.09917;47.90056;"07° 05' 57.00'' Est, 47° 54' 02.00'' Nord";"68178";"LE-GRAND-BALLON";"LE GRAND BALLON";"68610";"LAUTENBACHZELL";"Tour hertzienne"; 15.0;
293388;7.30250;47.75056;"07° 18' 09.00'' Est, 47° 45' 02.00'' Nord";"68224";;"4 R DES VERRIERS";"68100";"MULHOUSE";"Immeuble"; 26.0;"Copropriété, Syndic, SCI"
303147;7.53750;48.01056;"07° 32' 15.00'' Est, 48° 00' 38.00'' Nord";"68352";;"R DU POURQUOI-PAS";"68600";"VOLGELSHEIM";"Support non décrit";;
305741;7.35722;47.75861;"07° 21' 26.00'' Est, 47° 45' 31.00'' Nord";"68224";;"EGLISE ST JEAN BOSCO 5 R DU 57È RÉGIMENT DE TRANSMISSIONS";"68100";"MULHOUSE";"Monument religieux"; 41.0;"Association"
306818;7.33694;48.07778;"07° 20' 13.00'' Est, 48° 04' 40.00'' Nord";"68066";;"30-32 AV DE LA LIBERTÉ RÉSIDENCE PLEIN CIEL RUE DR. ALBERT SCHWEITZER";"68000";"COLMAR";"Immeuble"; 24.0;"Copropriété, Syndic, SCI"
322873;6.99861;47.77500;"06° 59' 55.00'' Est, 47° 46' 30.00'' Nord";"68201";;"4 ROUTE JOFFRE CENTRAL TÉLÉPHONIQUE MASEVAUX";"68290";"MASEVAUX";"Pylône autostable"; 12.0;"ORANGE Services Fixes"
323375;7.50694;47.55528;"07° 30' 25.00'' Est, 47° 33' 19.00'' Nord";"68126";;"R DE WENTZWILLER";"68220";"HEGENHEIM";"Pylône autostable"; 22.0;"ORANGE"
326712;7.10222;47.90472;"07° 06' 08.00'' Est, 47° 54' 17.00'' Nord";"68229";"GRAND BALLON";"HÔTEL CLUB VOSGIEN  MURBACH/GRAND BALLON";"68530";"MURBACH";"Bâtiment"; 12.0;"Association"
337578;7.31000;48.13889;"07° 18' 36.00'' Est, 48° 08' 20.00'' Nord";"68310";;"CHEM RURAL DIT DE LA NÉCROPOLE";"68240";"SIGOLSHEIM";"Pylône tubulaire"; 6.0;"Titulaire programme Radio/TV"
338133;7.34222;48.07361;"07° 20' 32.00'' Est, 48° 04' 25.00'' Nord";"68066";;"1 R DE SOULTZ";"68000";"COLMAR";"Bâtiment"; 18.0;"Copropriété, Syndic, SCI"
340458;7.25667;47.78806;"07° 15' 24.00'' Est, 47° 47' 17.00'' Nord";"68270";"ROUTE DE MULHOUSE";;"68120";"RICHWILLER";"Bâtiment"; 18.0;
346288;7.56278;48.04083;"07° 33' 46.00'' Est, 48° 02' 27.00'' Nord";"68352";;"R DU PORT RHÉNAN ZI.";"68600";"VOLGELSHEIM";"Bâtiment"; 23.0;
348100;7.37194;48.07528;"07° 22' 19.00'' Est, 48° 04' 31.00'' Nord";"68066";;"31 R DES JARDINS";"68000";"COLMAR";"Immeuble"; 22.0;"Société Privée SA"
349583;7.30972;47.75000;"07° 18' 35.00'' Est, 47° 45' 00.00'' Nord";"68224";;"18, R DE THANN";"68100";"MULHOUSE";"Bâtiment"; 15.0;"TDF"
354467;7.37528;48.09444;"07° 22' 31.00'' Est, 48° 05' 40.00'' Nord";"68066";;"160  R. DU LADHOF Z.I. EST";"68000";"COLMAR";"Pylône tubulaire"; 27.0;"ORANGE"
363855;7.40722;47.75028;"07° 24' 26.00'' Est, 47° 45' 01.00'' Nord";"68278";;"1 R DE MULHOUSE";"68170";"RIXHEIM";"Bâtiment"; 15.0;"Particulier"
416969;6.94389;47.80750;"06° 56' 38.00'' Est, 47° 48' 27.00'' Nord";"68239";;"R PRINCIPALE CENTRAL TÉLÉPHONIQUE";"68290";"OBERBRUCK";"Pylône tubulaire"; 10.0;"ORANGE Services Fixes"
418705;7.52667;47.60389;"07° 31' 36.00'' Est, 47° 36' 14.00'' Nord";"68297";;"AEROPORT DE BALE MULHOUSE";"68300";"SAINT-LOUIS";"Bâtiment"; 25.0;
420285;7.19222;48.25083;"07° 11' 32.00'' Est, 48° 15' 03.00'' Nord";"68298";;"AV ROBERT ZELLER CENTRAL TÉLÉPHONIQUE";"68160";"SAINTE-MARIE-AUX-MINES";"Bâtiment"; 15.0;"ORANGE Services Fixes"
425581;7.33917;47.74833;"07° 20' 21.00'' Est, 47° 44' 54.00'' Nord";"68224";;"52 R SAUVAGE";"68100";"MULHOUSE";"Immeuble"; 25.0;"Copropriété, Syndic, SCI"
428591;7.13417;47.85167;"07° 08' 03.00'' Est, 47° 51' 06.00'' Nord";"68359";;"LE MOLKENRAIN";"68700";"WATTWILLER";"Pylône autostable"; 20.0;
435137;7.36278;48.06417;"07° 21' 46.00'' Est, 48° 03' 51.00'' Nord";"68066";;"83 RTE DE BÂLE HÔTEL LES MARAICHERS";"68000";"COLMAR";"Immeuble"; 16.0;"Particulier"
435282;7.13278;47.85167;"07° 07' 58.00'' Est, 47° 51' 06.00'' Nord";"68342";"LE MOLKENRAIN";"REFUGE AMIS DE LA NATURE";"68700";"UFFHOLTZ";"Bâtiment"; 10.0;"Association"
435369;7.18528;47.81667;"07° 11' 07.00'' Est, 47° 49' 00.00'' Nord";"68342";;"R DES SEIGNEUS RD 431";"68700";"UFFHOLTZ";"Pylône autostable"; 32.0;"SFR"
435503;7.06972;47.84472;"07° 04' 11.00'' Est, 47° 50' 41.00'' Nord";"68372";;"10 R DE LA GRANDE ARMÉE CENTRAL TÉLÉPHONIQUE";"68760";"WILLER-SUR-THUR";"Bâtiment"; 6.0;"ORANGE Services Fixes"
435506;7.23167;48.10111;"07° 13' 54.00'' Est, 48° 06' 04.00'' Nord";"68005";"PL MARCEL RIVIERE";"TROIS EPIS";"68410";"AMMERSCHWIHR";"Bâtiment"; 18.0;"Société Privée SA"
435592;7.04694;47.87389;"07° 02' 49.00'' Est, 47° 52' 26.00'' Nord";"68102";"HOCHBERG";"R DU RELAIS";"68690";"GEISHOUSE";"Pylône autostable"; 48.0;"TDF"
435728;7.22861;48.10083;"07° 13' 43.00'' Est, 48° 06' 03.00'' Nord";"68005";"CHEM DE LA ROCHE DU CORBEAU";"CENTRAL TÉLÉPHONIQUE LES TROIS ÉPIS";"68410";"AMMERSCHWIHR";"Pylône tubulaire"; 18.0;"ORANGE Services Fixes"
435882;7.17722;47.80278;"07° 10' 38.00'' Est, 47° 48' 10.00'' Nord";"68063";;"R DE WITTELSHEIM CENTRAL TÉLÉPHONIQUE";"68700";"CERNAY";"Pylône autostable"; 39.0;"ORANGE Services Fixes"
435888;7.34472;47.91472;"07° 20' 41.00'' Est, 47° 54' 53.00'' Nord";"68205";"UNTERE MUHL";"RTE DE MERXHEIM PRÈS D3B";"68890";"MEYENHEIM";"Château d'eau - réservoir"; 45.3;"Syndicat des eaux, Adduction"
435908;7.21694;47.91167;"07° 13' 01.00'' Est, 47° 54' 42.00'' Nord";"68112";"PRES DE LA ROCHE";"PYLÔNE FT";"68500";"GUEBWILLER";"Pylône autostable"; 16.3;"Commune, communauté de commune"
436655;7.36972;48.10139;"07° 22' 11.00'' Est, 48° 06' 05.00'' Nord";"68066";;"4 R EMILE SCHWOERER";"68000";"COLMAR";"Immeuble"; 22.8;"Société Privée SA"
436700;7.40139;48.08000;"07° 24' 05.00'' Est, 48° 04' 48.00'' Nord";"68145";"HOLZMATT AUF ZIEGELSCHEUER";"RTE DE MARCKOLSHEIM CD N°11 CHÂTEAU D'EAU";"68180";"HORBOURG-WIHR";"Château d'eau - réservoir"; 46.2;"Commune, communauté de commune"
436992;7.06778;47.83778;"07° 04' 04.00'' Est, 47° 50' 16.00'' Nord";"68372";"STIMPFLERAIN";"STATION DE TÉLÉDISTRIBUTION";"68760";"WILLER-SUR-THUR";"Pylône autostable"; 35.6;"Commune, communauté de commune"
437050;7.31028;47.75083;"07° 18' 37.00'' Est, 47° 45' 03.00'' Nord";"68224";;"10 R DU TARN";"68100";"MULHOUSE";"Immeuble"; 35.0;"Société HLM"
437494;7.25556;47.91250;"07° 15' 20.00'' Est, 47° 54' 45.00'' Nord";"68029";"THALAECKER";"C.D. N°5 TERRAIN AGRICOLE";"68500";"BERGHOLTZ";"Pylône autostable"; 42.0;"ORANGE"
438419;7.36944;48.04028;"07° 22' 10.00'' Est, 48° 02' 25.00'' Nord";"68295";"GOLLENWEIHER";"FRONHIZ - PRÈS A 35";"68127";"SAINTE-CROIX-EN-PLAINE";"Pylône autostable"; 49.0;"FPS TOWERS"
439151;7.50000;47.68861;"07° 30' 00.00'' Est, 47° 41' 19.00'' Nord";"68163";;"8 R DE LA SCHLIERBACH";"68680";"KEMBS";"Château d'eau - réservoir"; 40.0;"Commune, communauté de commune"
439292;7.40778;47.69389;"07° 24' 28.00'' Est, 47° 41' 38.00'' Nord";"68072";"GROSSBERG";"CHEM RURAL DIT NIEDERBERGASSE";"68440";"DIETWILLER";"Pylône autostable"; 36.0;"ORANGE"
439375;7.19944;47.87722;"07° 11' 58.00'' Est, 47° 52' 38.00'' Nord";"68381";"HUETTENBURG";"CH DU ROETE RHEIN";"68500";"WUENHEIM";"Pylône autostable"; 30.0;"SFR"
439471;7.36417;48.08278;"07° 21' 51.00'' Est, 48° 04' 58.00'' Nord";"68066";;"8 RTE DE SELESTAT LA TOUR DU STADE";"68000";"COLMAR";"Bâtiment"; 59.0;"Copropriété, Syndic, SCI"
439474;7.31056;48.06389;"07° 18' 38.00'' Est, 48° 03' 50.00'' Nord";"68374";;"90 R TIEFENBACH";"68124";"WINTZENHEIM";"Pylône autostable"; 30.0;"ORANGE"
439559;7.28056;47.45139;"07° 16' 50.00'' Est, 47° 27' 05.00'' Nord";"68373";"SOMMET DU GLASERSBERG";;"68480";"WINKEL";"Pylône autostable"; 45.0;"Commune, communauté de commune"
439836;7.22306;47.61194;"07° 13' 23.00'' Est, 47° 36' 43.00'' Nord";"68004";"HALSWEG";"ROUTE D'HIRTZBACH STATION HERTZIENNE";"68130";"ALTKIRCH";"Pylône autostable"; 57.0;"ORANGE Services Fixes"
439883;7.49778;47.61000;"07° 29' 52.00'' Est, 47° 36' 36.00'' Nord";"68042";"MATTWEG";"R DE L'INDUSTRIE TP3F";"68730";"BLOTZHEIM";"Pylône autostable"; 40.0;"ORANGE"
441622;7.20889;47.90861;"07° 12' 32.00'' Est, 47° 54' 31.00'' Nord";"68112";;"R DU REMPART CENTRAL TÉLÉPHONIQUE";"68500";"GUEBWILLER";"Bâtiment"; 28.0;"ORANGE Services Fixes"
442046;7.36250;48.09333;"07° 21' 45.00'' Est, 48° 05' 36.00'' Nord";"68066";"KLEINES THEINHEINMER FELD";"7 AV JOSEPH REY";"68000";"COLMAR";"Bâtiment"; 44.0;"SDIS, secours, incendie"
442126;7.44694;47.88806;"07° 26' 49.00'' Est, 47° 53' 17.00'' Nord";"68140";"DIEBSWEG";"CARREFOUR D8-D50";"68740";"HIRTZFELDEN";"Château d'eau - réservoir"; 36.0;"Syndicat des eaux, Adduction"
442598;6.95444;47.92417;"06° 57' 16.00'' Est, 47° 55' 27.00'' Nord";"68171";"LE FRENZ";"RTE DU FRENZ";"68820";"KRUTH";"Pylône autostable"; 41.0;"ORANGE"
442654;7.34889;47.72972;"07° 20' 56.00'' Est, 47° 43' 47.00'' Nord";"68224";"BELVEDÈRE";"21 R DE LA PÉPINIÈRE";"68100";"MULHOUSE";"Pylône autostable"; 195.0;"TDF"
442871;7.50361;47.63667;"07° 30' 13.00'' Est, 47° 38' 12.00'' Nord";"68021";"BLEIRAIN";"CH D'EAU";"68870";"BARTENHEIM";"Château d'eau - réservoir"; 39.4;"Syndicat des eaux, Adduction"
442889;7.45444;47.65444;"07° 27' 16.00'' Est, 47° 39' 16.00'' Nord";"68309";;"R POINCARE EGLISE";"68510";"SIERENTZ";"Monument religieux"; 41.6;"Commune, communauté de commune"
443227;7.36167;48.07444;"07° 21' 42.00'' Est, 48° 04' 28.00'' Nord";"68066";;"4 R DE LA TRUITE";"68000";"COLMAR";"Immeuble"; 23.1;"Société HLM"
443253;7.34278;48.06667;"07° 20' 34.00'' Est, 48° 04' 00.00'' Nord";"68066";;"RTE DE ROUFFACH SNCF FRET";"68000";"COLMAR";"Pylône autostable"; 26.0;"ORANGE"
443648;7.26944;47.73722;"07° 16' 10.00'' Est, 47° 44' 14.00'' Nord";"68218";;"R MOULIN EGLISE";"68790";"MORSCHWILLER-LE-BAS";"Monument religieux"; 42.0;"Commune, communauté de commune"
443660;7.36861;47.74389;"07° 22' 07.00'' Est, 47° 44' 38.00'' Nord";"68271";;"4-6  R DE LA VERDURE";"68400";"RIEDISHEIM";"Immeuble"; 30.0;"Commune, communauté de commune"
443829;7.20944;47.44528;"07° 12' 34.00'' Est, 47° 26' 43.00'' Nord";"68181";"FÔRET DE LA MONTAGNE";;"68480";"LEVONCOURT";"Pylône autostable"; 47.0;"Commune, communauté de commune"
444137;7.16167;48.26694;"07° 09' 42.00'' Est, 48° 16' 01.00'' Nord";"68294";;"TUNNEL MAURICE LEMAIRE NIVEAU GR10.1 PM 2740 POINT MÉTRIQUE 2740 M DEPUIS ENTRÉE COTÉ STE MARIE";"68160";"SAINTE-CROIX-AUX-MINES";"Tunnel"; 8.0;"Sociétés d'Autoroutes"
445355;7.31833;48.19167;"07° 19' 06.00'' Est, 48° 11' 30.00'' Nord";"68269";;"12 R FRIEDRICH";"68150";"RIBEAUVILLE";"Immeuble"; 21.0;"Société HLM"
446282;7.36167;48.15944;"07° 21' 42.00'' Est, 48° 09' 34.00'' Nord";"68252";;"R DU CHATEAU D'EAU";"68150";"OSTHEIM";"Château d'eau - réservoir"; 41.2;"Syndicat des eaux, Adduction"
448964;7.21139;48.19667;"07° 12' 41.00'' Est, 48° 11' 48.00'' Nord";"68014";"CHAMPS GARPARD";;"68150";"AUBURE";"Pylône autostable"; 12.0;"ORANGE Services Fixes"
449169;7.26639;48.14472;"07° 15' 59.00'' Est, 48° 08' 41.00'' Nord";"68164";"DE SCHWERTZ";"BOIS DE KIENTZHEIM";"68240";"KIENTZHEIM";"Pylône autostable"; 35.0;"TDF"
452358;7.34917;47.77694;"07° 20' 57.00'' Est, 47° 46' 37.00'' Nord";"68154";"BEI DEM ALLMENDWEIDEN";"R DU STADE STADE JOSEPH BIECHLIN";"68110";"ILLZACH";"Pylône autostable"; 37.0;"Commune, communauté de commune"
452449;7.20472;48.16306;"07° 12' 17.00'' Est, 48° 09' 47.00'' Nord";"68097";"HAUTE NOIREGOUTTE";"CHEM RURAL DIT DU CHAT NOIR";"68240";"FRELAND";"Pylône autostable"; 18.0;"SFR"
452453;7.26611;47.82806;"07° 15' 58.00'' Est, 47° 49' 41.00'' Nord";"68321";;"R MARIE LOUISE PROCHE CH D'EAU";"68850";"STAFFELFELDEN";"Pylône autostable"; 40.0;"FPS TOWERS"
455475;7.23556;47.95611;"07° 14' 08.00'' Est, 47° 57' 22.00'' Nord";"68318";"PFINGSTBERG";;"68570";"SOULTZMATT";"Pylône autostable"; 24.0;"FPS TOWERS"
455493;7.30667;47.77611;"07° 18' 24.00'' Est, 47° 46' 34.00'' Nord";"68256";;"R DU COLLÈGE COMPLEXE SPORTIF COSEC";"68120";"PFASTATT";"Pylône autostable"; 27.0;"FPS TOWERS"
456250;7.51639;47.76972;"07° 30' 59.00'' Est, 47° 46' 11.00'' Nord";"68253";"ROTKREUZWEG";"ALTE STOCKETEN 1E ZUG CHÂTEAU D'EAU RD 52";"68490";"OTTMARSHEIM";"Château d'eau - réservoir"; 31.0;"Syndicat des eaux, Adduction"
457946;7.55694;47.59083;"07° 33' 25.00'' Est, 47° 35' 27.00'' Nord";"68297";;"2 R DE LAGARE";"68300";"SAINT-LOUIS";"Immeuble"; 50.0;"Société HLM"
458661;7.27528;47.64389;"07° 16' 31.00'' Est, 47° 38' 38.00'' Nord";"68356";"HAULEN";;"68130";"WALHEIM";"Pylône autostable"; 25.0;"TDF"
458943;7.16083;48.12667;"07° 09' 39.00'' Est, 48° 07' 36.00'' Nord";"68249";"R CHARLES DE GAULLE";;"68370";"ORBEY";"Pylône tubulaire"; 12.0;"ORANGE Services Fixes"
458945;7.19222;48.16972;"07° 11' 32.00'' Est, 48° 10' 11.00'' Nord";"68097";"CHEM RURAL FRELAND";;"68240";"FRELAND";"Bâtiment"; 6.0;"ORANGE Services Fixes"
458947;7.09028;47.71722;"07° 05' 25.00'' Est, 47° 43' 02.00'' Nord";"68313";;"1A R DE L'EGLISE";"68780";"SOPPE-LE-BAS";"Pylône tubulaire"; 12.0;"ORANGE Services Fixes"
458949;7.08806;47.72278;"07° 05' 17.00'' Est, 47° 43' 22.00'' Nord";"68313";"HAULE";;"68780";"SOPPE-LE-BAS";"Pylône autostable"; 12.0;"ORANGE Services Fixes"
460196;7.11111;47.80361;"07° 06' 40.00'' Est, 47° 48' 13.00'' Nord";"68334";;"17 AV ROBERT SCHUMANN";"68800";"THANN";"Immeuble"; 34.0;"Société HLM"
460246;7.51306;47.83333;"07° 30' 47.00'' Est, 47° 50' 00.00'' Nord";"68020";;"RUE DE STRASBOURG D 468";"68490";"BANTZENHEIM";"Château d'eau - réservoir"; 40.0;"Syndicat des eaux, Adduction"
460507;7.19917;48.12111;"07° 11' 57.00'' Est, 48° 07' 16.00'' Nord";"68173";"LE CRAS";;"68910";"LABAROCHE";"Pylône autostable"; 36.0;"ORANGE Services Fixes"
461801;7.26056;47.59472;"07° 15' 38.00'' Est, 47° 35' 41.00'' Nord";"68138";"BAUMGERTENHOLTZ";"R DU ROGGENBERG";"68560";"HIRSINGUE";"Pylône autostable"; 48.3;"TDF"
461981;7.27361;47.73083;"07° 16' 25.00'' Est, 47° 43' 51.00'' Nord";"68218";"GLOCKACKER";;"68790";"MORSCHWILLER-LE-BAS";"Tour hertzienne"; 77.0;"TDF"
462119;7.17361;47.54611;"07° 10' 25.00'' Est, 47° 32' 46.00'' Nord";"68305";"BURGER WALD";"PROCHE DE LA DÉCHARGE MUNICIPALE";"68580";"SEPPOIS-LE-BAS";"Pylône autostable"; 45.3;"SFR"
462713;7.53333;48.10861;"07° 31' 60.00'' Est, 48° 06' 31.00'' Nord";"68009";"NEBEN DER STRASSE";"CHEM DE HALAGE";"68320";"ARTZENHEIM";"Pylône autostable"; 33.0;"TDF"
463754;7.56806;47.58056;"07° 34' 05.00'' Est, 47° 34' 50.00'' Nord";"68297";;"AV DE BÂLE R PHILIPPE KIEFFER EGLISE NOTRE DAME DE LA PAIX";"68300";"SAINT-LOUIS";"Monument religieux"; 45.0;"Association"
464210;7.26667;47.85361;"07° 15' 60.00'' Est, 47° 51' 13.00'' Nord";"68043";;"R LAFER STADE LOUIS BOURDIEU";"68540";"BOLLWILLER";"Pylône autostable"; 34.2;"FPS TOWERS"
465230;7.33583;47.75833;"07° 20' 09.00'' Est, 47° 45' 30.00'' Nord";"68224";;"4 BD DE LA MARSEILLAISE CTRE DE SECOURS - TOUR DE SECHAGE";"68100";"MULHOUSE";"Bâtiment"; 64.0;"SDIS, secours, incendie"
465509;7.33889;47.74778;"07° 20' 20.00'' Est, 47° 44' 52.00'' Nord";"68224";;"27-31 R DU SAUVAGE";"68100";"MULHOUSE";"Bâtiment"; 25.0;"Société Privée SA"
465812;6.94139;47.89250;"06° 56' 29.00'' Est, 47° 53' 33.00'' Nord";"68344";"BRENNWALD";"CHEM DU GUSTIBERG";"68121";"URBES";"Pylône autostable"; 45.0;"TDF"
465818;7.38028;47.81000;"07° 22' 49.00'' Est, 47° 48' 36.00'' Nord";"68022";;"CHEM RURAL DU BALDERSHEIMERWEG CH D'EAU";"68390";"BATTENHEIM";"Château d'eau - réservoir"; 47.0;"Commune, communauté de commune"
466479;7.21694;47.72611;"07° 13' 01.00'' Est, 47° 43' 34.00'' Nord";"68129";"MATTENWEIHER";"CHEM RURAL DIT LOCHMATTENWEG";"68990";"HEIMSBRUNN";"Pylône autostable"; 35.0;"ORANGE"
466931;7.13639;48.04056;"07° 08' 11.00'' Est, 48° 02' 26.00'' Nord";"68226";;"PL DU MARCHÉ  EGLISE PROTESTANTE";"68140";"MUNSTER";"Monument religieux"; 61.0;"Commune, communauté de commune"
467044;7.37444;48.08167;"07° 22' 28.00'' Est, 48° 04' 54.00'' Nord";"68066";;"R DU CANAL PORT DE COLMAR";"68000";"COLMAR";"Pylône autostable"; 83.0;"TDF"
467128;7.30833;47.74611;"07° 18' 30.00'' Est, 47° 44' 46.00'' Nord";"68224";;"1-3 R DE LA FONTAINE RÉS. LA FONTAINE";"68100";"MULHOUSE";"Immeuble"; 20.2;"Copropriété, Syndic, SCI"
468686;7.22444;47.77556;"07° 13' 28.00'' Est, 47° 46' 32.00'' Nord";"68375";"ZA DU HEIDEN-EST";"8 R D'ITALIE STÉ NEGOPLAST";"68310";"WITTELSHEIM";"Pylône tubulaire"; 45.0;"TDF"
474165;7.44889;47.68944;"07° 26' 56.00'' Est, 47° 41' 22.00'' Nord";"68301";"FORET DOMANIALE DE LA HARDT";"PRÉS A35";"68440";"SCHLIERBACH";"Pylône autostable"; 12.5;"BOUYGUES"
474816;7.31667;47.69583;"07° 18' 60.00'' Est, 47° 41' 45.00'' Nord";"68093";"SENTIER DIT HOFACKERPFAD";"R DES BLEUETS";"68720";"FLAXLANDEN";"Pylône haubané"; 32.0;"SFR"
474846;7.18139;48.24639;"07° 10' 53.00'' Est, 48° 14' 47.00'' Nord";"68298";;"5 RES LES GENETS";"68160";"SAINTE-MARIE-AUX-MINES";"Immeuble"; 25.0;"Société HLM"
475781;7.31056;48.16667;"07° 18' 38.00'' Est, 48° 09' 60.00'' Nord";"68277";"PFAFFENBRUNNEN";"R DES PRES";"68340";"RIQUEWIHR";"Pylône autostable"; 30.0;"ORANGE"
476602;7.29667;47.73722;"07° 17' 48.00'' Est, 47° 44' 14.00'' Nord";"68224";;"17 R HENRI MATISSE";"68100";"MULHOUSE";"Immeuble"; 53.6;"Société HLM"
476699;7.31889;47.73333;"07° 19' 08.00'' Est, 47° 44' 00.00'' Nord";"68224";;"BD  CHARLES STOESSEL PISCINE DE L'ILLBERG ET STADE NAUTIQUE";"68100";"MULHOUSE";"Pylône tubulaire"; 42.0;"Commune, communauté de commune"
476725;7.24056;47.61889;"07° 14' 26.00'' Est, 47° 37' 08.00'' Nord";"68004";;"R DU ROGGENBERG TERRAIN DE SPORT DU ROGGENBERG";"68130";"ALTKIRCH";"Pylône autostable"; 45.0;"SFR"
477790;7.22694;47.89750;"07° 13' 37.00'' Est, 47° 53' 51.00'' Nord";"68112";"LES AMIS DES JARDINS";"R DE L'ARTISANAT";"68500";"GUEBWILLER";"Pylône autostable"; 32.0;"TDF"
478080;7.25278;47.43667;"07° 15' 10.00'' Est, 47° 26' 12.00'' Nord";"68190";;"LES HAUTS DE LUCELLE RESERVOIR";"68480";"LUCELLE";"Château d'eau - réservoir"; 21.0;"Particulier"
478086;7.33222;48.07556;"07° 19' 56.00'' Est, 48° 04' 32.00'' Nord";"68066";;"AV DE LA LIBERTE HOP PASTEUR";"68000";"COLMAR";"Bâtiment"; 22.0;"Etablissement de soins"
478605;7.34444;47.72667;"07° 20' 40.00'' Est, 47° 43' 36.00'' Nord";"68224";;"AV DU DR RENE LAENNEC HOP DU MOENCHSBERG";"68100";"MULHOUSE";"Bâtiment"; 39.0;"Etablissement de soins"
478964;7.21944;47.98250;"07° 13' 10.00'' Est, 47° 58' 57.00'' Nord";"68251";"HEIDENBERG";"R DU STADE";"68570";"OSENBACH";"Pylône autostable"; 40.0;"FPS TOWERS"
479260;7.35861;47.75583;"07° 21' 31.00'' Est, 47° 45' 21.00'' Nord";"68224";;"13 R CHALINDREY";"68100";"MULHOUSE";"Immeuble"; 34.0;"Commune, communauté de commune"
479432;7.27667;47.96528;"07° 16' 36.00'' Est, 47° 57' 55.00'' Nord";"68364";"OELBERG";;"68250";"WESTHALTEN";"Pylône autostable"; 44.0;"ORANGE Services Fixes"
479841;7.57833;47.59500;"07° 34' 42.00'' Est, 47° 35' 42.00'' Nord";"68149";;"1 R ROBERT SCHUMANN";"68330";"HUNINGUE";"Immeuble"; 38.8;"Copropriété, Syndic, SCI"
480142;7.33694;47.80361;"07° 20' 13.00'' Est, 47° 48' 13.00'' Nord";"68376";;"54/56 R KINGERSHEIM";"68270";"WITTENHEIM";"Immeuble"; 29.0;"Société HLM"
480148;7.48500;47.53806;"07° 29' 06.00'' Est, 47° 32' 17.00'' Nord";"68120";"LOSGRABEN";;"68220";"HAGENTHAL-LE-BAS";"Pylône autostable"; 41.0;"FPS TOWERS"
481462;7.22556;47.62583;"07° 13' 32.00'' Est, 47° 37' 33.00'' Nord";"68062";;"AV DU 8 ÈME REGIMENT DE HUSSARD CHEM DE FER DE PARIS A BALE PK 473.179";"68130";"CARSPACH";"Pylône tubulaire"; 8.0;"SNCF Réseau"
481466;7.26806;47.67583;"07° 16' 05.00'' Est, 47° 40' 33.00'' Nord";"68152";;"R DE LA GARE";"68720";"ILLFURTH";"Pylône tubulaire"; 13.0;"SNCF Réseau"
481470;7.37306;47.75694;"07° 22' 23.00'' Est, 47° 45' 25.00'' Nord";"68271";;"CHEM DE FER BIFUR. MULHOUSE NORD-BÂLE PK 8.109";"68400";"RIEDISHEIM";"Bâtiment"; 12.0;"SNCF Réseau"
482233;7.25694;47.67639;"07° 15' 25.00'' Est, 47° 40' 35.00'' Nord";"68152";"LÄNGE VIERTEL";"OBERE ALLEMAND D181";"68720";"ILLFURTH";"Pylône tubulaire"; 30.3;"FPS TOWERS"
482975;7.38000;47.75861;"07° 22' 48.00'' Est, 47° 45' 31.00'' Nord";"68154";;"ZWEI NUSSBEAUME R DES MÉCANICIENS ZONE INDUSTRIELLE";"68110";"ILLZACH";"Pylône autostable"; 28.0;"SFR"
483422;7.27583;47.70306;"07° 16' 33.00'' Est, 47° 42' 11.00'' Nord";"68141";;"R GRAND'RUE";"68720";"HOCHSTATT";"Monument religieux"; 42.2;"Commune, communauté de commune"
483477;7.27583;48.26694;"07° 16' 33.00'' Est, 48° 16' 01.00'' Nord";"68185";"RAINCORNE";"FÔRET COMMUNALE";"68660";"LIEPVRE";"Pylône autostable"; 43.0;"ORANGE"
483720;7.41306;47.73778;"07° 24' 47.00'' Est, 47° 44' 16.00'' Nord";"68118";"ALSBURG";"STATION DE POMPAGE";"68440";"HABSHEIM";"Pylône autostable"; 22.0;"SFR"
485481;7.24056;47.62028;"07° 14' 26.00'' Est, 47° 37' 13.00'' Nord";"68004";"ROGGENBERG";"12 R BRÛLEE MAISON DE SANTÉ SPÉCIALISÉE";"68130";"ALTKIRCH";"Bâtiment"; 23.1;"Etat, Ministère"
485568;7.12167;47.77139;"07° 07' 18.00'' Est, 47° 46' 17.00'' Nord";"68012";"KUHWEIHER";;"68700";"ASPACH-LE-HAUT";"Pylône autostable"; 32.5;"FPS TOWERS"
485924;7.06944;48.01722;"07° 04' 10.00'' Est, 48° 01' 02.00'' Nord";"68204";"BURGSTEIN";"R DES SOURCES";"68380";"METZERAL";"Pylône autostable"; 24.0;"ORANGE"
492137;7.34694;48.08194;"07° 20' 49.00'' Est, 48° 04' 55.00'' Nord";"68066";;"PL ST JOSEPH EGLISE";"68000";"COLMAR";"Monument religieux"; 60.0;"Commune, communauté de commune"
492746;7.53639;47.92083;"07° 32' 11.00'' Est, 47° 55' 15.00'' Nord";"68091";"NIEDERFELD STRASSE U LOEWE";"RD 468";"68740";"FESSENHEIM";"Château d'eau - réservoir"; 41.0;"Copropriété, Syndic, SCI"
492786;7.49083;48.08861;"07° 29' 27.00'' Est, 48° 05' 19.00'' Nord";"68345";;"10 RUE DU CHATEAU D'EAU";"68320";"URSCHENHEIM";"Château d'eau - réservoir"; 41.0;"Commune, communauté de commune"
502281;7.35889;48.08417;"07° 21' 32.00'' Est, 48° 05' 03.00'' Nord";"68066";;"3 R FLEISCHHAUER CITÉ ADMINISTRATIVE";"68000";"COLMAR";"Immeuble"; 57.0;"TDF"
502916;7.32639;48.08722;"07° 19' 35.00'' Est, 48° 05' 14.00'' Nord";"68066";;"143 RTE D'INGERSHEIM";"68000";"COLMAR";"Immeuble"; 32.5;"Société HLM"
503522;7.37306;48.21139;"07° 22' 23.00'' Est, 48° 12' 41.00'' Nord";"68028";"AESCHBRUCH";"ETANGS DE PECHE";"68750";"BERGHEIM";"Pylône autostable"; 45.0;"ORANGE"
504536;7.30139;48.04944;"07° 18' 05.00'' Est, 48° 02' 58.00'' Nord";"68078";;"CR DIT WETTOLSHEIMER WEG DOMAINE DES VIGNES";"68420";"EGUISHEIM";"Mât"; 12.0;"ORANGE"
507119;7.53861;48.01222;"07° 32' 19.00'' Est, 48° 00' 44.00'' Nord";"68352";;"R DU POILU";"68600";"VOLGELSHEIM";"Château d'eau - réservoir"; 51.0;"Syndicat des eaux, Adduction"
512442;7.22361;47.66889;"07° 13' 25.00'' Est, 47° 40' 08.00'' Nord";"68319";;"R DE ST BERNARD CHEM DÉPARTEMENTALE 181 CHÂTEAU D'EAU";"68720";"SPECHBACH-LE-BAS";"Château d'eau - réservoir"; 37.1;"Syndicat des eaux, Adduction"
512748;6.96333;47.90472;"06° 57' 48.00'' Est, 47° 54' 17.00'' Nord";"68247";"THALHORN";"CHEM RURAL";"68830";"ODEREN";"Pylône autostable"; 18.0;"TDF"
519050;7.13167;47.71639;"07° 07' 54.00'' Est, 47° 42' 59.00'' Nord";"68059";;"AIRE DE SERVICE DE LA PORTE D'ALSACE  A 36  PYLONE SAPRR";"68520";"BURNHAUPT-LE-BAS";"Pylône autostable"; 45.0;"Sociétés d'Autoroutes"
519163;7.42750;47.94472;"07° 25' 39.00'' Est, 47° 56' 41.00'' Nord";"68037";"LA HARDT";"CHEM D'EXPLOITATION FORÊT COMMUNALE DE BLITZHEIM";"68127";"BILTZHEIM";"Pylône autostable"; 36.0;"ORANGE"
521411;7.15333;47.98417;"07° 09' 12.00'' Est, 47° 59' 03.00'' Nord";"68358";"KALTENBRUNNEN";"REFUGE";"68230";"WASSERBOURG";"Bâtiment"; 6.0;"Société Privée SA"
521413;7.14778;47.97694;"07° 08' 52.00'' Est, 47° 58' 37.00'' Nord";"68358";"BOENLESGRAB";"AUBERGE DU BOENLESGRAB";"68230";"WASSERBOURG";"Bâtiment"; 8.0;"Société Privée SA"
521415;7.22972;48.05722;"07° 13' 47.00'' Est, 48° 03' 26.00'' Nord";"68374";"LA FORGE";"CT - RD 417";"68920";"WINTZENHEIM";"Bâtiment"; 7.0;"ORANGE Services Fixes"
521861;7.13417;48.02222;"07° 08' 03.00'' Est, 48° 01' 20.00'' Nord";"68083";"OBER SOLBERG";;"68140";"ESCHBACH-AU-VAL";"Pylône autostable"; 43.0;"TDF"
525500;7.13417;47.85167;"07° 08' 03.00'' Est, 47° 51' 06.00'' Nord";"68359";"LE MOLKENRAIN";;"68700";"WATTWILLER";"Pylône autostable"; 25.0;"Société Privée SA"
527561;7.16778;48.13694;"07° 10' 04.00'' Est, 48° 08' 13.00'' Nord";"68249";"LA ROCHE DU CHAT NOIR";"CHEM DU PANORAMA";"68370";"ORBEY";"Pylône autostable"; 26.2;"TDF"
529913;7.08139;47.62222;"07° 04' 53.00'' Est, 47° 37' 20.00'' Nord";"68268";"BUCHWALD";"CHEM D'EXPLOITATION";"68210";"RETZWILLER";"Pylône autostable"; 49.0;"TDF"
530464;7.30222;47.73944;"07° 18' 08.00'' Est, 47° 44' 22.00'' Nord";"68224";;"17 R DE LA SINNE";"68050";"MULHOUSE";"Bâtiment"; 25.0;"Particulier"
530623;7.35444;48.08944;"07° 21' 16.00'' Est, 48° 05' 22.00'' Nord";"68066";;"4 R DES GRAVIÈRES";"68000";"COLMAR";"Pylône autostable"; 20.0;"ORANGE"
531476;7.11056;48.17278;"07° 06' 38.00'' Est, 48° 10' 22.00'' Nord";"68044";"CROIX DES MISSIONS";;"68650";"LE BONHOMME";"Pylône autostable"; 18.0;"TDF"
532826;7.35278;48.07139;"07° 21' 10.00'' Est, 48° 04' 17.00'' Nord";"68066";;"AV. JOFFRE/AV. RAYMOND POINCARÉ";"68000";"COLMAR";"Château d'eau - réservoir"; 62.8;"Commune, communauté de commune"
533650;7.34056;47.75000;"07° 20' 26.00'' Est, 47° 45' 00.00'' Nord";"68224";;"3 BD DE L'EUROPE TOUR DE L'EUROPE";"68100";"MULHOUSE";"Immeuble"; 121.0;"Copropriété, Syndic, SCI"
537875;7.17944;48.03583;"07° 10' 46.00'' Est, 48° 02' 09.00'' Nord";"68109";"LE HASENBERG";"R DU HASENBERG";"68140";"GRIESBACH-AU-VAL";"Pylône autostable"; 12.0;"ORANGE"
542691;7.38000;47.62889;"07° 22' 48.00'' Est, 47° 37' 44.00'' Nord";"68382";"TORTELGRUB";;"68130";"ZAESSINGUE";"Pylône autostable"; 35.0;"SFR"
544484;7.26778;47.74556;"07° 16' 04.00'' Est, 47° 44' 44.00'' Nord";"68218";"LAUBER";"A 36";"68790";"MORSCHWILLER-LE-BAS";"Pylône autostable"; 48.0;"Sociétés d'Autoroutes"
547051;7.18194;47.94028;"07° 10' 55.00'' Est, 47° 56' 25.00'' Nord";"68177";"SCHWEIGHOUSE";"RD 40";"68610";"LAUTENBACH";"Pylône autostable"; 46.0;"TDF"
547262;7.00194;47.96833;"07° 00' 07.00'' Est, 47° 58' 06.00'' Nord";"68204";"SCHWEISEL";"FERME SCHWEISEL";"68380";"METZERAL";"Bâtiment"; 8.0;"Particulier"
547264;7.02667;48.03750;"07° 01' 36.00'' Est, 48° 02' 15.00'' Nord";"68329";"PETIT HOHNECK";"REFUGE SCHAEFERTHAL";"68140";"STOSSWIHR";"Bâtiment"; 8.0;"Particulier"
547266;7.02139;48.04333;"07° 01' 17.00'' Est, 48° 02' 36.00'' Nord";"68329";"FRANKENTAL";"FERME FRANKENTAL";"68140";"STOSSWIHR";"Bâtiment"; 8.0;"Particulier"
547577;7.13278;48.06778;"07° 07' 58.00'' Est, 48° 04' 04.00'' Nord";"68142";"HOHRODBERG";;"68140";"HOHROD";"Pylône autostable"; 32.0;"TDF"
549135;7.44639;47.79056;"07° 26' 47.00'' Est, 47° 47' 26.00'' Nord";"68015";"HART";"D39 D'ILLZACH À CHALAMPÉ";"68390";"BALDERSHEIM";"Pylône autostable"; 41.5;"SFR"
549421;7.32361;47.72861;"07° 19' 25.00'' Est, 47° 43' 43.00'' Nord";"68056";;"AV D'ALTKIRCH EGLISE ST ODILE";"68350";"BRUNSTATT";"Monument religieux"; 33.1;"Commune, communauté de commune"
552076;7.13556;47.85361;"07° 08' 08.00'' Est, 47° 51' 13.00'' Nord";"68359";"LE MOLKENRAIN";"FERME AUBERGE";"68700";"WATTWILLER";"Bâtiment"; 10.0;"Particulier"
552078;7.13694;47.85639;"07° 08' 13.00'' Est, 47° 51' 23.00'' Nord";"68359";"LE MOLKENRAIN TU";"REFUGE TRAIT D'UNION";"68700";"WATTWILLER";"Bâtiment"; 6.0;"Particulier"
552080;7.14889;47.85778;"07° 08' 56.00'' Est, 47° 51' 28.00'' Nord";"68359";"COL DU SILBERLOCH";"RESTAURANT DU SILBERLOCH";"68700";"WATTWILLER";"Bâtiment"; 8.0;"Particulier"
552552;7.50778;47.73194;"07° 30' 28.00'' Est, 47° 43' 55.00'' Nord";"68254";"HARTFELD";;"68490";"PETIT-LANDAU";"Pylône autostable"; 25.0;"FPS TOWERS"
553253;7.39889;47.74222;"07° 23' 56.00'' Est, 47° 44' 32.00'' Nord";"68278";;"R DE L'EGLISE";"68170";"RIXHEIM";"Monument religieux"; 43.0;"Commune, communauté de commune"
553615;7.17861;48.16306;"07° 10' 43.00'' Est, 48° 09' 47.00'' Nord";"68175";"CHEM DE RIBEAUGOUTTE";;"68650";"LAPOUTROIE";"Pylône autostable"; 48.0;"TDF"
558960;7.35528;48.08194;"07° 21' 19.00'' Est, 48° 04' 55.00'' Nord";"68066";;"1 PL. SHEURER KESTNER CINÉMA MÉGA CGR";"68000";"COLMAR";"Immeuble"; 13.0;"Société Privée SA"
559254;7.42111;47.44861;"07° 25' 16.00'' Est, 47° 26' 55.00'' Nord";"68380";"MONTAGNE FALKEMELSBERG";;"68480";"WOLSCHWILLER";"Pylône autostable"; 50.0;"TDF"
559555;7.34833;47.86750;"07° 20' 54.00'' Est, 47° 52' 03.00'' Nord";"68082";;"R DU 6 FÉVRIER CENTRAL TÉLÉPHONIQUE";"68190";"ENSISHEIM";"Bâtiment"; 10.0;"ORANGE Services Fixes"
559557;7.12000;47.89167;"07° 07' 12.00'' Est, 47° 53' 30.00'' Nord";"68315";"REFUGE SKI CLUB SOULTZ";"LA FERME DU BALLON";"68360";"SOULTZ-HAUT-RHIN";"Bâtiment"; 8.0;"Particulier"
559559;7.11722;47.89361;"07° 07' 02.00'' Est, 47° 53' 37.00'' Nord";"68315";"POSTE DE SECOURS";"LA FERME DU BALLON";"68360";"SOULTZ-HAUT-RHIN";"Bâtiment"; 8.0;"Particulier"
559561;7.11028;47.89778;"07° 06' 37.00'' Est, 47° 53' 52.00'' Nord";"68315";"REFUGE SKI CLUB ST LOUIS";"LA FERME DU BALLON";"68360";"SOULTZ-HAUT-RHIN";"Bâtiment"; 8.0;"Particulier"
559563;7.11611;47.89278;"07° 06' 58.00'' Est, 47° 53' 34.00'' Nord";"68315";"FERME AUBERGE";"LA FERME DU BALLON";"68360";"SOULTZ-HAUT-RHIN";"Bâtiment"; 8.0;"Particulier"
559565;7.12944;47.97639;"07° 07' 46.00'' Est, 47° 58' 35.00'' Nord";"68188";"MULLERMATT";"REFUGE KOHLER";"68610";"LINTHAL";"Bâtiment"; 12.0;"Particulier"
564004;7.29472;48.23833;"07° 17' 41.00'' Est, 48° 14' 18.00'' Nord";"68335";"HECKENMATT";;"68590";"THANNENKIRCH";"Pylône autostable"; 17.0;"SFR"
567115;7.33194;48.08778;"07° 19' 55.00'' Est, 48° 05' 16.00'' Nord";"68066";"IM ENTLEN";"R DE HUNAWIHR RÉSIDENCE BEL AIR";"68000";"COLMAR";"Immeuble"; 32.5;"SFR"
570387;7.53167;47.59972;"07° 31' 54.00'' Est, 47° 35' 59.00'' Nord";"68297";;"AEROPORT DE BALE MULHOUSE TOUR DE CONTROLE";"68300";"SAINT-LOUIS";"Bâtiment"; 44.0;"Aviation Civile"
570388;7.55722;48.05917;"07° 33' 26.00'' Est, 48° 03' 33.00'' Nord";"68036";"BOIS BOULAY";"ZI DE BIESHEIM  RD 52";"68600";"BIESHEIM";"Château d'eau - réservoir"; 50.0;"Syndicat des eaux, Adduction"
571423;7.53306;48.09611;"07° 31' 59.00'' Est, 48° 05' 46.00'' Nord";"68019";"WUESTE STUCK";"CHÂTEAU D'EAU";"68320";"BALTZENHEIM";"Château d'eau - réservoir"; 45.0;"ORANGE"
571797;7.30806;48.08361;"07° 18' 29.00'' Est, 48° 05' 01.00'' Nord";"68374";"LACH";"2A RTE DE LOGELBACH - PRÈS D.7 POSTE HT RTE DE LOGELBACH STATION TDF";"68124";"WINTZENHEIM";"Pylône autostable"; 49.6;"TDF"
572889;6.93778;47.79194;"06° 56' 16.00'' Est, 47° 47' 31.00'' Nord";"68167";"SPRICKELSBERG";"PYLÔNE TDF";"68290";"KIRCHBERG";"Pylône autostable"; 45.5;"TDF"
574278;7.31694;47.79750;"07° 19' 01.00'' Est, 47° 47' 51.00'' Nord";"68376";;"RUE DE RESEDA CITÉ FERNAND ANNA EGLISE";"68270";"WITTENHEIM";"Monument religieux"; 28.3;"Commune, communauté de commune"
574304;7.27278;48.08444;"07° 16' 22.00'' Est, 48° 05' 04.00'' Nord";"68338";;"QUAI DE LA GARE TERRAIN DE FOOTBALL";"68230";"TURCKHEIM";"Pylône tubulaire"; 30.0;"ORANGE"
576579;7.41667;47.72861;"07° 25' 00.00'' Est, 47° 43' 43.00'' Nord";"68118";;"R DU GÉNÉRAL DE GAULLE EGLISE";"68440";"HABSHEIM";"Monument religieux"; 38.0;"Commune, communauté de commune"
577086;7.33389;47.79056;"07° 20' 02.00'' Est, 47° 47' 26.00'' Nord";"68166";"OBEN AN DER OBEREN BREITE";"11 R DU NOYER R EUGÈNE BEHE";"68260";"KINGERSHEIM";"Immeuble"; 16.0;"Société HLM"
581899;7.32972;47.78083;"07° 19' 47.00'' Est, 47° 46' 51.00'' Nord";"68166";"BOURTZWILLER";"R DE MULHOUSE CH D'EAU";"68260";"KINGERSHEIM";"Château d'eau - réservoir"; 48.0;"Commune, communauté de commune"
584038;7.30500;47.72806;"07° 18' 18.00'' Est, 47° 43' 41.00'' Nord";"68070";;"121 RTE DE DORNACH CENTRALE THERMIQUE D'ILLBERG (INCINÉRATION)";"68350";"DIDENHEIM";"Bâtiment"; 50.0;"Commune, communauté de commune"
584071;7.33083;47.75139;"07° 19' 51.00'' Est, 47° 45' 05.00'' Nord";"68224";;"15 R DE L'ARC";"68100";"MULHOUSE";"Pylône autostable"; 42.0;"ORANGE"
584077;7.34333;47.74389;"07° 20' 36.00'' Est, 47° 44' 38.00'' Nord";"68224";"HENNER";"10 R JEAN JACQUES HENNER";"68100";"MULHOUSE";"Bâtiment"; 43.0;"ORANGE Services Fixes"
584080;7.33556;47.76306;"07° 20' 08.00'' Est, 47° 45' 47.00'' Nord";"68224";;"97 R METZAU PARC DES EXPOSITIONS";"68100";"MULHOUSE";"Pylône autostable"; 40.0;"ORANGE"
584084;7.34583;47.76000;"07° 20' 45.00'' Est, 47° 45' 36.00'' Nord";"68224";;"124 R VAUBAN";"68100";"MULHOUSE";"Immeuble"; 32.0;"Copropriété, Syndic, SCI"
584088;7.31056;47.73500;"07° 18' 38.00'' Est, 47° 44' 06.00'' Nord";"68224";"DORNACH";"3 R FENELON";"68100";"MULHOUSE";"Bâtiment"; 21.0;"Association"
584090;7.29306;47.74750;"07° 17' 35.00'' Est, 47° 44' 51.00'' Nord";"68224";;"1 R EDOUARD BRANLY ZAC MER ROUGE";"68100";"MULHOUSE";"Pylône autostable"; 38.0;"ORANGE"
584092;7.33972;47.73361;"07° 20' 23.00'' Est, 47° 44' 01.00'' Nord";"68224";;"23 AVE DE LA 1 ERE DB";"68100";"MULHOUSE";"Bâtiment"; 25.0;"Etablissement de soins"
584095;7.34833;47.75306;"07° 20' 54.00'' Est, 47° 45' 11.00'' Nord";"68224";;"12 ALLÉE NATHAN KATZ MAISON DU BÂTIMENT";"68100";"MULHOUSE";"Bâtiment"; 28.0;"Copropriété, Syndic, SCI"
584101;7.32056;47.75528;"07° 19' 14.00'' Est, 47° 45' 19.00'' Nord";"68224";;"39 ALLÉE GLUCK EST VIDÉOCOMMUNICATION";"68100";"MULHOUSE";"Bâtiment"; 32.0;"Société Privée SA"
584103;7.33306;47.74611;"07° 19' 59.00'' Est, 47° 44' 46.00'' Nord";"68224";;"7 R DE LA LOI";"68100";"MULHOUSE";"Immeuble"; 18.0;"Particulier"
584105;7.32611;47.75806;"07° 19' 34.00'' Est, 47° 45' 29.00'' Nord";"68224";;"62-64 R FURSTENBERGER";"68100";"MULHOUSE";"Immeuble"; 27.0;"Société HLM"
584107;7.31500;47.74306;"07° 18' 54.00'' Est, 47° 44' 35.00'' Nord";"68224";;"5 R DU TUNNEL RES BALZAC";"68100";"MULHOUSE";"Immeuble"; 22.0;"Copropriété, Syndic, SCI"
584109;7.34611;47.75306;"07° 20' 46.00'' Est, 47° 45' 11.00'' Nord";"68224";;"35/37 BD DE L'EUROPE";"68100";"MULHOUSE";"Immeuble"; 35.2;"Société HLM"
584111;7.33278;47.73472;"07° 19' 58.00'' Est, 47° 44' 05.00'' Nord";"68224";;"87 AV D'ALTKIRCH HÔPITAL DU HASENRAIN";"68100";"MULHOUSE";"Immeuble"; 25.2;"Etablissement de soins"
584129;7.35556;47.74722;"07° 21' 20.00'' Est, 47° 44' 50.00'' Nord";"68224";;"R FRANÇOIS DONAT BLUMSTEIN";"68100";"MULHOUSE";"Pylône autostable"; 30.0;"SFR"
584135;7.34722;47.74306;"07° 20' 50.00'' Est, 47° 44' 35.00'' Nord";"68224";;"8 BD GAMBETTA  SNCF FOYER DES CÉLIBATAIRES";"68100";"MULHOUSE";"Immeuble"; 35.0;"Société HLM"
584137;7.29667;47.73667;"07° 17' 48.00'' Est, 47° 44' 12.00'' Nord";"68224";;"45 R MATHIAS GRUNEWALD IMM HLM";"68100";"MULHOUSE";"Immeuble"; 59.0;"Société HLM"
584139;7.33611;47.75750;"07° 20' 10.00'' Est, 47° 45' 27.00'' Nord";"68224";;"4 BD DE LA MARSEILLAISE CSE DES POMPIERS";"68100";"MULHOUSE";"Immeuble"; 32.1;"SDIS, secours, incendie"
584141;7.32639;47.74861;"07° 19' 35.00'' Est, 47° 44' 55.00'' Nord";"68224";;"35/37 AV ARISTIDE BRIAND  RES ZIERDT";"68100";"MULHOUSE";"Immeuble"; 40.0;"Copropriété, Syndic, SCI"
584143;7.32444;47.74083;"07° 19' 28.00'' Est, 47° 44' 27.00'' Nord";"68224";;"10 QUAI DES CIGOGNES";"68100";"MULHOUSE";"Immeuble"; 39.0;"Société HLM"
584145;7.33389;47.73778;"07° 20' 02.00'' Est, 47° 44' 16.00'' Nord";"68224";;"28 QUAI D'ORAN";"68100";"MULHOUSE";"Immeuble"; 42.0;"Société HLM"
584147;7.33667;47.75361;"07° 20' 12.00'' Est, 47° 45' 13.00'' Nord";"68224";;"45 AV DE COLMAR";"68100";"MULHOUSE";"Immeuble"; 24.0;"Particulier"
586899;7.03083;47.82167;"07° 01' 51.00'' Est, 47° 49' 18.00'' Nord";"68040";"FERME THANNER HUBEL";;"68620";"BITSCHWILLER-LES-THANN";"Bâtiment"; 7.0;"Particulier"
590194;7.07222;48.01306;"07° 04' 20.00'' Est, 48° 00' 47.00'' Nord";"68204";;"R LA GARE CENTRAL TÉLÉPHONIQUE";"68380";"METZERAL";"Bâtiment"; 12.0;"La Poste"
590196;6.98583;47.99389;"06° 59' 09.00'' Est, 47° 59' 38.00'' Nord";"68204";"STEINWASEN";"FERME STEINWASEN";"68380";"METZERAL";"Bâtiment"; 10.0;"Particulier"
590198;7.01139;48.01500;"07° 00' 41.00'' Est, 48° 00' 54.00'' Nord";"68210";"KASTELBERG";"FERME KASTELBERG";"68380";"MITTLACH";"Bâtiment"; 10.0;"Particulier"
591973;7.22389;47.89667;"07° 13' 26.00'' Est, 47° 53' 48.00'' Nord";"68315";;"5 R DU CHEM NOIR";"68360";"SOULTZ-HAUT-RHIN";"Bâtiment"; 17.0;"Titulaire programme Radio/TV"
594451;7.04667;47.87361;"07° 02' 48.00'' Est, 47° 52' 25.00'' Nord";"68217";"HOCHBERG";;"68690";"MOOSCH";"Pylône autostable"; 37.0;"Towercast"
595884;6.96361;47.90444;"06° 57' 49.00'' Est, 47° 54' 16.00'' Nord";"68247";"THALHORN";"CHEM RURAL";"68830";"ODEREN";"Mât"; 9.0;"SFR"
599866;7.11528;48.19278;"07° 06' 55.00'' Est, 48° 11' 34.00'' Nord";"68298";;"COL DES BAGENELLES POSTE SECOURS CHALET SKI";"68160";"SAINTE-MARIE-AUX-MINES";"Bâtiment"; 20.0;"Particulier"
605472;6.97361;47.87111;"06° 58' 25.00'' Est, 47° 52' 16.00'' Nord";"68213";"MAIRIE";"32, PL DU MARÉCHAL DE LATTRE DE TASSIGNY";"68470";"MOLLAU";"Bâtiment"; 10.0;"Commune, communauté de commune"
605474;6.92889;47.89333;"06° 55' 44.00'' Est, 47° 53' 36.00'' Nord";"68344";"GUSTIBERG";"FERME GUSTIBERG";"68121";"URBES";"Bâtiment"; 8.0;"Particulier"
605750;7.12333;47.86333;"07° 07' 24.00'' Est, 47° 51' 48.00'' Nord";"68372";"FREUNDSTEIN";"FERME FREUNDSTEIN";"68760";"WILLER-SUR-THUR";"Bâtiment"; 10.0;"Particulier"
609244;6.92583;47.92750;"06° 55' 33.00'' Est, 47° 55' 39.00'' Nord";"68089";"FELSACH";"FERME FELSACH";"68470";"FELLERING";"Mât"; 7.0;"ORANGE Services Fixes"
610921;7.11556;47.61528;"07° 06' 56.00'' Est, 47° 36' 55.00'' Nord";"68068";"HAGENHOLZ";"RÉSERVOIR D'EAU AU CH. RURAL ALTENACKERW";"68210";"DANNEMARIE";"Pylône autostable"; 42.0;"ORANGE"
612717;7.27611;48.07944;"07° 16' 34.00'' Est, 48° 04' 46.00'' Nord";"68338";"LINKS AM FOLKWEG";"PYLÔNE EDF N° 516";"68230";"TURCKHEIM";"Pylône autostable"; 67.5;"EDF GDF"
620520;6.85056;47.81639;"06° 51' 02.00'' Est, 47° 48' 59.00'' Nord";"68307";"BOEDELE";"REFUGE BOEDELE";"68290";"SEWEN";"Bâtiment"; 8.0;"Particulier"
621053;7.27611;48.26917;"07° 16' 34.00'' Est, 48° 16' 09.00'' Nord";"68185";"LA RAINCORNE";;"68660";"LIEPVRE";"Pylône autostable"; 13.5;"BOUYGUES"
621397;7.12917;47.97611;"07° 07' 45.00'' Est, 47° 58' 34.00'' Nord";"68188";"MULLERMATT";"FERME GROSS";"68610";"LINTHAL";"Bâtiment"; 7.0;"Particulier"
621399;7.14000;47.88861;"07° 08' 24.00'' Est, 47° 53' 19.00'' Nord";"68315";"LE SUDEL";"REFUGE LE SUDEL";"68360";"SOULTZ-HAUT-RHIN";"Bâtiment"; 10.0;"Particulier"
621401;7.13500;47.97333;"07° 08' 06.00'' Est, 47° 58' 24.00'' Nord";"68177";"SCHELLIMATT";"REFUGE DYNAMO";"68610";"LAUTENBACH";"Bâtiment"; 10.0;"Particulier"
622255;6.86056;47.80278;"06° 51' 38.00'' Est, 47° 48' 10.00'' Nord";"68307";"LE GRAND LANGENBERG";"FERME DU GRAND LANGENBERG";"68290";"SEWEN";"Bâtiment"; 8.0;"Particulier"
623583;7.30694;47.77528;"07° 18' 25.00'' Est, 47° 46' 31.00'' Nord";"68256";;"26 R DU COLLÈGE COSEC";"68120";"PFASTATT";"Pylône tubulaire"; 25.8;"Commune, communauté de commune"
625841;7.00417;47.87278;"07° 00' 15.00'' Est, 47° 52' 22.00'' Nord";"68211";;"R BIELACKER";"68470";"MITZACH";"Pylône autostable"; 25.0;"TDF"
625857;7.24056;48.07000;"07° 14' 26.00'' Est, 48° 04' 12.00'' Nord";"68385";;"PRES DE LA FECHT";"68230";"ZIMMERBACH";"Pylône autostable"; 40.0;"TDF"
625868;7.08472;47.82111;"07° 05' 05.00'' Est, 47° 49' 16.00'' Nord";"68040";;"GRUNDEL";"68620";"BITSCHWILLER-LES-THANN";"Mât béton"; 12.0;"TDF"
630592;7.23917;47.62806;"07° 14' 21.00'' Est, 47° 37' 41.00'' Nord";"68004";"CIMENTERIE";;"68130";"ALTKIRCH";"Bâtiment"; 77.0;"Société Privée SA"
630718;7.00389;47.87278;"07° 00' 14.00'' Est, 47° 52' 22.00'' Nord";"68211";;"RUE BIELACKER";"68470";"MITZACH";"Pylône autostable"; 30.0;"Itas Tim"
632591;7.26944;47.76056;"07° 16' 10.00'' Est, 47° 45' 38.00'' Nord";"68195";;"29 R DE THANN";"68460";"LUTTERBACH";"Pylône autostable"; 38.0;"BOUYGUES"
632982;7.18194;47.94056;"07° 10' 55.00'' Est, 47° 56' 26.00'' Nord";"68177";"SCHWEIGHOUSE";"SITE ITAS TIM";"68610";"LAUTENBACH";"Pylône autostable"; 36.0;"Itas Tim"
638315;7.26833;47.73944;"07° 16' 06.00'' Est, 47° 44' 22.00'' Nord";"68218";;"16 R DU MOULIN STADE MUNICIPAL";"68790";"MORSCHWILLER-LE-BAS";"Pylône tubulaire"; 30.0;"ORANGE"
643582;7.16833;48.23167;"07° 10' 06.00'' Est, 48° 13' 54.00'' Nord";"68298";"ECHERY";"CHEM DU RIMPI";"68160";"SAINTE-MARIE-AUX-MINES";"Pylône tubulaire"; 20.0;"SFR"
645343;7.55056;47.59528;"07° 33' 02.00'' Est, 47° 35' 43.00'' Nord";"68297";;"144, R DE MULHOUSE";"68300";"SAINT-LOUIS";"Pylône autostable"; 30.0;"SNCF Réseau"
645345;7.50278;47.81083;"07° 30' 10.00'' Est, 47° 48' 39.00'' Nord";"68020";"RATSCHLAEGLE";"R DE LA GARE";"68490";"BANTZENHEIM";"Pylône autostable"; 30.0;"SNCF Réseau"
645347;7.36222;48.16667;"07° 21' 44.00'' Est, 48° 09' 60.00'' Nord";"68252";"BEIM ALTENBACH";"CHEM RURAL ANCIEN CD 416";"68150";"OSTHEIM";"Pylône autostable"; 25.0;"SNCF Réseau"
645349;7.34333;48.06944;"07° 20' 36.00'' Est, 48° 04' 10.00'' Nord";"68066";"GARE DE TRIAGE";"28, ROUTE DE ROUFFACH";"68000";"COLMAR";"Pylône autostable"; 30.0;"SNCF Réseau"
645353;7.03639;47.62306;"07° 02' 11.00'' Est, 47° 37' 23.00'' Nord";"68215";"BOIS DE LA BOISSE";"LE VERNOIS";"68210";"MONTREUX-VIEUX";"Pylône autostable"; 30.0;"SNCF Réseau"
645355;7.06611;47.63111;"07° 03' 58.00'' Est, 47° 37' 52.00'' Nord";"68192";"PRÈS DES HIÈRES";;"68210";"VALDIEU-LUTRAN";"Pylône autostable"; 30.0;"SNCF Réseau"
645357;7.31139;47.70833;"07° 18' 41.00'' Est, 47° 42' 30.00'' Nord";"68056";"AU ZW STRASSE UND KANAL";"AV D'ALTKIRCH D 432";"68350";"BRUNSTATT";"Pylône autostable"; 30.0;"SNCF Réseau"
645361;7.43278;47.78361;"07° 25' 58.00'' Est, 47° 47' 01.00'' Nord";"68300";;"N°9003 ROUTE DE CHALAMPE";"68390";"SAUSHEIM";"Pylône autostable"; 25.0;"SNCF Réseau"
645363;7.44000;47.68889;"07° 26' 24.00'' Est, 47° 41' 20.00'' Nord";"68301";;"R DE LA GARE ANCIENNE GARE";"68440";"SCHLIERBACH";"Pylône autostable"; 30.0;"SNCF Réseau"
645365;7.46694;47.64861;"07° 28' 01.00'' Est, 47° 38' 55.00'' Nord";"68309";"UFFHEIMER VIEHWEG";;"68510";"SIERENTZ";"Pylône autostable"; 30.0;"SNCF Réseau"
645616;7.29528;47.75250;"07° 17' 43.00'' Est, 47° 45' 09.00'' Nord";"68224";"MUSÉE DU CHEM DE FER";"R DE THANN";"68100";"MULHOUSE";"Pylône autostable"; 30.0;"SNCF Réseau"
647208;7.19389;47.79417;"07° 11' 38.00'' Est, 47° 47' 39.00'' Nord";"68063";"VIEHWEIDE";"R DE L'INDUSTRIE";"68700";"CERNAY";"Pylône autostable"; 25.0;"SNCF Réseau"
647210;7.11556;47.80778;"07° 06' 56.00'' Est, 47° 48' 28.00'' Nord";"68348";"DRACHNENFELS";"ROUTE DÉPARTEMENTALE 35 POSTE ELECTRIQUE";"68800";"VIEUX-THANN";"Pylône autostable"; 12.0;"SNCF Réseau"
649984;7.34028;47.73972;"07° 20' 25.00'' Est, 47° 44' 23.00'' Nord";"68224";;"BD ALFRED WALLACH AV GÉNÉRAL LECLERC";"68100";"MULHOUSE";"Pylône autostable"; 36.0;"SNCF Réseau"
653127;7.34778;47.83194;"07° 20' 52.00'' Est, 47° 49' 55.00'' Nord";"68082";"FOSSHAG";"FORET COMMUNALE";"68190";"ENSISHEIM";"Pylône autostable"; 30.0;"FPS TOWERS"
654697;7.34417;47.72500;"07° 20' 39.00'' Est, 47° 43' 30.00'' Nord";"68224";;"20 AV DR RENE LAENNEC HOP MOENCHSBERG";"68050";"MULHOUSE";"Bâtiment"; 25.0;"Etablissement de soins"
654699;7.33139;47.73389;"07° 19' 53.00'' Est, 47° 44' 02.00'' Nord";"68224";;"87 AV D ALTKIRCH HOP HASENRAIN";"68050";"MULHOUSE";"Bâtiment"; 10.0;"Etablissement de soins"
667883;7.04389;47.63389;"07° 02' 38.00'' Est, 47° 38' 02.00'' Nord";"68192";"LA GOBERIE";"CD 418";"68210";"VALDIEU-LUTRAN";"Pylône autostable"; 39.0;"ORANGE"
672036;7.31139;48.01139;"07° 18' 41.00'' Est, 48° 00' 41.00'' Nord";"68134";"ELSBURG";;"68420";"HERRLISHEIM-PRES-COLMAR";"Pylône autostable"; 12.0;"SFR"
677022;7.06639;48.01750;"07° 03' 59.00'' Est, 48° 01' 03.00'' Nord";"68204";;"CHEM DES SOURCES";"68380";"METZERAL";"Pylône autostable"; 45.0;"SFR"
677090;7.33750;47.74861;"07° 20' 15.00'' Est, 47° 44' 55.00'' Nord";"68224";;"R DES MARECHAUX PARKING DES MARECHAUX";"68100";"MULHOUSE";"Mât métallique"; 2.0;"Société Privée SA"
677096;7.34083;47.75083;"07° 20' 27.00'' Est, 47° 45' 03.00'' Nord";"68224";;"R D ANVERS PARKING PORTE JEUNE";"68100";"MULHOUSE";"Mât métallique"; 2.0;"Société Privée SA"
677102;7.34417;47.74667;"07° 20' 39.00'' Est, 47° 44' 48.00'' Nord";"68224";;"R DE BALE PARKING PORTE DE BALE";"68100";"MULHOUSE";"Mât métallique"; 2.0;"Société Privée SA"
677363;7.08361;48.13694;"07° 05' 01.00'' Est, 48° 08' 13.00'' Nord";"68044";"LA GOUTTE AU RUPT";;"68650";"LE BONHOMME";"Immeuble"; 15.5;"Société Privée SA"
681547;7.14694;47.75167;"07° 08' 49.00'' Est, 47° 45' 06.00'' Nord";"68011";"FORÊT DU KREUTZWALD";;"68700";"ASPACH-LE-BAS";"Pylône autostable"; 44.0;"SFR"
686173;7.37111;47.76806;"07° 22' 16.00'' Est, 47° 46' 05.00'' Nord";"68154";;"49, AV DE BELGIQUE";"68110";"ILLZACH";"Pylône tubulaire"; 34.2;"ORANGE"
690201;7.13444;48.24111;"07° 08' 04.00'' Est, 48° 14' 28.00'' Nord";"68298";"HAUTE BROQUE";"PASSAGE DU COL STE MARIE";"68160";"SAINTE-MARIE-AUX-MINES";"Pylône autostable"; 12.0;"SFR"
690216;7.25111;47.95417;"07° 15' 04.00'' Est, 47° 57' 15.00'' Nord";"68364";"SCHWICHING";"GYMNASE";"68250";"WESTHALTEN";"Immeuble"; 14.0;"Commune, communauté de commune"
700217;7.50278;47.70972;"07° 30' 10.00'' Est, 47° 42' 35.00'' Nord";"68238";"ECLUSE DE NIFFER";;"68680";"NIFFER";"Pylône autostable"; 17.0;"Voies navigables de France"
701661;7.23861;47.80750;"07° 14' 19.00'' Est, 47° 48' 27.00'' Nord";"68375";;"R DU PARC CENTRAL TÉLÉPHONIQUE";"68310";"WITTELSHEIM";"Pylône autostable"; 37.0;"ORANGE Services Fixes"
705486;7.02250;47.61972;"07° 01' 21.00'' Est, 47° 37' 11.00'' Nord";"68215";;"R DE BELFORT CH D'EAU";"68210";"MONTREUX-VIEUX";"Château d'eau - réservoir"; 39.0;"Syndicat des eaux, Adduction"
709786;7.34667;48.08083;"07° 20' 48.00'' Est, 48° 04' 51.00'' Nord";"68066";;"11, R DU VAL ST GRÉGOIRE";"68000";"COLMAR";"Immeuble"; 18.0;"Copropriété, Syndic, SCI"
719357;7.36056;47.55639;"07° 21' 38.00'' Est, 47° 33' 23.00'' Nord";"68221";"SCHORENACKER";"LANGHOLZ";"68640";"MUESPACH";"Pylône autostable"; 40.0;"SFR"
719376;7.34306;47.48472;"07° 20' 35.00'' Est, 47° 29' 05.00'' Nord";"68312";"LE REBEN";"VC N°2 R DE LA MONTAGNE";"68480";"SONDERSDORF";"Pylône autostable"; 12.0;"SFR"
725756;7.31722;47.78778;"07° 19' 02.00'' Est, 47° 47' 16.00'' Nord";"68166";"AM SAALWEG";"R DES JUIFS PRÈS DU CD 430";"68260";"KINGERSHEIM";"Pylône tubulaire"; 23.0;"ORANGE"
726954;7.40861;47.60333;"07° 24' 31.00'' Est, 47° 36' 12.00'' Nord";"68132";;"R DU RÉSERVOIR CHÂTEAU D'EAU";"68510";"HELFRANTZKIRCH";"Château d'eau - réservoir"; 28.4;"Commune, communauté de commune"
726966;7.43972;47.55083;"07° 26' 23.00'' Est, 47° 33' 03.00'' Nord";"68094";;"7 R ST APPOLINAIRE CHÂTEAU D'EAU";"68220";"FOLGENSBOURG";"Château d'eau - réservoir"; 37.0;"Syndicat des eaux, Adduction"
728643;7.31194;47.95944;"07° 18' 43.00'' Est, 47° 57' 34.00'' Nord";"68287";"R DE LA GARE";"COOPÉRATIVE AGRICOLE";"68250";"ROUFFACH";"Silo"; 36.5;"Coopérative Agricole, Vinicole"
728653;7.38861;47.99111;"07° 23' 19.00'' Est, 47° 59' 28.00'' Nord";"68235";"KIRCHFELD";"SILO C.A.C. D.1 B  RTE DE STE-CROIX EN PLAINE";"68127";"NIEDERHERGHEIM";"Pylône autostable"; 40.0;"SFR"
729424;6.99111;47.88944;"06° 59' 28.00'' Est, 47° 53' 22.00'' Nord";"68089";"LE PONT ROUGE";"13 ROUTE DE BUSSANG";"68470";"FELLERING";"Pylône autostable"; 20.0;"DDE"
732346;7.28472;47.84778;"07° 17' 05.00'' Est, 47° 50' 52.00'' Nord";"68258";"CARREAU RODOLPHE";"D430B";"68840";"PULVERSHEIM";"Château d'eau - réservoir"; 60.0;"Commune, communauté de commune"
737193;7.34722;47.70056;"07° 20' 50.00'' Est, 47° 42' 02.00'' Nord";"68055";"AM WEISCHENBERG";;"68440";"BRUEBACH";"Pylône autostable"; 30.0;"SFR"
738084;7.06889;48.04556;"07° 04' 08.00'' Est, 48° 02' 44.00'' Nord";"68329";"WIDA";"WIDA";"68140";"STOSSWIHR";"Pylône autostable"; 42.0;"BOUYGUES"
738314;7.29694;47.70056;"07° 17' 49.00'' Est, 47° 42' 02.00'' Nord";"68384";;"5 RUE DU SEMINAIRE SILO DU COLLÈGE";"68720";"ZILLISHEIM";"Silo"; 39.8;"Coopérative Agricole, Vinicole"
738356;7.31278;47.95861;"07° 18' 46.00'' Est, 47° 57' 31.00'' Nord";"68287";;"2 AV DE LA GARE GARE DE ROUFFACH";"68250";"ROUFFACH";"Pylône autostable"; 30.0;"SNCF Réseau"
739243;7.54833;47.83083;"07° 32' 54.00'' Est, 47° 49' 51.00'' Nord";"68064";;"R DE RUMERSHEIM CHALAMPÉ LE BAS";"68490";"CHALAMPE";"Pylône tubulaire"; 35.0;"ORANGE"
739257;7.51750;47.77722;"07° 31' 03.00'' Est, 47° 46' 38.00'' Nord";"68253";;"D 52 STATION D'ÉPURATION";"68490";"OTTMARSHEIM";"Pylône autostable"; 55.0;"ORANGE"
739371;7.33389;47.54444;"07° 20' 02.00'' Est, 47° 32' 40.00'' Nord";"68284";"KIRCHHOLZ";"CHEM RURAL";"68480";"ROPPENTZWILLER";"Pylône autostable"; 48.4;"BOUYGUES"
741176;7.33528;47.75083;"07° 20' 07.00'' Est, 47° 45' 03.00'' Nord";"68224";;"2, R PIERRE ET MARIE CURIE";"68100";"MULHOUSE";"Mât"; 20.0;"Commune, communauté de commune"
747469;7.09972;47.70667;"07° 05' 59.00'' Est, 47° 42' 24.00'' Nord";"68071";"BRENTLING";"RTE DE STERNENBERG";"68780";"DIEFMATTEN";"Pylône autostable"; 45.4;"ORANGE"
748604;7.33444;48.07972;"07° 20' 04.00'' Est, 48° 04' 47.00'' Nord";"68066";;"1 AV DE PARIS";"68000";"COLMAR";"Immeuble"; 45.0;"Société Privée SA"
752195;7.38278;47.55361;"07° 22' 58.00'' Est, 47° 33' 13.00'' Nord";"68221";"BOESCHET";"R DU CHÂTEAU D'EAU";"68640";"MUESPACH";"Château d'eau - réservoir"; 29.0;"Commune, communauté de commune"
752287;7.41167;48.03528;"07° 24' 42.00'' Est, 48° 02' 07.00'' Nord";"68331";"JOSENKRITT";"BOIS AU SUD LE LONG DE L'ILL CHEM RURAL";"68280";"SUNDHOFFEN";"Pylône autostable"; 30.0;"ORANGE"
752644;7.02889;47.92722;"07° 01' 44.00'' Est, 47° 55' 38.00'' Nord";"68247";"LE MARKSTEIN";"D 430";"68830";"ODEREN";"Bâtiment"; 15.8;"Particulier"
760297;7.29278;47.50694;"07° 17' 34.00'' Est, 47° 30' 25.00'' Nord";"68347";"KOESTLACHER WEG";"CHEM DIT STRUETLEWEG RTE DE KOESTLACH";"68480";"VIEUX-FERRETTE";"Pylône autostable"; 36.0;"ORANGE"
761234;7.28972;47.73556;"07° 17' 23.00'' Est, 47° 44' 08.00'' Nord";"68224";;"36 R PAUL CÉZANNE IMM LE TRIDENT";"68100";"MULHOUSE";"Immeuble"; 33.0;"Société Privée SA"
765769;7.38556;48.18389;"07° 23' 08.00'' Est, 48° 11' 02.00'' Nord";"68113";"OBERFELD";"N.83 CHÂTEAU D'EAU";"68970";"GUEMAR";"Château d'eau - réservoir"; 45.0;"Copropriété, Syndic, SCI"
770888;7.30389;47.76861;"07° 18' 14.00'' Est, 47° 46' 07.00'' Nord";"68256";;"R NEUVE";"68120";"PFASTATT";"Monument religieux"; 48.0;"Commune, communauté de commune"
780395;7.53694;47.88222;"07° 32' 13.00'' Est, 47° 52' 56.00'' Nord";"68041";;"R DE LA CARRIÈRE  CH D'EAU";"68740";"BLODELSHEIM";"Château d'eau - réservoir"; 37.0;"Commune, communauté de commune"
780411;7.28333;47.61694;"07° 16' 60.00'' Est, 47° 37' 01.00'' Nord";"68377";"GEISSBERGERWEG";"CHEM D'EXPLOITATION DU GEISSBERGERWEG";"68130";"WITTERSDORF";"Mât"; 13.0;"ORANGE"
780423;7.04528;47.71472;"07° 02' 43.00'' Est, 47° 42' 53.00'' Nord";"68085";"LA TAILLE";"D32 PRES DE BOIS DE LA CROIX";"68210";"ETEIMBES";"Pylône autostable"; 59.0;"ORANGE"
783127;7.16333;47.56528;"07° 09' 48.00'' Est, 47° 33' 55.00'' Nord";"68098";"HEISSER BUEHL";;"68580";"FRIESEN";"Pylône autostable"; 37.9;"FPS TOWERS"
783582;7.42500;47.63139;"07° 25' 30.00'' Est, 47° 37' 53.00'' Nord";"68327";"FORET COMMUNAL DE LI";;"68510";"STETTEN";"Pylône autostable"; 45.0;"SFR"
785488;7.27694;47.78556;"07° 16' 37.00'' Est, 47° 47' 08.00'' Nord";"68270";;"RUE LA FORÊT STAND DE TIR";"68120";"RICHWILLER";"Pylône tubulaire"; 28.0;"TDF"
787902;7.30806;47.75972;"07° 18' 29.00'' Est, 47° 45' 35.00'' Nord";"68256";"AUF DER WASSERUNG";"ZONE D'ACTIVITÉ DE LA DOLLER";"68120";"PFASTATT";"Pylône autostable"; 41.3;"SFR"
788787;7.05389;47.90917;"07° 03' 14.00'' Est, 47° 54' 33.00'' Nord";"68292";"HUNDSRUCKEN";"REFUGE EDELWEISS ROUTE DES CRÊTES";"68550";"SAINT-AMARIN";"Bâtiment"; 10.0;"Société Privée SA"
788789;7.03194;47.87333;"07° 01' 55.00'' Est, 47° 52' 24.00'' Nord";"68292";"MAIRIE";"R CHARLES DE GAULLE";"68550";"SAINT-AMARIN";"Bâtiment"; 10.0;"Société Privée SA"
788792;7.01083;47.83056;"07° 00' 39.00'' Est, 47° 49' 50.00'' Nord";"68217";"GSANG";"FERME GSANG";"68690";"MOOSCH";"Bâtiment"; 10.0;"Société Privée SA"
790510;7.13278;48.06722;"07° 07' 58.00'' Est, 48° 04' 02.00'' Nord";"68142";"HOHRODBERG";"T. ORIENTATION";"68140";"HOHROD";"pylône arbre"; 12.0;"EDF GDF"
792142;7.55611;47.91222;"07° 33' 22.00'' Est, 47° 54' 44.00'' Nord";"68091";"GRAND CANAL D'ALSACE";"CHÂTEAU D'EAU";"68740";"FESSENHEIM";"Château d'eau - réservoir"; 39.6;"EDF GDF"
794326;6.94000;47.92861;"06° 56' 24.00'' Est, 47° 55' 43.00'' Nord";"68171";"LE FRENZ";"REFUGE LIONNEL TERRAY";"68820";"KRUTH";"Bâtiment"; 10.0;"Société Privée SA"
794328;6.98167;47.97944;"06° 58' 54.00'' Est, 47° 58' 46.00'' Nord";"68171";"HUSS";"FERME HUSS";"68820";"KRUTH";"Bâtiment"; 10.0;"Société Privée SA"
794330;6.98083;47.96111;"06° 58' 51.00'' Est, 47° 57' 40.00'' Nord";"68171";"SCHAFFERT";"FERME SCHAFFERT";"68820";"KRUTH";"Bâtiment"; 10.0;"Société Privée SA"
794332;6.97639;48.00667;"06° 58' 35.00'' Est, 48° 00' 24.00'' Nord";"68370";"ROTHENBACH";"FERME ROTHENBACH ROUTE DES CRÊTES";"68820";"WILDENSTEIN";"Bâtiment"; 10.0;"Société Privée SA"
795999;7.31389;47.61583;"07° 18' 50.00'' Est, 47° 36' 57.00'' Nord";"68303";"ELSBERG";"ROUTE DÉPARTEMENTALE 419";"68130";"SCHWOBEN";"Pylône autostable"; 44.0;"TDF"
797264;6.96306;47.90500;"06° 57' 47.00'' Est, 47° 54' 18.00'' Nord";"68247";"TALHORN";;"68830";"ODEREN";"Pylône autostable"; 31.0;"Itas Tim"
801271;7.30972;48.08472;"07° 18' 35.00'' Est, 48° 05' 05.00'' Nord";"68374";"LOGEBACH";"2A R DES PRÉS AUTOCOM";"68124";"WINTZENHEIM";"Bâtiment"; 10.0;"ORANGE Services Fixes"
802320;7.48417;47.49250;"07° 29' 03.00'' Est, 47° 29' 33.00'' Nord";"68182";;"R DU LANDSKRON";"68220";"LEYMEN";"Mât béton"; 13.0;"ORANGE"
802465;7.48222;47.52278;"07° 28' 56.00'' Est, 47° 31' 22.00'' Nord";"68120";;"R DES VIGNES";"68220";"HAGENTHAL-LE-BAS";"Mât"; 12.0;"ORANGE"
802485;7.40389;47.58111;"07° 24' 14.00'' Est, 47° 34' 52.00'' Nord";"68027";"RUETHEN";"TERRAIN RURAL DE LA COMMUNE";"68130";"BERENTZWILLER";"Pylône autostable"; 35.0;"ORANGE"
803220;7.16889;48.23861;"07° 10' 08.00'' Est, 48° 14' 19.00'' Nord";"68298";"CÔTE DES CHENEAUX";;"68160";"SAINTE-MARIE-AUX-MINES";"Pylône autostable"; 33.0;"ORANGE"
809154;7.35472;47.86139;"07° 21' 17.00'' Est, 47° 51' 41.00'' Nord";"68082";"GROSSES ST JOHANNESFELD";"AV FOCH STADE MUNICIPAL";"68190";"ENSISHEIM";"Pylône autostable"; 30.0;"SFR"
809432;7.34833;47.86806;"07° 20' 54.00'' Est, 47° 52' 05.00'' Nord";"68082";;"R DU 6 FEVRIER";"68190";"ENSISHEIM";"Château d'eau - réservoir"; 41.0;"Syndicat des eaux, Adduction"
809435;7.18556;48.24972;"07° 11' 08.00'' Est, 48° 14' 59.00'' Nord";"68298";"LA CROIX DE MISSION";"R DE LA CROIX DE MISSION";"68160";"SAINTE-MARIE-AUX-MINES";"Immeuble"; 24.0;"Particulier"
809437;7.35083;48.07583;"07° 21' 03.00'' Est, 48° 04' 33.00'' Nord";"68066";;"3 R JACQUES PREISS CENTRAL TÉLÉPHONIQUE";"68000";"COLMAR";"Bâtiment"; 31.0;"ORANGE Services Fixes"
809439;7.58250;47.58833;"07° 34' 57.00'' Est, 47° 35' 18.00'' Nord";"68149";;"5 QUAI DU MAROC IMM LE LORENZO";"68330";"HUNINGUE";"Immeuble"; 35.0;"Copropriété, Syndic, SCI"
809441;7.22278;47.88778;"07° 13' 22.00'' Est, 47° 53' 16.00'' Nord";"68315";"UNTERER HORNSTEIN";"TOUR DANS LE VIGNOBLE";"68360";"SOULTZ-HAUT-RHIN";"Bâtiment"; 18.0;"Particulier"
809445;7.31222;48.01222;"07° 18' 44.00'' Est, 48° 00' 44.00'' Nord";"68134";"ELSBURGPLATTE";"RÉSERVOIR D'EAU DE L'ELSBURGPLATTE";"68420";"HERRLISHEIM-PRES-COLMAR";"Mât"; 12.0;"ORANGE"
809447;7.37472;48.10389;"07° 22' 29.00'' Est, 48° 06' 14.00'' Nord";"68066";;"1 R DENIS PAPIN Z.I. NORD";"68000";"COLMAR";"Pylône autostable"; 29.0;"ORANGE"
810006;7.56444;47.58694;"07° 33' 52.00'' Est, 47° 35' 13.00'' Nord";"68297";;"2 PL DE L'EUROPE";"68300";"SAINT-LOUIS";"Tour hertzienne"; 41.0;"ORANGE Services Fixes"
810014;7.30750;47.87778;"07° 18' 27.00'' Est, 47° 52' 40.00'' Nord";"68343";"HINTERE LAENDER";"R DE PARIS CHATEAU D'EAU";"68190";"UNGERSHEIM";"Château d'eau - réservoir"; 60.0;"Syndicat des eaux, Adduction"
810032;7.40556;47.77806;"07° 24' 20.00'' Est, 47° 46' 41.00'' Nord";"68300";;"RTE DE CHALAMPE STATION D'ÉPURATION DU SIVOM";"68390";"SAUSHEIM";"Pylône autostable"; 42.0;"ORANGE"
810034;7.56361;48.03111;"07° 33' 49.00'' Est, 48° 01' 52.00'' Nord";"68352";"PORT RHÉNAN";"SILO SICA";"68600";"VOLGELSHEIM";"Silo"; 61.0;"Société Privée SA"
810036;7.53111;47.56889;"07° 31' 52.00'' Est, 47° 34' 08.00'' Nord";"68126";"TIEFMATTEN";"TERRAIN DE SPORTS";"68220";"HEGENHEIM";"Pylône autostable"; 32.0;"FPS TOWERS"
810038;7.25722;47.68250;"07° 15' 26.00'' Est, 47° 40' 57.00'' Nord";"68152";"LANGE VIERTEL";"AEBSTEIN PRÈS D.18V";"68720";"ILLFURTH";"Pylône autostable"; 34.0;"ORANGE"
810042;7.36944;47.78778;"07° 22' 10.00'' Est, 47° 47' 16.00'' Nord";"68300";;"GRANDE RUE EGLISE ST LAURENT";"68390";"SAUSHEIM";"Monument religieux"; 29.0;"Commune, communauté de commune"
810044;7.29389;47.69500;"07° 17' 38.00'' Est, 47° 41' 42.00'' Nord";"68384";;"R DE LA GARE";"68720";"ZILLISHEIM";"Monument religieux"; 50.0;"Commune, communauté de commune"
810046;7.28500;47.77917;"07° 17' 06.00'' Est, 47° 46' 45.00'' Nord";"68270";;"37 R PRINCIPALE EGLISE DE RICHWILLER";"68120";"RICHWILLER";"Monument religieux"; 26.0;"Commune, communauté de commune"
810064;7.01444;47.76028;"07° 00' 52.00'' Est, 47° 45' 37.00'' Nord";"68179";"VORBERG";"ANCIENNE CARRIÈRE";"68290";"LAUW";"Pylône autostable"; 44.0;"ORANGE"
810071;7.36722;47.75222;"07° 22' 02.00'' Est, 47° 45' 08.00'' Nord";"68271";"HOHRAIN";"6 R DU DOUBS BÂTIMENT SNCF";"68400";"RIEDISHEIM";"Bâtiment"; 35.0;"Copropriété, Syndic, SCI"
810080;7.10083;48.16222;"07° 06' 03.00'' Est, 48° 09' 44.00'' Nord";"68044";"LES JONQUILLES";"CHEM FORESTIER DIT DE LA VIOLETTE MAISON DE VACANCES";"68650";"LE BONHOMME";"Bâtiment"; 12.5;"Particulier"
810494;7.27250;48.12278;"07° 16' 21.00'' Est, 48° 07' 22.00'' Nord";"68005";"WOLFLOCH";;"68410";"AMMERSCHWIHR";"Pylône autostable"; 12.0;"ORANGE"
810496;7.32083;48.15472;"07° 19' 15.00'' Est, 48° 09' 17.00'' Nord";"68209";"MANDELBERG";"TERRAIN PRIVÉ VITICOLE";"68630";"MITTELWIHR";"Mât"; 11.0;"ORANGE"
810500;7.47500;48.11306;"07° 28' 30.00'' Est, 48° 06' 47.00'' Nord";"68157";"OBEROHMEN";"RD 9 CHÂTEAU D'EAU";"68320";"JEBSHEIM";"Château d'eau - réservoir"; 41.0;"Commune, communauté de commune"
810641;7.29528;48.09361;"07° 17' 43.00'' Est, 48° 05' 37.00'' Nord";"68155";"LETSENBERG";"PRÈS RÉSERVOIRS";"68040";"INGERSHEIM";"Pylône autostable"; 29.0;"Société Privée SA"
810855;7.37806;48.08083;"07° 22' 41.00'' Est, 48° 04' 51.00'' Nord";"68066";;"CHEM DE DORNIG MAGASIN BIG MOD";"68000";"COLMAR";"Bâtiment"; 27.0;"Copropriété, Syndic, SCI"
810859;7.24750;47.42111;"07° 14' 51.00'' Est, 47° 25' 16.00'' Nord";"68190";"CHEM DE CROIX";"PARKING DU CTRE DES CONGRÈS CENTRE DE CONFERENCE";"68480";"LUCELLE";"Pylône tubulaire"; 18.0;"Commune, communauté de commune"
810863;7.55139;47.58250;"07° 33' 05.00'' Est, 47° 34' 57.00'' Nord";"68297";;"CLINIQUE DES 3 FRONTIÈRES";"68300";"SAINT-LOUIS";"Bâtiment"; 27.0;"Etablissement de soins"
810867;7.21194;48.04111;"07° 12' 43.00'' Est, 48° 02' 28.00'' Nord";"68316";"NEUBERG";"CHEM NEUBERGWEG";"68230";"SOULTZBACH-LES-BAINS";"Pylône autostable"; 30.0;"ORANGE"
810871;7.25250;47.78917;"07° 15' 09.00'' Est, 47° 47' 21.00'' Nord";"68375";"PUIT AMELIE";"PRÈS D.191 CITE AMÉLIE";"68310";"WITTELSHEIM";"Pylône autostable"; 30.0;"ORANGE"
810873;7.33556;47.82528;"07° 20' 08.00'' Est, 47° 49' 31.00'' Nord";"68376";;"R JEAN-JACQUES HENNER";"68270";"WITTENHEIM";"Monument religieux"; 32.0;"Commune, communauté de commune"
810893;7.36583;48.07611;"07° 21' 57.00'' Est, 48° 04' 34.00'' Nord";"68066";;"50 AV D' ALSACE R ST GUIDON";"68000";"COLMAR";"Pylône autostable"; 40.9;"Titulaire programme Radio/TV"
810895;7.38583;47.75611;"07° 23' 09.00'' Est, 47° 45' 22.00'' Nord";"68278";;"R DE MULHOUSE - N.66 1 PETIT CHEM DE SAUSHEIM RELAIS DE RIXHEIM";"68170";"RIXHEIM";"Immeuble"; 19.0;"Société Privée SA"
810897;7.50250;48.02833;"07° 30' 09.00'' Est, 48° 01' 42.00'' Nord";"68379";;"2, R DE LA GARE EGLISE CATHOLIQUE";"68600";"WOLFGANTZEN";"Monument religieux"; 35.0;"Commune, communauté de commune"
810899;7.38722;47.77250;"07° 23' 14.00'' Est, 47° 46' 21.00'' Nord";"68154";;"R DE BERNE CCAL CARREFOUR";"68110";"ILLZACH";"Mât métallique"; 29.0;"Société Privée SA"
810906;7.42917;48.10528;"07° 25' 45.00'' Est, 48° 06' 19.00'' Nord";"68366";"KEITH";"STADE MUNICIPAL DE WICKERSCHWIHR";"68320";"WICKERSCHWIHR";"Pylône tubulaire"; 30.0;"ORANGE"
810910;7.36944;48.13139;"07° 22' 10.00'' Est, 48° 07' 53.00'' Nord";"68146";"STEINENKREUZ";"PYLÔNE ORANGE";"68125";"HOUSSEN";"Pylône autostable"; 20.0;"ORANGE"
810914;7.33194;48.08417;"07° 19' 55.00'' Est, 48° 05' 03.00'' Nord";"68066";;"7 R L'ABBÉ LEMIRE";"68000";"COLMAR";"Immeuble"; 27.0;"Copropriété, Syndic, SCI"
810922;7.28389;47.76306;"07° 17' 02.00'' Est, 47° 45' 47.00'' Nord";"68195";"BEIM KIRCHHOFE";"R DU 11 NOVEMBRE";"68460";"LUTTERBACH";"Château d'eau - réservoir"; 48.0;"Commune, communauté de commune"
810926;7.28806;47.82722;"07° 17' 17.00'' Est, 47° 49' 38.00'' Nord";"68258";"NONNENWALD";"D.2 B  STATION DE POMPAGE";"68840";"PULVERSHEIM";"Pylône autostable"; 35.0;"ORANGE"
810928;7.30722;47.81028;"07° 18' 26.00'' Est, 47° 48' 37.00'' Nord";"68376";;"2, R DU PÉRIGORD";"68270";"WITTENHEIM";"Pylône autostable"; 21.0;"FPS TOWERS"
810934;7.21972;47.90000;"07° 13' 11.00'' Est, 47° 53' 60.00'' Nord";"68112";;"1 RTE DE SOULTZ";"68500";"GUEBWILLER";"Immeuble"; 27.0;"Société HLM"
810938;7.31583;47.81861;"07° 18' 57.00'' Est, 47° 49' 07.00'' Nord";"68376";"CITÉ JEUNE BOIS";"CHEM RURAL DU STOCKMATTENWEG";"68270";"WITTENHEIM";"Pylône autostable"; 33.0;"ORANGE"
810940;7.33722;47.87083;"07° 20' 14.00'' Est, 47° 52' 15.00'' Nord";"68082";"ENSISHEIM CITÉ";"R D  UNGERSHEIM (ANC. TER. MILITAIRE) ENSISHEIM CITÉ";"68190";"ENSISHEIM";"Pylône autostable"; 25.0;"ORANGE"
810945;7.18139;47.81250;"07° 10' 53.00'' Est, 47° 48' 45.00'' Nord";"68063";;"7 R VENTRON";"68700";"CERNAY";"Immeuble"; 22.0;"Société HLM"
810949;7.52194;47.60833;"07° 31' 19.00'' Est, 47° 36' 30.00'' Nord";"68297";"AEROPORT BALE";"AEROPORT MULHOUSE BALE IMM CITE ADMINISTRATIVE";"68300";"SAINT-LOUIS";"Immeuble"; 11.0;"Etat, Ministère"
810951;7.53278;47.59472;"07° 31' 58.00'' Est, 47° 35' 41.00'' Nord";"68297";;"AEROPORT MULHOUSE BALE GARE DE FRET";"68300";"SAINT-LOUIS";"Bâtiment"; 20.0;"CCI,Ch Metiers,Port Aut,Aérop"
810957;7.19944;47.91750;"07° 11' 58.00'' Est, 47° 55' 03.00'' Nord";"68112";;"2 R DE L'ERMITE";"68500";"GUEBWILLER";"Immeuble"; 29.0;"Société HLM"
810961;7.30806;47.77528;"07° 18' 29.00'' Est, 47° 46' 31.00'' Nord";"68256";;"R AEGERTER 22 R DU COLLÈGE";"68120";"PFASTATT";"Pylône tubulaire"; 29.0;"Commune, communauté de commune"
810963;7.40278;47.75556;"07° 24' 10.00'' Est, 47° 45' 20.00'' Nord";"68278";;"47, R DE L'ILE NAPOLÉON";"68170";"RIXHEIM";"Mât"; 14.0;"Société Privée SA"
810969;7.53500;47.61028;"07° 32' 06.00'' Est, 47° 36' 37.00'' Nord";"68297";;"R DU PÈRE GEYMANN";"68300";"SAINT-LOUIS";"Monument religieux"; 34.0;"Commune, communauté de commune"
810973;7.56333;47.60250;"07° 33' 48.00'' Est, 47° 36' 09.00'' Nord";"68349";;"FRANC BORD DU CANAL DE HUNINGUE CHEM RURAL LE SCHAFWEG PK 25,740";"68128";"VILLAGE-NEUF";"Pylône autostable"; 30.0;"ORANGE"
810981;7.09750;47.81028;"07° 05' 51.00'' Est, 47° 48' 37.00'' Nord";"68334";"STAUFEN";"CHEM FORESTIER FORÊT DU STAUFEN";"68800";"THANN";"Pylône autostable"; 30.0;"ORANGE"
810985;7.09111;47.94500;"07° 05' 28.00'' Est, 47° 56' 42.00'' Nord";"68188";"SCHMELZRUNZ";;"68610";"LINTHAL";"Pylône autostable"; 35.0;"SFR"
812653;6.99861;47.88889;"06° 59' 55.00'' Est, 47° 53' 20.00'' Nord";"68089";;"R CHARLES DE GAULLE AUTOCOM FT";"68470";"FELLERING";"Bâtiment"; 8.0;"ORANGE Services Fixes"
813404;7.18444;47.83194;"07° 11' 04.00'' Est, 47° 49' 55.00'' Nord";"68359";;"28 R DE CERNAY CSE DES SAPEURS POMPIERS";"68700";"WATTWILLER";"Bâtiment"; 5.0;"Commune, communauté de commune"
814112;7.16444;47.81778;"07° 09' 52.00'' Est, 47° 49' 04.00'' Nord";"68322";"COLLINE DE LA LOH";;"68700";"STEINBACH";"Pylône haubané"; 20.0;"Société Privée SA"
816153;7.33444;48.07861;"07° 20' 04.00'' Est, 48° 04' 43.00'' Nord";"68066";;"4 R ST NIKLAAS";"68000";"COLMAR";"Immeuble"; 60.0;"Société Privée SA"
817244;7.13583;48.02222;"07° 08' 09.00'' Est, 48° 01' 20.00'' Nord";"68083";"OBER SOLBERG";"AUBERGE OBERSOLBERG";"68140";"ESCHBACH-AU-VAL";"Bâtiment"; 6.0;"Société Privée SA"
818175;7.17583;48.24056;"07° 10' 33.00'' Est, 48° 14' 26.00'' Nord";"68298";"CHAMP DE LA CHATTE";"RÉSERVOIR";"68160";"SAINTE-MARIE-AUX-MINES";"Château d'eau - réservoir"; 16.0;"Commune, communauté de commune"
822428;7.54833;47.60056;"07° 32' 54.00'' Est, 47° 36' 02.00'' Nord";"68297";;"156 R DE MULHOUSE";"68300";"SAINT-LOUIS";"Bâtiment"; 25.0;"Société Privée SA"
825471;7.30167;47.83389;"07° 18' 06.00'' Est, 47° 50' 02.00'' Nord";"68258";;"1 PL CHARLES DE GAULLE MAIRIE";"68840";"PULVERSHEIM";"Bâtiment"; 20.0;"Commune, communauté de commune"
827066;7.27472;47.51778;"07° 16' 29.00'' Est, 47° 31' 04.00'' Nord";"68169";"TSCHUBENHORN";"GEISSAECKER";"68480";"KOESTLACH";"Pylône autostable"; 35.0;"FPS TOWERS"
831499;7.18000;47.80611;"07° 10' 48.00'' Est, 47° 48' 22.00'' Nord";"68063";;"13, R DES PRÈS";"68700";"CERNAY";"Bâtiment"; 10.0;"Commune, communauté de commune"
831925;7.47833;48.07444;"07° 28' 42.00'' Est, 48° 04' 28.00'' Nord";"68345";"GEISENLENNWALD";;"68320";"URSCHENHEIM";"Pylône autostable"; 30.0;"SFR"
832736;7.32667;48.07667;"07° 19' 36.00'' Est, 48° 04' 36.00'' Nord";"68066";;"11 R D'AMSTERDAM";"68000";"COLMAR";"Immeuble"; 45.0;"Société Privée SA"
832896;7.36389;47.76694;"07° 21' 50.00'' Est, 47° 46' 01.00'' Nord";"68154";;"28 R PIERRE CURIE RES DES FLEURS";"68110";"ILLZACH";"Immeuble"; 44.0;"Copropriété, Syndic, SCI"
832907;7.31444;47.83944;"07° 18' 52.00'' Est, 47° 50' 22.00'' Nord";"68258";;"ROUTE D'ENSISHEIM  RD 101  ZI BOIS VERT";"68840";"PULVERSHEIM";"Pylône autostable"; 39.0;"TDF"
832912;7.40417;47.75861;"07° 24' 15.00'' Est, 47° 45' 31.00'' Nord";"68278";;"52 R DE L'ILE NAPOLÉON PYLONE EDF N° 6";"68170";"RIXHEIM";"Pylône autostable"; 40.5;"EDF GDF"
832927;7.08500;47.67583;"07° 05' 06.00'' Est, 47° 40' 33.00'' Nord";"68337";"HOHBURG";"R DE MAZEVAUX";"68210";"TRAUBACH-LE-HAUT";"Pylône autostable"; 42.0;"TDF"
832954;7.33750;48.06889;"07° 20' 15.00'' Est, 48° 04' 08.00'' Nord";"68066";;"14 R DU MAINBOURG EGLISE STE MARIE";"68000";"COLMAR";"Monument religieux"; 47.0;"Commune, communauté de commune"
832968;7.38889;47.77250;"07° 23' 20.00'' Est, 47° 46' 21.00'' Nord";"68154";;"D 39 PYLONE EDF N°4 PRÈS CENTRE COMMERCIAL";"68110";"ILLZACH";"Pylône autostable"; 43.2;"EDF GDF"
833128;7.29167;47.76139;"07° 17' 30.00'' Est, 47° 45' 41.00'' Nord";"68195";"HINTER GEBREITEN";"VOIE PRIVEE LALANCE  CENTRE MÉDICAL LALANCE";"68460";"LUTTERBACH";"Immeuble"; 25.0;"Société Privée SA"
843881;7.10222;48.04917;"07° 06' 08.00'' Est, 48° 02' 57.00'' Nord";"68329";"REICHSACKER - IM LOCH";"CHEM FORESTIER DU GASCHNEY";"68140";"STOSSWIHR";"Pylône autostable"; 20.0;"ORANGE"
845855;7.25833;48.28556;"07° 15' 30.00'' Est, 48° 17' 08.00'' Nord";"68283";;"174 PIERREUSGOUTTE";"68660";"ROMBACH-LE-FRANC";"Pylône tubulaire"; 12.0;"SFR"
848754;7.48333;47.49056;"07° 29' 00.00'' Est, 47° 29' 26.00'' Nord";"68182";"LANDSKRONBERG";;"68220";"LEYMEN";"Pylône autostable"; 16.0;"SFR"
849207;7.12083;47.74528;"07° 07' 15.00'' Est, 47° 44' 43.00'' Nord";"68060";"HAHNENBACH";"ROUTE DE GUEWENHEIM - D.466 COOPÉRATIVE AGRICOLE DE CÉRÉALES";"68520";"BURNHAUPT-LE-HAUT";"Silo"; 23.0;"Coopérative Agricole, Vinicole"
850045;7.55528;48.04472;"07° 33' 19.00'' Est, 48° 02' 41.00'' Nord";"68036";"REINWHALD";"R DU REINWHALD ANCIENNE STATION D'ÉPURATION";"68600";"BIESHEIM";"Pylône autostable"; 40.0;"ORANGE"
850645;7.32556;47.76361;"07° 19' 32.00'' Est, 47° 45' 49.00'' Nord";"68224";;"CHEM DE LA DOLLER PONT DE BOURTZWILLER";"68100";"MULHOUSE";"Pylône autostable"; 33.0;"SFR"
864000;7.38333;47.76972;"07° 23' 00.00'' Est, 47° 46' 11.00'' Nord";"68154";;"25 R DE HOLLANDE";"68110";"ILLZACH";"Pylône autostable"; 31.0;"EDF GDF"
864002;7.21167;47.90722;"07° 12' 42.00'' Est, 47° 54' 26.00'' Nord";"68112";;"31 R DU MARÉCHAL JOFFRE CTRE DE SECOURS POMPIERS";"68500";"GUEBWILLER";"Bâtiment"; 31.0;"SDIS, secours, incendie"
864029;7.35611;48.08389;"07° 21' 22.00'' Est, 48° 05' 02.00'' Nord";"68066";;"1 R GARLTZ";"68000";"COLMAR";"Immeuble"; 40.0;
864065;7.40361;47.75028;"07° 24' 13.00'' Est, 47° 45' 01.00'' Nord";"68278";;"15, R DE MULHOUSE FRAIKIN LOCATION";"68170";"RIXHEIM";"Pylône autostable"; 15.0;"SFR"
864067;7.37306;48.10361;"07° 22' 23.00'' Est, 48° 06' 13.00'' Nord";"68066";"ZI NORD";"10, R LAVOISIER COOPÉRATIVE AGRICOLE DE CÉRÉALES";"68000";"COLMAR";"Silo"; 37.0;"Coopérative Agricole, Vinicole"
864069;7.54889;47.57861;"07° 32' 56.00'' Est, 47° 34' 43.00'' Nord";"68297";;"18, R CHARLES PEGUY";"68300";"SAINT-LOUIS";"Immeuble"; 32.0;"Société HLM"
864074;7.52278;47.78278;"07° 31' 22.00'' Est, 47° 46' 58.00'' Nord";"68253";;"R DU MASSIF CENTRAL SILO ARMBRUSTER FRÉRES S.A";"68490";"OTTMARSHEIM";"Silo"; 66.0;"Société Privée SA"
864079;7.28278;47.84750;"07° 16' 58.00'' Est, 47° 50' 51.00'' Nord";"68258";"PUITS RODOLPHE";"R DE GUEBWILLER ECOMUSÉE DE PULVERSHEIM";"68840";"PULVERSHEIM";"Bâtiment"; 53.1;"Copropriété, Syndic, SCI"
864088;7.33639;47.86889;"07° 20' 11.00'' Est, 47° 52' 08.00'' Nord";"68082";;"RTE DE UNGERSHEIM SILO C.A.C.";"68190";"ENSISHEIM";"Silo"; 36.0;"Société Privée SA"
864091;7.33472;48.07917;"07° 20' 05.00'' Est, 48° 04' 45.00'' Nord";"68066";;"2 R ST NIKLAAS";"68000";"COLMAR";"Immeuble"; 49.5;"Société HLM"
864095;7.34806;48.07694;"07° 20' 53.00'' Est, 48° 04' 37.00'' Nord";"68066";;"9, AV DU GÉNÉRAL DE GAULLE RÉSIDENCE PLEIN AIR";"68000";"COLMAR";"Immeuble"; 31.0;"Copropriété, Syndic, SCI"
865523;7.02861;47.82444;"07° 01' 43.00'' Est, 47° 49' 28.00'' Nord";"68040";"THANNER HUBEL";;"68620";"BITSCHWILLER-LES-THANN";"Bâtiment"; 6.1;"Association"
868178;7.53250;47.89111;"07° 31' 57.00'' Est, 47° 53' 28.00'' Nord";"68041";"HUNDSRUECKEN";"CHEM RURAL SCHNECKENWEG";"68740";"BLODELSHEIM";"Pylône autostable"; 36.0;"ORANGE"
879612;7.36778;48.23389;"07° 22' 04.00'' Est, 48° 14' 02.00'' Nord";"68296";;"PL DE L'EGLISE EGLISE";"68590";"SAINT-HIPPOLYTE";"Monument religieux"; 35.6;"Commune, communauté de commune"
882408;7.32583;48.07528;"07° 19' 33.00'' Est, 48° 04' 31.00'' Nord";"68066";;"2 R DE BELGRADE";"68000";"COLMAR";"Immeuble"; 44.0;"Société HLM"
885204;7.18917;47.78750;"07° 11' 21.00'' Est, 47° 47' 15.00'' Nord";"68063";"ZOLLHAEUSLEWEG";"ZI";"68700";"CERNAY";"Pylône autostable"; 40.4;"SFR"
885407;7.29722;47.98278;"07° 17' 50.00'' Est, 47° 58' 58.00'' Nord";"68255";"BILL";"CHEM RURAL DIT D'AUSSERBILLWEG CHEM RURAL DIT DE BILLWEG";"68250";"PFAFFENHEIM";"Pylône autostable"; 24.0;"ORANGE"
892991;7.45389;47.59278;"07° 27' 14.00'' Est, 47° 35' 34.00'' Nord";"68207";"TIEFER GRUND";;"68730";"MICHELBACH-LE-BAS";"Pylône autostable"; 20.0;"ORANGE"
897770;7.53944;47.82000;"07° 32' 22.00'' Est, 47° 49' 12.00'' Nord";"68064";;"9 ESPACE CENTRE VILLAGE MAIRIE";"68490";"CHALAMPE";"Bâtiment"; 10.0;"Commune, communauté de commune"
903621;7.36389;47.76250;"07° 21' 50.00'' Est, 47° 45' 45.00'' Nord";"68154";;"R DE RIEDISHEIM 25";"68110";"ILLZACH";"Immeuble"; 28.8;"Société HLM"
905412;7.33444;47.75611;"07° 20' 04.00'' Est, 47° 45' 22.00'' Nord";"68224";;"R HUBNER 19";"68100";"MULHOUSE";"Immeuble"; 29.5;"Société HLM"
906130;7.32333;47.74167;"07° 19' 24.00'' Est, 47° 44' 30.00'' Nord";"68224";;"QUAI DES CIGOGNES 13";"68100";"MULHOUSE";"Immeuble"; 29.1;"Société HLM"
909733;7.35167;47.89833;"07° 21' 06.00'' Est, 47° 53' 54.00'' Nord";"68266";;"1 R DE LA GARE";"68890";"REGUISHEIM";"Bâtiment"; 25.0;"Société Privée SA"
917627;7.34861;47.77611;"07° 20' 55.00'' Est, 47° 46' 34.00'' Nord";"68154";;"R DU STADE STADE JOSEPH BIECHLIN";"68110";"ILLZACH";"Pylône tubulaire"; 37.0;"IFW-FREE"
918067;7.19139;47.87917;"07° 11' 29.00'' Est, 47° 52' 45.00'' Nord";"68315";"LES VIOLETTES";"HOTEL LES VIOLETTES ROUTE DE THIERENBACH";"68360";"SOULTZ-HAUT-RHIN";"Bâtiment"; 17.0;"Société Privée SA"
918314;7.34694;47.78778;"07° 20' 49.00'' Est, 47° 47' 16.00'' Nord";"68154";;"18, R D'ENSISHEIM";"68110";"ILLZACH";"Immeuble"; 19.0;"Société HLM"
919632;7.35861;48.07889;"07° 21' 31.00'' Est, 48° 04' 44.00'' Nord";"68066";;"35 R DES CLES";"68000";"COLMAR";"Bâtiment"; 15.0;"Particulier"
920566;7.17472;47.72694;"07° 10' 29.00'' Est, 47° 43' 37.00'' Nord";"68059";;"A36 PR 8 4000 POINT D APPUI DE BURNHAUPT";"68520";"BURNHAUPT-LE-BAS";"Pylône autostable"; 50.0;"Sociétés d'Autoroutes"
923006;7.33472;47.74694;"07° 20' 05.00'' Est, 47° 44' 49.00'' Nord";"68224";;"1 PL DE LA CONCORDE";"68100";"MULHOUSE";"Bâtiment"; 20.7;"Copropriété, Syndic, SCI"
923644;7.36889;47.78417;"07° 22' 08.00'' Est, 47° 47' 03.00'' Nord";"68300";;"R DU QUATELBACH";"68390";"SAUSHEIM";"Pylône autostable"; 7.0;"Commune, communauté de commune"
939420;7.01889;47.64639;"07° 01' 08.00'' Est, 47° 38' 47.00'' Nord";"68065";"SUR LE PONT ES CARSE";"RUE DES VOSGES SILO C.A.C.";"68210";"CHAVANNES-SUR-L'ETANG";"Silo"; 43.0;"Coopérative Agricole, Vinicole"
940666;7.36306;48.08194;"07° 21' 47.00'' Est, 48° 04' 55.00'' Nord";"68066";;"R DE LA CAVALERIE PYLÔNE EXISTANT COMMISSARIAT DE POLICE";"68000";"COLMAR";"Pylône autostable"; 46.0;"Commune, communauté de commune"
949510;7.16722;48.13667;"07° 10' 02.00'' Est, 48° 08' 12.00'' Nord";"68249";"ROCHE DU CHAT NOIR";"SITE ITAS TIM";"68370";"ORBEY";"Pylône autostable"; 28.9;"Société Privée SA"
959877;7.44194;48.05639;"07° 26' 31.00'' Est, 48° 03' 23.00'' Nord";"68007";;"RN415 DE ANDOLSHEIM À NEUF-BRISACH ETANG DE PÊCHE PTT";"68280";"ANDOLSHEIM";"Pylône autostable"; 36.0;"ORANGE"
961076;7.58583;47.59861;"07° 35' 09.00'' Est, 47° 35' 55.00'' Nord";"68149";;"3 RUE DU RHIN";"68330";"HUNINGUE";"Immeuble"; 11.0;"Société Privée SA"
962748;7.53139;47.59944;"07° 31' 53.00'' Est, 47° 35' 58.00'' Nord";"68297";;"AÉROPORT BALE-MULHOUSE LOCAL RADIO 6ÈME ÉTAGE";"68300";"SAINT-LOUIS";"Bâtiment"; 35.0;"CCI,Ch Metiers,Port Aut,Aérop"
968792;7.33694;48.08722;"07° 20' 13.00'' Est, 48° 05' 14.00'' Nord";"68066";;"RUE DE STAUFFEN";"68000";"COLMAR";"Bâtiment"; 22.0;"Commune, communauté de commune"
993746;7.24917;48.07028;"07° 14' 57.00'' Est, 48° 04' 13.00'' Nord";"68374";"BLAULACHMATTEN";"CHEM STADE DE FOOTBALL SAINT GILLES";"68124";"WINTZENHEIM";"Pylône autostable"; 30.0;"ORANGE"
1007150;7.13778;47.99667;"07° 08' 16.00'' Est, 47° 59' 48.00'' Nord";"68358";"WASENMATTEN";;"68230";"WASSERBOURG";"Pylône autostable"; 20.0;"BOUYGUES"
1013757;7.33139;47.81361;"07° 19' 53.00'' Est, 47° 48' 49.00'' Nord";"68376";;"20 R DU VIEIL ARMAND";"68270";"WITTENHEIM";"Immeuble"; 24.8;"Copropriété, Syndic, SCI"
1019405;7.41222;47.92111;"07° 24' 44.00'' Est, 47° 55' 16.00'' Nord";"68205";;"BASE MILITAIRE";"68890";"MEYENHEIM";"Château d'eau - réservoir"; 33.0;"Etat, Ministère"
1019416;7.37056;48.08167;"07° 22' 14.00'' Est, 48° 04' 54.00'' Nord";"68066";;"10 R DES BONNES GENS";"68000";"COLMAR";"Bâtiment"; 30.0;"Société Privée SA"
1021396;7.34056;47.75389;"07° 20' 26.00'' Est, 47° 45' 14.00'' Nord";"68224";;"21 R D'ENSISHEIM";"68100";"MULHOUSE";"Immeuble"; 30.2;"Société HLM"
1027059;7.22417;47.85417;"07° 13' 27.00'' Est, 47° 51' 15.00'' Nord";"68032";"HINTERFELD";;"68500";"BERRWILLER";"Pylône autostable"; 24.0;"ORANGE"
1029440;7.22472;47.62722;"07° 13' 29.00'' Est, 47° 37' 38.00'' Nord";"68062";;"RUE DES SAULES";"68130";"CARSPACH";"Bâtiment"; 15.0;"EDF GDF"
1029752;7.25778;47.75333;"07° 15' 28.00'' Est, 47° 45' 12.00'' Nord";"68195";"R DE MULHOUSE";"D 20 POSTE H.T.";"68460";"LUTTERBACH";"Bâtiment"; 10.0;"EDF GDF"
1029759;7.35333;47.76222;"07° 21' 12.00'' Est, 47° 45' 44.00'' Nord";"68154";;"RUE DE L'ILL";"68110";"ILLZACH";"Bâtiment"; 9.0;"EDF GDF"
1029901;6.96333;47.90472;"06° 57' 48.00'' Est, 47° 54' 17.00'' Nord";"68247";"THALHORN";;"68830";"ODEREN";"Pylône autostable"; 18.0;"TDF"
1031159;7.31389;47.78389;"07° 18' 50.00'' Est, 47° 47' 02.00'' Nord";"68166";;"RUE DES FAISANS";"68260";"KINGERSHEIM";"Bâtiment"; 8.0;"EDF GDF"
1039422;7.35028;47.77639;"07° 21' 01.00'' Est, 47° 46' 35.00'' Nord";"68154";;"R DUSTADE STADE JOSEPH BIECHLIN";"68110";"ILLZACH";"Pylône autostable"; 35.0;"Commune, communauté de commune"
1041450;7.42417;47.76861;"07° 25' 27.00'' Est, 47° 46' 07.00'' Nord";"68278";"ILE NAPOLEON";"ROUTE DE CHALAMPÉ";"68170";"RIXHEIM";"Château d'eau - réservoir"; 46.3;"Société Privée SA"
1044123;7.30194;47.75389;"07° 18' 07.00'' Est, 47° 45' 14.00'' Nord";"68224";"HIRTZBACH";"16 RUE DE HIRTZBACH PRÈS DU BÂT LA PASSERELLE RECTOR LESAGE";"68100";"MULHOUSE";"Mât métallique"; 9.0;"ORANGE"
1044719;7.09694;48.01861;"07° 05' 49.00'' Est, 48° 01' 07.00'' Nord";"68051";"KRAEHENBERG";;"68380";"BREITENBACH-HAUT-RHIN";"Pylône autostable"; 30.0;"ORANGE"
1046902;7.38111;47.76944;"07° 22' 52.00'' Est, 47° 46' 10.00'' Nord";"68154";;"1F, AV DE LYON ZI ILE NAPOLEON";"68110";"ILLZACH";"Bâtiment"; 6.0;"EDF GDF"
1058407;7.14667;47.73778;"07° 08' 48.00'' Est, 47° 44' 16.00'' Nord";"68060";;"16, R PRINCIPALE CENTRAL TÉLÉPHONIQUE";"68520";"BURNHAUPT-LE-HAUT";"Pylône autostable"; 42.0;"ORANGE Services Fixes"
1059331;7.13417;47.85167;"07° 08' 03.00'' Est, 47° 51' 06.00'' Nord";"68359";"LE MOLKENRAIN";;"68700";"WATTWILLER";"Pylône autostable"; 20.0;"Gendarmerie"
1067757;7.34806;48.18667;"07° 20' 53.00'' Est, 48° 11' 12.00'' Nord";"68269";"STEINKREUZMATTEN";"ROUTE DE GUÉMAR   CASINO BARRIÈRE";"68150";"RIBEAUVILLE";"Pylône tubulaire"; 9.0;"ORANGE"
1153010;7.19889;48.25028;"07° 11' 56.00'' Est, 48° 15' 01.00'' Nord";"68298";"FERTRUPT";"RUE TREIZIC D 146";"68160";"SAINTE-MARIE-AUX-MINES";"Bâtiment"; 7.0;"EDF GDF"
1154699;7.13083;48.03694;"07° 07' 51.00'' Est, 48° 02' 13.00'' Nord";"68226";"LEYMEL";"CHEMIN DU NAGELSTAL";"68140";"MUNSTER";"Bâtiment"; 10.0;"EDF GDF"
1154714;7.36861;48.18889;"07° 22' 07.00'' Est, 48° 11' 20.00'' Nord";"68113";"TEUFELSORT";"ZONE INDUSTRIELLE D106";"68970";"GUEMAR";"Bâtiment"; 7.0;"EDF GDF"
1154850;7.37639;47.86611;"07° 22' 35.00'' Est, 47° 51' 58.00'' Nord";"68082";"SCHORFELD";"ROUTE DE MUNCHHOUSE";"68190";"ENSISHEIM";"Bâtiment"; 7.0;"EDF GDF"
1159438;7.02972;47.87250;"07° 01' 47.00'' Est, 47° 52' 21.00'' Nord";"68292";;"13 RUE DE LA GARE CSEC";"68550";"SAINT-AMARIN";"Bâtiment"; 35.0;"SDIS, secours, incendie"
1163811;7.33056;47.74222;"07° 19' 50.00'' Est, 47° 44' 32.00'' Nord";"68224";;"RUE GAY-LUSSAC";"68100";"MULHOUSE";"Bâtiment"; 6.0;"EDF GDF"
1164004;6.99722;47.77667;"06° 59' 50.00'' Est, 47° 46' 36.00'' Nord";"68201";"EICHBOURG";"RUE PASTEUR";"68290";"MASEVAUX";"Pylône autostable"; 12.0;"EDF GDF"
1168122;7.10639;47.95139;"07° 06' 23.00'' Est, 47° 57' 05.00'' Nord";"68188";"OBERSENGERN";"CENTRE DE COLONIE DE VACANCES PTT";"68610";"LINTHAL";"Bâtiment"; 13.0;"La Poste"
1171900;7.56250;47.90333;"07° 33' 45.00'' Est, 47° 54' 12.00'' Nord";"68091";"CNPE FESSENHEIM - SDM - TETRA";"CENTRALE NUCLÉAIRE DE FESSENHEIM";"68740";"FESSENHEIM";"Bâtiment"; 50.0;"EDF GDF"
1172142;7.56250;47.90389;"07° 33' 45.00'' Est, 47° 54' 14.00'' Nord";"68091";"CNPE DE FESSENHEIM";"D52 CENTRALE NUCLÉAIRE DE FESSENHEIM";"68740";"FESSENHEIM";"Bâtiment"; 10.0;"EDF GDF"
1186270;7.35556;47.76250;"07° 21' 20.00'' Est, 47° 45' 45.00'' Nord";"68154";;"RUE DE L'ILL";"68110";"ILLZACH";"Bâtiment"; 22.0;"EDF GDF"
1189724;7.09861;47.90111;"07° 05' 55.00'' Est, 47° 54' 04.00'' Nord";"68102";"LE GRAND BALLON";;"68690";"GEISHOUSE";"Bâtiment"; 7.0;"Aviation Civile"
1189726;7.09861;47.90111;"07° 05' 55.00'' Est, 47° 54' 04.00'' Nord";"68102";"LE GRAND BALLON";;"68690";"GEISHOUSE";"Pylône autostable"; 30.0;"Aviation Civile"
1189813;7.51806;47.77333;"07° 31' 05.00'' Est, 47° 46' 24.00'' Nord";"68253";"USINE ELECTRIQUE OTTMARSCHEIM";"RUE DU MASSIF CENTRAL";"68490";"OTTMARSHEIM";"Bâtiment"; 8.0;"EDF GDF"
1205062;7.52333;47.58500;"07° 31' 24.00'' Est, 47° 35' 06.00'' Nord";"68135";;"AEROPORT DE BALE MULHOUSE HANGAR";"68220";"HESINGUE";"Bâtiment"; 17.0;"Société Privée SA"
1205064;7.52472;47.58528;"07° 31' 29.00'' Est, 47° 35' 07.00'' Nord";"68135";;"AEROPORT DE BALE MULHOUSE HANGAR";"68220";"HESINGUE";"Bâtiment"; 17.0;"Société Privée SA"
1273168;7.31028;47.79333;"07° 18' 37.00'' Est, 47° 47' 36.00'' Nord";"68166";;"RUE DE LA GRIOTTE DÉCHETTERIE";"68260";"KINGERSHEIM";"Pylône autostable"; 30.0;"ORANGE"
1277113;7.35583;48.09500;"07° 21' 21.00'' Est, 48° 05' 42.00'' Nord";"68066";;"1 AV DE LA FOIRE AUX VINS SERVICE SALUBRITE";"68000";"COLMAR";"Bâtiment"; 20.0;"Commune, communauté de commune"
1279460;7.07028;47.83944;"07° 04' 13.00'' Est, 47° 50' 22.00'' Nord";"68372";"STIMPFELRAIN VERSANT EST";"CHEMIN COMMUNAL";"68760";"WILLER-SUR-THUR";"Pylône autostable"; 20.0;"ORANGE Services Fixes"
1279562;7.22639;48.20639;"07° 13' 35.00'' Est, 48° 12' 23.00'' Nord";"68269";"SCHWARZENBERG";;"68150";"RIBEAUVILLE";"Pylône autostable"; 44.0;"Commune, communauté de commune"
1284225;7.30778;47.72806;"07° 18' 28.00'' Est, 47° 43' 41.00'' Nord";"68056";;"18 RUE DES FRÈRES LUMIÈRES FACULTÉ DES SCIENCES ET TECHNIQUES";"68350";"BRUNSTATT";"Bâtiment"; 70.0;"Société Privée SA"
1287207;7.09972;48.11222;"07° 05' 59.00'' Est, 48° 06' 44.00'' Nord";"68249";"LAC NOIR";"D48.3";"68370";"ORBEY";"Pylône autostable"; 20.5;"EDF GDF"
1290554;7.36917;47.74639;"07° 22' 09.00'' Est, 47° 44' 47.00'' Nord";"68271";;"14 RUE DE LA PAIX CASERNE POMPIERS";"68400";"RIEDISHEIM";"Bâtiment"; 17.0;"SDIS, secours, incendie"
1292168;7.33000;48.07417;"07° 19' 48.00'' Est, 48° 04' 27.00'' Nord";"68066";;"23 AV DE ROME";"68000";"COLMAR";"Immeuble"; 47.0;"Société HLM"
1308757;7.43056;47.80833;"07° 25' 50.00'' Est, 47° 48' 30.00'' Nord";"68022";;"D 20 B RUE DE BANTZENHEIM";"68390";"BATTENHEIM";"Pylône autostable"; 27.0;"Etat, Ministère"
1308763;7.58222;47.59083;"07° 34' 56.00'' Est, 47° 35' 27.00'' Nord";"68149";;"24 RUE BLANCHARD GENDARMERIE ISL";"68330";"HUNINGUE";"Bâtiment"; 20.0;"Etat, Ministère"
1308810;7.56222;47.59111;"07° 33' 44.00'' Est, 47° 35' 28.00'' Nord";"68297";;"5 R DU GENERAL CASSAGNOU SERVICE SECURITE";"68300";"SAINT-LOUIS";"Bâtiment"; 15.0;"Etat, Ministère"
1330835;7.14056;48.04444;"07° 08' 26.00'' Est, 48° 02' 40.00'' Nord";"68226";"NARRENSTEIN EBENE";;"68140";"MUNSTER";"Pylône autostable"; 30.0;"ORANGE"
1336083;7.29028;48.06667;"07° 17' 25.00'' Est, 48° 04' 00.00'' Nord";"68374";;"ROTENBERG";"68124";"WINTZENHEIM";"Pylône autostable"; 25.0;"TDF"
1347126;7.36417;47.65861;"07° 21' 51.00'' Est, 47° 39' 31.00'' Nord";"68265";;"CHE DU HOMBERG";"68510";"RANTZWILLER";"Pylône autostable"; 32.5;"TDF"
1379796;7.32083;47.74833;"07° 19' 15.00'' Est, 47° 44' 54.00'' Nord";"68224";;"24, RUE DU FIL";"68100";"MULHOUSE";"Bâtiment"; 17.0;"Particulier"
1379961;7.33917;47.80972;"07° 20' 21.00'' Est, 47° 48' 35.00'' Nord";"68376";;"RUE D ENSISHEIM";"68270";"WITTENHEIM";"Monument religieux"; 44.9;"Commune, communauté de commune"
1392851;7.35500;48.07861;"07° 21' 18.00'' Est, 48° 04' 43.00'' Nord";"68066";;"28 R DES TETES";"68000";"COLMAR";"Immeuble"; 17.1;"Copropriété, Syndic, SCI"
1412333;7.35583;48.13083;"07° 21' 21.00'' Est, 48° 07' 51.00'' Nord";"68026";;"1A RUE DE L'INDUSTRIE";"68126";"BENNWIHR";"Bâtiment"; 31.3;"Coopérative Agricole, Vinicole"
1414384;7.30750;48.09472;"07° 18' 27.00'' Est, 48° 05' 41.00'' Nord";"68155";;"3 RUE ALBERT SCHWEITZER";"68040";"INGERSHEIM";"Immeuble"; 18.0;"Société HLM"
1414962;7.44472;47.94972;"07° 26' 41.00'' Est, 47° 56' 59.00'' Nord";"68290";"MITTLERE WAELDEIM";"CHEMIN DE L'ETANG";"68740";"RUSTENHART";"Pylône autostable"; 39.0;"TDF"
1422877;7.30750;47.77583;"07° 18' 27.00'' Est, 47° 46' 33.00'' Nord";"68256";;"22 RUE DU COLLEGE";"68120";"PFASTATT";"Pylône tubulaire"; 27.4;"Commune, communauté de commune"
1422879;7.40639;47.75500;"07° 24' 23.00'' Est, 47° 45' 18.00'' Nord";"68278";;"RUE DE L'ILE NAPOLEON";"68170";"RIXHEIM";"Pylône tubulaire"; 25.0;"IFW-FREE"
1424393;7.10222;47.81056;"07° 06' 08.00'' Est, 47° 48' 38.00'' Nord";"68334";;"1 PLACE JOFFRE";"68800";"THANN";"Bâtiment"; 18.0;"Commune, communauté de commune"
1425172;7.57806;47.58972;"07° 34' 41.00'' Est, 47° 35' 23.00'' Nord";"68149";;"R EUGENE JUNG";"68330";"HUNINGUE";"Bâtiment"; 16.0;"Commune, communauté de commune"
1426487;7.58028;48.02139;"07° 34' 49.00'' Est, 48° 01' 17.00'' Nord";"68351";;"ILE DU RHIN";"68600";"VOGELGRUN";"Local technique"; 4.0;"Commune, communauté de commune"
1426489;7.53889;48.07222;"07° 32' 20.00'' Est, 48° 04' 20.00'' Nord";"68172";;"RUE DES JONCQUILLES";"68320";"KUNHEIM";"Local technique"; 4.0;"Commune, communauté de commune"
1426491;7.53944;48.04444;"07° 32' 22.00'' Est, 48° 02' 40.00'' Nord";"68036";;"RUE DES CELTES";"68600";"BIESHEIM";"Local technique"; 4.0;"Commune, communauté de commune"
1426495;7.57028;48.01472;"07° 34' 13.00'' Est, 48° 00' 53.00'' Nord";"68351";;"RUE DES BLES";"68600";"VOGELGRUN";"Local technique"; 4.0;"Commune, communauté de commune"
1426497;7.55639;48.00583;"07° 33' 23.00'' Est, 48° 00' 21.00'' Nord";"68001";;"RUE ALBERT SCHULTZ";"68600";"ALGOLSHEIM";"Local technique"; 4.0;"Commune, communauté de commune"
1426499;7.54500;47.97278;"07° 32' 42.00'' Est, 47° 58' 22.00'' Nord";"68130";;"RUE DU MANOIR";"68600";"HEITEREN";"Local technique"; 4.0;"Commune, communauté de commune"
1426501;7.52167;47.96806;"07° 31' 18.00'' Est, 47° 58' 05.00'' Nord";"68130";;"RUE DU CHATEAU D EAU";"68600";"HEITEREN";"Bâtiment"; 4.0;"Commune, communauté de commune"
1426503;7.54111;47.91750;"07° 32' 28.00'' Est, 47° 55' 03.00'' Nord";"68091";;"RUE DE BALGAU";"68740";"FESSENHEIM";"Local technique"; 4.0;"Commune, communauté de commune"
1426505;7.54972;48.04194;"07° 32' 59.00'' Est, 48° 02' 31.00'' Nord";"68036";;"RUE DE RHEINWALD";"68600";"BIESHEIM";"Local technique"; 4.0;"Commune, communauté de commune"
1426507;7.54000;48.03833;"07° 32' 24.00'' Est, 48° 02' 18.00'' Nord";"68036";;"RUE DU SUD";"68600";"BIESHEIM";"Local technique"; 4.0;"Commune, communauté de commune"
1426509;7.56056;48.03333;"07° 33' 38.00'' Est, 48° 01' 60.00'' Nord";"68036";;"RTE DU RHIN RD 52";"68600";"BIESHEIM";"Pylône autostable"; 6.0;"Commune, communauté de commune"
1426511;7.45583;48.00667;"07° 27' 21.00'' Est, 48° 00' 24.00'' Nord";"68136";;"RTE D APPENWHIR";"68600";"HETTENSCHLAG";"Local technique"; 4.0;"Commune, communauté de commune"
1426513;7.51417;48.00139;"07° 30' 51.00'' Est, 48° 00' 05.00'' Nord";"68360";;"RTE DE DESSENHEIM RD2 BIS";"68600";"WECKOLSHEIM";"Local technique"; 4.0;"Commune, communauté de commune"
1426515;7.54889;47.93556;"07° 32' 56.00'' Est, 47° 56' 08.00'' Nord";"68230";;"RTE DE HEITEREN";"68740";"NAMBSHEIM";"Local technique"; 4.0;"Commune, communauté de commune"
1426517;7.55667;48.01750;"07° 33' 24.00'' Est, 48° 01' 03.00'' Nord";"68352";;"RUE DE LA PAIX";"68600";"VOLGELSHEIM";"Local technique"; 4.0;"Commune, communauté de commune"
1426519;7.55333;48.03250;"07° 33' 12.00'' Est, 48° 01' 57.00'' Nord";"68352";;"RUE DU GAL BEAUPUY";"68600";"VOLGELSHEIM";"Local technique"; 4.0;"Commune, communauté de commune"
1426521;7.49000;47.98083;"07° 29' 24.00'' Est, 47° 58' 51.00'' Nord";"68069";;"RUE DE LA LIBERTE";"68600";"DESSENHEIM";"Local technique"; 4.0;"Commune, communauté de commune"
1426523;7.52917;47.91917;"07° 31' 45.00'' Est, 47° 55' 09.00'' Nord";"68091";;"RUE DES ROMAINS";"68740";"FESSENHEIM";"Local technique"; 4.0;"Commune, communauté de commune"
1426525;7.46361;47.94167;"07° 27' 49.00'' Est, 47° 56' 30.00'' Nord";"68290";;"RTE DE DESSENHEIM";"68740";"RUSTENHART";"Local technique"; 4.0;"Commune, communauté de commune"
1426527;7.58528;47.98611;"07° 35' 07.00'' Est, 47° 59' 10.00'' Nord";"68246";;"RTE DE GEISWASSER";"68600";"OBERSAASHEIM";"Local technique"; 4.0;"Commune, communauté de commune"
1426529;7.56694;48.02000;"07° 34' 01.00'' Est, 48° 01' 12.00'' Nord";"68351";;"INTERSECTION D52-RUE DE LA GARE";"68600";"VOGELGRUN";"Local technique"; 4.0;"Commune, communauté de commune"
1426876;7.52611;48.01694;"07° 31' 34.00'' Est, 48° 01' 01.00'' Nord";"68231";;"4 RUE DE L ARSENAL";"68600";"NEUF-BRISACH";"Immeuble"; 30.0;"Commune, communauté de commune"
1436090;7.23806;48.15250;"07° 14' 17.00'' Est, 48° 09' 09.00'' Nord";"68162";;"77 ROUTE DE LAPOUTROIE USINE DS SMITH";"68240";"KAYSERSBERG";"Bâtiment"; 60.0;"Société Privée SA"
1443537;7.20639;48.04361;"07° 12' 23.00'' Est, 48° 02' 37.00'' Nord";"68316";;"5 RUE DE LA GARE";"68230";"SOULTZBACH-LES-BAINS";"Pylône haubané"; 28.0;"TDF"
1444186;7.40861;47.60333;"07° 24' 31.00'' Est, 47° 36' 12.00'' Nord";"68132";;"R DU RESERVOIR PROCHE DE LA RD 21";"68510";"HELFRANTZKIRCH";"Pylône autostable"; 40.0;"FPS TOWERS"
1445281;7.48111;48.06944;"07° 28' 52.00'' Est, 48° 04' 10.00'' Nord";"68367";;"RTE DE FORTSCHWIR";"68320";"WIDENSOLEN";"Local technique"; 2.0;"Commune, communauté de commune"
1445283;7.53306;48.09583;"07° 31' 59.00'' Est, 48° 05' 45.00'' Nord";"68019";;"WUESTE STUCK RD 468";"68320";"BALTZENHEIM";"Local technique"; 2.0;"Commune, communauté de commune"
1445285;7.53861;48.01222;"07° 32' 19.00'' Est, 48° 00' 44.00'' Nord";"68352";;"R DU POILU";"68600";"VOLGELSHEIM";"Local technique"; 2.0;"Commune, communauté de commune"
1445287;7.55917;48.00889;"07° 33' 33.00'' Est, 48° 00' 32.00'' Nord";"68001";;"R DE LA PROMENADE";"68600";"ALGOLSHEIM";"Local technique"; 2.0;"Commune, communauté de commune"
1445289;7.55583;48.06750;"07° 33' 21.00'' Est, 48° 04' 03.00'' Nord";"68172";;"ROUTE INDUSRIELLE-D52 USINE ELECTRIQUE";"68320";"KUNHEIM";"Local technique"; 2.0;"Commune, communauté de commune"
1445291;7.55167;48.11528;"07° 33' 06.00'' Est, 48° 06' 55.00'' Nord";"68009";;"R DU SPONECK";"68320";"ARTZENHEIM";"Local technique"; 2.0;"Commune, communauté de commune"
1446842;7.33833;47.79250;"07° 20' 18.00'' Est, 47° 47' 33.00'' Nord";"68166";;"RUE DE LA  HIRSCHAU";"68260";"KINGERSHEIM";"Monument religieux"; 38.4;"Commune, communauté de commune"
1446846;7.32194;47.77028;"07° 19' 19.00'' Est, 47° 46' 13.00'' Nord";"68224";;"54 RUE DE SOULTZ EGLISE";"68100";"MULHOUSE";"Monument religieux"; 47.0;"Commune, communauté de commune"
1446873;7.29889;47.73722;"07° 17' 56.00'' Est, 47° 44' 14.00'' Nord";"68224";;"RUE MATHIAS GRUNEWALD";"68100";"MULHOUSE";"Immeuble"; 45.0;"Société HLM"
1447326;7.31278;47.74556;"07° 18' 46.00'' Est, 47° 44' 44.00'' Nord";"68224";;"AV ARISTIDE BRIAND CHEMINÉE";"68100";"MULHOUSE";"Bâtiment"; 31.0;"Société Privée SA"
1448830;7.24111;47.78889;"07° 14' 28.00'' Est, 47° 47' 20.00'' Nord";"68375";;"RUE DE WAHLWEG";"68310";"WITTELSHEIM";"Bâtiment"; 15.0;"Société Privée SA"
1448832;7.04861;47.98611;"07° 02' 55.00'' Est, 47° 59' 10.00'' Nord";"68311";;"2 LIEU DIT EICHWAELDLE D 27";"68380";"SONDERNACH";"Immeuble"; 7.0;"Commune, communauté de commune"
1450683;7.30889;48.17472;"07° 18' 32.00'' Est, 48° 10' 29.00'' Nord";"68147";"HARTH";;"68150";"HUNAWIHR";"Pylône autostable"; 21.0;"TDF"
1456305;7.34194;47.75861;"07° 20' 31.00'' Est, 47° 45' 31.00'' Nord";"68224";;"42 BOULEVARD DES ALLIES";"68100";"MULHOUSE";"Monument religieux"; 45.0;"Copropriété, Syndic, SCI"
1457767;7.45111;48.04611;"07° 27' 04.00'' Est, 48° 02' 46.00'' Nord";"68331";"KASTENWALD";"FORET COMMUNALE DE SUNDHOFFEN,";"68280";"SUNDHOFFEN";"Pylône autostable"; 35.0;"FPS TOWERS"
1463486;7.35528;47.75333;"07° 21' 19.00'' Est, 47° 45' 12.00'' Nord";"68224";;"RUE DE LA HARDT";"68100";"MULHOUSE";"Immeuble"; 18.3;"Copropriété, Syndic, SCI"
1463939;7.32583;47.80278;"07° 19' 33.00'' Est, 47° 48' 10.00'' Nord";"68376";;"RUE DES MINES";"68270";"WITTENHEIM";"Pylône tubulaire"; 25.0;"ORANGE"
1471218;7.13417;47.58750;"07° 08' 03.00'' Est, 47° 35' 15.00'' Nord";"68202";;"CHEMIN RURAL MUEHLBERG";"68210";"MERTZEN";"Pylône autostable"; 35.0;"TDF"
1477200;7.38056;48.10083;"07° 22' 50.00'' Est, 48° 06' 03.00'' Nord";"68066";;"172 RUE DU LADHOF";"68000";"COLMAR";"Bâtiment"; 23.0;"Société Privée SA"
1482779;7.36083;48.09806;"07° 21' 39.00'' Est, 48° 05' 53.00'' Nord";"68066";;"AV DE LA FOIRE AUX VINS PARC DES EXPOSITIONS";"68000";"COLMAR";"Pylône tubulaire"; 21.0;"ORANGE"
1483683;7.37944;48.09944;"07° 22' 46.00'' Est, 48° 05' 58.00'' Nord";"68066";;"170 RUE DU LADHOF";"68000";"COLMAR";"Bâtiment"; 20.0;"Société Privée SA"
1490369;7.56556;48.06722;"07° 33' 56.00'' Est, 48° 04' 02.00'' Nord";"68172";;"11, RUE INDUSTRIELLE ENTREPRISE SCA TISSUE FRANCE";"68320";"KUNHEIM";"Bâtiment"; 23.5;"Société Privée SA"
1498470;7.46444;47.58500;"07° 27' 52.00'' Est, 47° 35' 06.00'' Nord";"68207";;"ZEHNTELWEG";"68730";"MICHELBACH-LE-BAS";"Pylône autostable"; 21.0;"FPS TOWERS"
1498525;7.17583;47.49750;"07° 10' 33.00'' Est, 47° 29' 51.00'' Nord";"68257";"POULAYWALD";"FORÊT COMMUNALE DE PFETTERHOUSE";"68480";"PFETTERHOUSE";"Pylône autostable"; 44.0;"ORANGE"
1499084;7.30806;47.81083;"07° 18' 29.00'' Est, 47° 48' 39.00'' Nord";"68376";;"3 R DU MAINE SOCIÉTÉ 3D ÉCLAIRAGE";"68270";"WITTENHEIM";"Pylône autostable"; 30.0;"SFR"
1502609;7.35111;48.07472;"07° 21' 04.00'' Est, 48° 04' 29.00'' Nord";"68066";;"3 RUE BRUAT PREFECTURE DU HAUT RHIN";"68000";"COLMAR";"Immeuble"; 19.0;"Etat, Ministère"
1505013;7.02639;47.78722;"07° 01' 35.00'' Est, 47° 47' 14.00'' Nord";"68046";"SCHIRM";;"68290";"BOURBACH-LE-HAUT";"Pylône autostable"; 30.0;"TDF"
1511559;7.38750;47.78250;"07° 23' 15.00'' Est, 47° 46' 57.00'' Nord";"68300";;"RD 201 HÔTEL MERCURE";"68390";"SAUSHEIM";"Immeuble"; 23.1;"Société Privée SA"
1518265;7.36333;48.09583;"07° 21' 48.00'' Est, 48° 05' 45.00'' Nord";"68066";;"3 RUE TIMKEN";"68000";"COLMAR";"Bâtiment"; 3.0;"Société Privée SA"
1525204;7.33028;47.75917;"07° 19' 49.00'' Est, 47° 45' 33.00'' Nord";"68224";;"170 AV DE COLMAR RES ROND POINT DSI";"68100";"MULHOUSE";"Immeuble"; 50.0;"Société Privée SA"
1528740;7.59139;47.60056;"07° 35' 29.00'' Est, 47° 36' 02.00'' Nord";"68349";"KIRKELIWOERTH";"RUE DU RHIN";"68128";"VILLAGE-NEUF";"Pylône autostable"; 36.0;"ORANGE"
1536140;7.19333;48.17306;"07° 11' 36.00'' Est, 48° 10' 23.00'' Nord";"68097";;"RUE DE GIROGOUTTE";"68240";"FRELAND";"Pylône autostable"; 20.0;"TDF"
1537906;7.52667;47.56139;"07° 31' 36.00'' Est, 47° 33' 41.00'' Nord";"68126";;"1 RUE DE HAGENTHAL RESEAU POMPIERS";"68220";"HEGENHEIM";"Bâtiment"; 15.0;"Commune, communauté de commune"
1539551;7.38750;47.76694;"07° 23' 15.00'' Est, 47° 46' 01.00'' Nord";"68154";;"R DE LA GARE";"68110";"ILLZACH";"Pylône autostable"; 36.0;"ORANGE"
1545004;7.31472;47.75028;"07° 18' 53.00'' Est, 47° 45' 01.00'' Nord";"68224";;"RUE DE THANN";"68100";"MULHOUSE";"Bâtiment"; 53.0;"Société Privée SA"
1546110;7.31611;47.74944;"07° 18' 58.00'' Est, 47° 44' 58.00'' Nord";"68224";;"13 RUE DE PFASTATT QUARTIER DMC (ANC. USINE)";"68200";"MULHOUSE";"Bâtiment"; 18.0;"Société Privée SA"
1546131;7.32833;47.87333;"07° 19' 42.00'' Est, 47° 52' 24.00'' Nord";"68082";;"2, RUE GUSTAVE EIFFEL";"68190";"ENSISHEIM";"Bâtiment"; 8.0;"Société Privée SA"
1546133;7.31722;47.87444;"07° 19' 02.00'' Est, 47° 52' 28.00'' Nord";"68343";;"33, RUE ST MICHEL";"68190";"UNGERSHEIM";"Bâtiment"; 12.0;"Société Privée SA"
1547915;7.35250;47.86583;"07° 21' 09.00'' Est, 47° 51' 57.00'' Nord";"68082";;"PL DE L'EGLISE EGLISE ST MARTIN";"68190";"ENSISHEIM";"Monument religieux"; 51.0;"Commune, communauté de commune"
1551516;7.35917;48.07833;"07° 21' 33.00'' Est, 48° 04' 42.00'' Nord";"68066";;"14 R DES PRETRES";"68000";"COLMAR";"Immeuble"; 16.0;"Société Privée SA"
1558077;7.50444;47.93889;"07° 30' 16.00'' Est, 47° 56' 20.00'' Nord";"68290";;"8 RHEINFELDERHOF";"68740";"RUSTENHART";"Silo"; 30.0;"Société Privée SA"
1565097;7.11167;47.80333;"07° 06' 42.00'' Est, 47° 48' 12.00'' Nord";"68334";;"AVENUE ROBERT SCHUMANN";"68800";"THANN";"Immeuble"; 34.0;"Société HLM"
1565102;7.32361;47.76778;"07° 19' 25.00'' Est, 47° 46' 04.00'' Nord";"68224";;"RUE DU STADE BOURTZWILLER";"68100";"MULHOUSE";"Pylône autostable"; 26.0;"Commune, communauté de commune"
1565103;7.32444;47.76889;"07° 19' 28.00'' Est, 47° 46' 08.00'' Nord";"68224";;"6 R DU STADE BOURTZWILLER";"68100";"MULHOUSE";"Pylône autostable"; 30.0;"Commune, communauté de commune"
