Numéro du support;Longitude;Latitude;"Position";"Insee";"Lieu dit";"Adresse";"Code postal";"Commune";"Nature du support";Hauteur en m;"Propriétaire"
15760;4.65028;46.66250;"04° 39' 01.00'' Est, 46° 39' 45.00'' Nord";"71201";"LES FONDERIES";;"71390";"FLEY";"Pylône autostable"; 42.0;"ORANGE Services Fixes"
15768;4.57778;46.65694;"04° 34' 40.00'' Est, 46° 39' 25.00'' Nord";"71214";"LES BRETAGNES";;"71460";"GENOUILLY";"Pylône autostable"; 25.0;"ORANGE Services Fixes"
15798;4.30750;46.29056;"04° 18' 27.00'' Est, 46° 17' 26.00'' Nord";"71133";;"R DE LA POSTE";"71800";"LA CLAYETTE";"Pylône autostable"; 16.0;"ORANGE Services Fixes"
15800;4.21556;46.30306;"04° 12' 56.00'' Est, 46° 18' 11.00'' Nord";"71337";"VESANGROS";;"71800";"OYE";"Pylône autostable"; 28.0;"TDF"
15810;4.51389;46.99056;"04° 30' 50.00'' Est, 46° 59' 26.00'' Nord";"71190";;"PL CHARLES DE GAULLE";"71360";"EPINAC";"Pylône autostable"; 12.0;"ORANGE Services Fixes"
15820;4.07639;46.20750;"04° 04' 35.00'' Est, 46° 12' 27.00'' Nord";"71238";"LE TRONCY";;"71340";"IGUERANDE";"Bâtiment"; 5.0;"ORANGE Services Fixes"
15828;4.68889;46.54278;"04° 41' 20.00'' Est, 46° 32' 34.00'' Nord";"71145";"ST-ROCH";;"71460";"CORMATIN";"Pylône tubulaire"; 17.0;"ORANGE Services Fixes"
37989;4.57056;46.73222;"04° 34' 14.00'' Est, 46° 43' 56.00'' Nord";"71277";"LE TÉLÉGRAPHE";"LA CROIX PAUTET";"71390";"MARCILLY-LES-BUXY";"Pylône autostable"; 24.0;"SFR"
38053;4.40528;47.00417;"04° 24' 19.00'' Est, 47° 00' 15.00'' Nord";"71162";"LA VERNUSSE";"EN CHARRON";"71400";"CURGY";"Pylône autostable"; 35.6;"SFR"
38059;4.46944;46.90917;"04° 28' 10.00'' Est, 46° 54' 33.00'' Nord";"71409";"LA MADELEINE";"BOIS DE LA GRANGE";"71490";"SAINT-EMILAND";"Pylône autostable"; 45.0;"SFR"
38063;4.67417;46.45278;"04° 40' 27.00'' Est, 46° 27' 10.00'' Nord";"71146";"LA MOUILLE";"TERRAIN SNCF";"71250";"CORTAMBERT";"Pylône autostable"; 35.0;"SFR"
63058;4.15028;46.26833;"04° 09' 01.00'' Est, 46° 16' 06.00'' Nord";"71415";"MONT HEURGUE";;"71110";"SAINTE-FOY";"Pylône haubané"; 21.0;"Titulaire programme Radio/TV"
63064;4.31944;46.78583;"04° 19' 10.00'' Est, 46° 47' 09.00'' Nord";"71103";"MEUSOY";;"71710";"CHARMOY";"Bâtiment"; 20.0;"Société Privée SA"
83654;4.82722;46.29972;"04° 49' 38.00'' Est, 46° 17' 59.00'' Nord";"71270";;"2 CARREFOUR DE L'EUROPE";"71000";"MACON";"Immeuble"; 46.1;"Société HLM"
100148;4.82444;46.29694;"04° 49' 28.00'' Est, 46° 17' 49.00'' Nord";"71270";;"51 AVE EDOUARD HERRIOT";"71000";"MACON";"Immeuble"; 44.0;"Société HLM"
102906;4.77111;46.20528;"04° 46' 16.00'' Est, 46° 12' 19.00'' Nord";"71481";"TERRE DES VIGNES";"CD 166  DE CHENAS RUE DES MORELS";"71570";"SAINT-SYMPHORIEN-D'ANCELLES";"Pylône autostable"; 24.0;"ORANGE Services Fixes"
102910;4.40722;46.43222;"04° 24' 26.00'' Est, 46° 25' 56.00'' Nord";"71025";"LE CHAMP DES GENETS";"PYLÔNE FT LE CHAMP DES GENETS";"71220";"BEAUBERY";"Pylône autostable"; 34.0;"ORANGE"
102923;4.74694;46.27417;"04° 44' 49.00'' Est, 46° 16' 27.00'' Nord";"71210";"AU GAULIA";"CHEM DES RONTETS";"71960";"FUISSE";"Pylône autostable"; 15.0;"ORANGE"
102943;5.11556;46.68306;"05° 06' 56.00'' Est, 46° 40' 59.00'' Nord";"71319";"LA CROIX";"CHEM DE LA GARE";"71440";"MONTRET";"Pylône autostable"; 30.0;"ORANGE"
102963;4.15583;46.78361;"04° 09' 21.00'' Est, 46° 47' 01.00'' Nord";"71098";"CHANTELOUP";;"71320";"CHARBONNAT";"Silo"; 21.0;"Particulier"
102965;4.37583;46.92417;"04° 22' 33.00'' Est, 46° 55' 27.00'' Nord";"71015";"LES QUEULOTS";;"71400";"AUXY";"Pylône autostable"; 36.0;"ORANGE"
102967;4.68917;46.56111;"04° 41' 21.00'' Est, 46° 33' 40.00'' Nord";"71272";"CARRIÈRE DES BACCOTTES";;"71460";"MALAY";"Pylône autostable"; 24.0;"ORANGE"
102973;4.65083;46.79278;"04° 39' 03.00'' Est, 46° 47' 34.00'' Nord";"71115";"DERRIÈRE LE CHÂTEAU";"RUSSILLY";"71510";"CHATEL-MORON";"Pylône autostable"; 24.0;"ORANGE"
112808;5.31194;46.52306;"05° 18' 43.00'' Est, 46° 31' 23.00'' Nord";"71157";"PMV DU MIROIR:SUD";;"71480";"CUISEAUX";"Pylône autostable"; 50.0;"Sociétés d'Autoroutes"
118830;5.24750;46.48889;"05° 14' 51.00'' Est, 46° 29' 20.00'' Nord";"71558";;"REAL";"71480";"VARENNES-SAINT-SAUVEUR";"Pylône tubulaire"; 12.0;"ORANGE Services Fixes"
119609;4.67861;46.73694;"04° 40' 43.00'' Est, 46° 44' 13.00'' Nord";"71034";"LES CHATS";;"71390";"BISSEY-SOUS-CRUCHAUD";"Pylône autostable"; 46.0;"ANFR"
173123;4.19333;46.85306;"04° 11' 36.00'' Est, 46° 51' 11.00'' Nord";"71192";;"AVAL RIVE DROITE";"71190";"ETANG-SUR-ARROUX";"Support non décrit"; 10.0;
173125;4.07806;46.47139;"04° 04' 41.00'' Est, 46° 28' 17.00'' Nord";"71588";;"AVAL RIVE GAUCHE";"71600";"VITRY-EN-CHAROLLAIS";"Support non décrit"; 10.0;
173127;4.03028;46.53361;"04° 01' 49.00'' Est, 46° 32' 01.00'' Nord";"71370";;"CD228";"71160";"RIGNY-SUR-ARROUX";"Support non décrit"; 10.0;
173133;4.02583;46.41028;"04° 01' 33.00'' Est, 46° 24' 37.00'' Nord";"71491";;"AERODROME";"71600";"SAINT-YAN";"Support non décrit"; 12.0;
173135;3.98000;46.47861;"03° 58' 48.00'' Est, 46° 28' 43.00'' Nord";"71176";;"AVAL PONT RIVE DROITE";"71160";"DIGOIN";"Support non décrit"; 12.0;
214348;4.48917;46.91583;"04° 29' 21.00'' Est, 46° 54' 57.00'' Nord";"71450";;"RST CAI ST-MARTIN COMMUNE PK 257.034";"71490";"SAINT-MARTIN-DE-COMMUNE";"Mât"; 22.0;"SNCF Réseau"
214360;4.60361;46.61361;"04° 36' 13.00'' Est, 46° 36' 49.00'' Nord";"71400";;"RST PRS VAUX EN PRE PK 293.000";"71460";"SAINT-CLEMENT-SUR-GUYE";"Mât"; 10.0;"SNCF Réseau"
214396;4.77278;46.21306;"04° 46' 22.00'' Est, 46° 12' 47.00'' Nord";"71090";;"RST PONTANEVAUX PK 450.700";"71570";"LA CHAPELLE-DE-GUINCHAY";"Mât"; 22.0;"SNCF Réseau"
240532;5.01417;46.75472;"05° 00' 51.00'' Est, 46° 45' 17.00'' Nord";"71002";"LES PLATES";"R.N.78 CHÂTEAU D'EAU";"71370";"L'ABERGEMENT-SAINTE-COLOMBE";"Château d'eau - réservoir"; 47.0;"Syndicat des eaux, Adduction"
242144;4.14139;46.69083;"04° 08' 29.00'' Est, 46° 41' 27.00'' Nord";"71542";"L'OUCHE AUX FILLES";"R LOUIS PLEUTIN";"71320";"TOULON-SUR-ARROUX";"Immeuble"; 17.0;"Société HLM"
274638;4.38306;46.69167;"04° 22' 59.00'' Est, 46° 41' 30.00'' Nord";"71040";"LE GRAND PRÉ";"STATION D'ÉPURATION";"71450";"BLANZY";"Pylône autostable"; 30.3;"ORANGE"
277604;4.67417;46.38583;"04° 40' 27.00'' Est, 46° 23' 09.00'' Nord";"71525";"AU BOIS CLAIR";"CHEM DE LA BONNIÈRE";"71960";"SOLOGNY";"Pylône autostable"; 42.0;"ORANGE"
280663;4.71139;46.47861;"04° 42' 41.00'' Est, 46° 28' 43.00'' Nord";"71146";"LE BRIOU";"CTEL";"71250";"CORTAMBERT";"Bâtiment"; 8.0;"ORANGE Services Fixes"
284508;4.50139;46.77222;"04° 30' 05.00'' Est, 46° 46' 20.00'' Nord";"71540";"LA SAPINETTE";;"71210";"TORCY";"Pylône autostable"; 35.0;"SFR"
287759;5.41306;46.49528;"05° 24' 47.00'' Est, 46° 29' 43.00'' Nord";"71157";"COMBE DE LA FORÊT";;"71480";"CUISEAUX";"Pylône autostable"; 17.0;"ORANGE Services Fixes"
290258;4.16361;47.08833;"04° 09' 49.00'' Est, 47° 05' 18.00'' Nord";"71165";"LES MELOISOTTES";"AU BOURG";"71550";"CUSSY-EN-MORVAN";"Pylône tubulaire"; 14.0;"ORANGE Services Fixes"
291843;4.86222;46.79000;"04° 51' 44.00'' Est, 46° 47' 24.00'' Nord";"71076";;"15, AV PIERRE NUGUE";"71100";"CHALON-SUR-SAONE";"Bâtiment"; 14.0;"Particulier"
298746;3.97083;46.71389;"03° 58' 15.00'' Est, 46° 42' 50.00'' Nord";"71239";"LA CROIX";"MAUBLANC D 25";"71760";"ISSY-L'EVEQUE";"Pylône autostable"; 19.0;"Conseil Départemental"
299504;4.40472;46.70694;"04° 24' 17.00'' Est, 46° 42' 25.00'' Nord";"71040";;"ZI DE LA FIOLLE USINE MICHELIN";"71450";"BLANZY";"Bâtiment"; 12.0;
300475;4.47639;46.62833;"04° 28' 35.00'' Est, 46° 37' 42.00'' Nord";"71320";"LA CROIX NEUVE";;"71300";"MONT-SAINT-VINCENT";"Bâtiment"; 10.0;"ORANGE Services Fixes"
303391;4.14417;46.23556;"04° 08' 39.00'' Est, 46° 14' 08.00'' Nord";"71434";"LE BOURG";"D 199";"71110";"SAINT-JULIEN-DE-JONZY";"Pylône autostable"; 18.0;"EDF ou GDF"
306032;4.78278;46.48528;"04° 46' 58.00'' Est, 46° 29' 07.00'' Nord";"71035";"LE TARTERETS CHARMES";"CHEM DE B SY À CHARCUBLE";"71260";"BISSY-LA-MACONNAISE";"Pylône autostable"; 25.0;"Commune, communauté de commune"
306034;4.82861;46.47972;"04° 49' 43.00'' Est, 46° 28' 47.00'' Nord";"71267";"LES CHARMES";"LES BELUSES CH DES BOULETS";"71260";"LUGNY";"Pylône autostable"; 25.0;"Conseil Départemental"
320762;4.41972;46.79139;"04° 25' 11.00'' Est, 46° 47' 29.00'' Nord";"71153";;"43, R DU MARÉCHAL JOFFRE PARC DES SPORTS";"71200";"LE CREUSOT";"Pylône tubulaire"; 25.0;"ORANGE"
321962;5.24306;46.48361;"05° 14' 35.00'' Est, 46° 29' 01.00'' Nord";"71558";;"PL PAUL  GUIMET EGLISE";"71480";"VARENNES-SAINT-SAUVEUR";"Monument religieux"; 25.0;"Commune, communauté de commune"
324112;4.24667;47.07639;"04° 14' 48.00'' Est, 47° 04' 35.00'' Nord";"71266";"LA MONTAGNE DES VIPÈRES";;"71540";"LUCENAY-L'EVEQUE";"Bâtiment"; 7.0;"ORANGE Services Fixes"
325206;4.03639;46.40861;"04° 02' 11.00'' Est, 46° 24' 31.00'' Nord";"71491";"LA TUILERIE";"ROUTE DE PARAY LE MONIAL";"71600";"SAINT-YAN";"Pylône autostable"; 21.0;"ORANGE"
331548;5.33556;46.53583;"05° 20' 08.00'' Est, 46° 32' 09.00'' Nord";"71300";"LES MOISSONNIERS";"CD N° 972";"71480";"LE MIROIR";"Mât béton"; 7.0;"ORANGE Services Fixes"
353731;4.37611;46.29778;"04° 22' 34.00'' Est, 46° 17' 52.00'' Nord";"71116";"PEND LOUP";"CHEM RURAL";"71800";"CHATENAY";"Pylône autostable"; 26.0;"ORANGE"
354878;4.47556;46.73194;"04° 28' 32.00'' Est, 46° 43' 55.00'' Nord";"71412";"ECLUSE 1-BOIS BRETOUX";;"71210";"SAINT-EUSEBE";"Local technique"; 4.0;"DDE"
354886;4.46278;46.72750;"04° 27' 46.00'' Est, 46° 43' 39.00'' Nord";"71412";"ECLUSE 2 - DES BRENOTS";;"71210";"SAINT-EUSEBE";"Local technique"; 4.0;"DDE"
354888;4.45778;46.72556;"04° 27' 28.00'' Est, 46° 43' 32.00'' Nord";"71412";"ECLUSE 3 DE LA FARÉE";;"71210";"SAINT-EUSEBE";"Local technique"; 4.0;"DDE"
354890;4.44361;46.71944;"04° 26' 37.00'' Est, 46° 43' 10.00'' Nord";"71412";"ECLUSE 4 DE PARISOT";;"71210";"SAINT-EUSEBE";"Local technique"; 4.0;"DDE"
354894;4.42472;46.70611;"04° 25' 29.00'' Est, 46° 42' 22.00'' Nord";"71040";"ECLUSE 5 DE LA PLANCHE CALARD";;"71450";"BLANZY";"Local technique"; 4.0;"DDE"
354901;4.41833;46.70306;"04° 25' 06.00'' Est, 46° 42' 11.00'' Nord";"71040";"EC LUSE 6 DU BRULARD";;"71450";"BLANZY";"Local technique"; 4.0;"DDE"
354903;4.40778;46.69917;"04° 24' 28.00'' Est, 46° 41' 57.00'' Nord";"71040";"ECLUSE 7 DE ST GELIN";;"71450";"BLANZY";"Local technique"; 4.0;"DDE"
354907;4.38250;46.68917;"04° 22' 57.00'' Est, 46° 41' 21.00'' Nord";"71040";"ECLUSE 8 LES MIREAUX";;"71450";"BLANZY";"Local technique"; 4.0;"DDE"
354915;4.34000;46.65361;"04° 20' 24.00'' Est, 46° 39' 13.00'' Nord";"71486";"ECLUSE 10 LES CHAVANNES";"CANAL DU CENTRE";"71230";"SAINT-VALLIER";"Local technique"; 2.0;"DDE"
355182;4.33889;46.65000;"04° 20' 20.00'' Est, 46° 38' 60.00'' Nord";"71486";"ECLUSE 11 DU VERNOIS";"CANAL DU CENTRE";"71230";"SAINT-VALLIER";"Local technique"; 3.0;"DDE"
355192;4.32528;46.61889;"04° 19' 31.00'' Est, 46° 37' 08.00'' Nord";"71356";"ECLUSE 12 LE FOUR";"CANAL DU CENTRE";"71230";"POUILLOUX";"Local technique"; 4.0;"DDE"
355200;4.31167;46.60889;"04° 18' 42.00'' Est, 46° 36' 32.00'' Nord";"71132";"ECLUSE 13 AZYE";;"71420";"CIRY-LE-NOBLE";"Local technique"; 3.0;"DDE"
355204;4.29417;46.59944;"04° 17' 39.00'' Est, 46° 35' 58.00'' Nord";"71132";"ECLUSE 14 DECIRY";;"71420";"CIRY-LE-NOBLE";"Local technique"; 3.0;"DDE"
355208;4.25694;46.59333;"04° 15' 25.00'' Est, 46° 35' 36.00'' Nord";"71212";"ECLUSE 15 CIVRY";;"71420";"GENELARD";"Local technique"; 4.0;"DDE"
355214;4.23611;46.57722;"04° 14' 10.00'' Est, 46° 34' 38.00'' Nord";"71212";"ECLUSE 16 - LE BASSIN";;"71420";"GENELARD";"Local technique"; 4.0;"DDE"
355346;4.22722;46.57139;"04° 13' 38.00'' Est, 46° 34' 17.00'' Nord";"71340";"ECLUSE 17 - LE CHAMP DE GRANGE";;"71430";"PALINGES";"Local technique"; 3.0;"DDE"
355349;4.20889;46.54222;"04° 12' 32.00'' Est, 46° 32' 32.00'' Nord";"71340";"ECLUSE 18-LE THIELAY";;"71430";"PALINGES";"Local technique"; 3.0;"DDE"
355351;4.20250;46.52972;"04° 12' 09.00'' Est, 46° 31' 47.00'' Nord";"71340";"ECLUSE 19-LE PT DE DIGOINE";;"71430";"PALINGES";"Local technique"; 2.0;"DDE"
355353;4.50806;46.75611;"04° 30' 29.00'' Est, 46° 45' 22.00'' Nord";"71187";"ECLUSE 2-LES SEPT ÉCLUSES";;"71210";"ECUISSES";"Local technique"; 2.0;"DDE"
355358;4.17556;46.47944;"04° 10' 32.00'' Est, 46° 28' 46.00'' Nord";"71590";"ECLUSE 21-LA PONTAISE";;"71600";"VOLESVRES";"Local technique"; 3.0;"DDE"
355399;4.18528;46.50306;"04° 11' 07.00'' Est, 46° 30' 11.00'' Nord";"71388";"ECLUSE 20-LA GRAVOINE";;"71430";"SAINT-AUBIN-EN-CHAROLLAIS";"Local technique"; 3.0;"DDE"
355413;4.16500;46.46750;"04° 09' 54.00'' Est, 46° 28' 03.00'' Nord";"71590";"ECLUSE 22-PASSANGE";;"71600";"VOLESVRES";"Local technique"; 3.0;"DDE"
355417;4.51139;46.75750;"04° 30' 41.00'' Est, 46° 45' 27.00'' Nord";"71187";"ECLUSE 3-LES SEPT ÉCLUSES";;"71210";"ECUISSES";"Local technique"; 3.0;"DDE"
355419;4.12556;46.44389;"04° 07' 32.00'' Est, 46° 26' 38.00'' Nord";"71342";"ECLUSE 23";;"71600";"PARAY-LE-MONIAL";"Local technique"; 3.0;"DDE"
355421;4.51444;46.75889;"04° 30' 52.00'' Est, 46° 45' 32.00'' Nord";"71187";"ECLUSE 4-LA MOTTE BOUCHOT";;"71210";"ECUISSES";"Local technique"; 3.0;"DDE"
355425;4.09750;46.45889;"04° 05' 51.00'' Est, 46° 27' 32.00'' Nord";"71588";"ECLUSE 24-LES QUARRES";"CANAL DU CENTRE";"71600";"VITRY-EN-CHAROLLAIS";"Local technique"; 3.0;"DDE"
355427;4.09194;46.46361;"04° 05' 31.00'' Est, 46° 27' 49.00'' Nord";"71588";"ECLUSE 25-LE MONT";"CANAL DU CENTRE";"71600";"VITRY-EN-CHAROLLAIS";"Local technique"; 3.0;"DDE"
355429;4.06167;46.47917;"04° 03' 42.00'' Est, 46° 28' 45.00'' Nord";"71588";"ECLUSE 26-LES BESSONS";"CANAL DU CENTRE";"71600";"VITRY-EN-CHAROLLAIS";"Local technique"; 3.0;"DDE"
355643;4.52111;46.76194;"04° 31' 16.00'' Est, 46° 45' 43.00'' Nord";"71187";"ECLUSE 5-LA HUITIÈME ÉCLUSE";;"71210";"ECUISSES";"Local technique"; 3.0;"DDE"
355645;4.52833;46.76722;"04° 31' 42.00'' Est, 46° 46' 02.00'' Nord";"71187";"ECLUSE 6-LA NEUVIÈME ÉCLUSE";;"71210";"ECUISSES";"Local technique"; 4.0;"DDE"
355649;4.53694;46.76972;"04° 32' 13.00'' Est, 46° 46' 11.00'' Nord";"71435";"ÉCLUSE 7-LA GOURGEOTTE";;"71210";"SAINT-JULIEN-SUR-DHEUNE";"Local technique"; 3.0;"DDE"
355652;4.54222;46.77167;"04° 32' 32.00'' Est, 46° 46' 18.00'' Nord";"71435";"ÉCLUSE 8-EN NAUDIN";;"71210";"SAINT-JULIEN-SUR-DHEUNE";"Local technique"; 4.0;"DDE"
355654;4.54556;46.77833;"04° 32' 44.00'' Est, 46° 46' 42.00'' Nord";"71435";"ÉCLUSE 9-CHEZ LE ROI";;"71210";"SAINT-JULIEN-SUR-DHEUNE";"Local technique"; 4.0;"DDE"
355656;4.55000;46.78167;"04° 32' 60.00'' Est, 46° 46' 54.00'' Nord";"71435";"ÉCLUSE 10-MOUILLE GUICHON";;"71210";"SAINT-JULIEN-SUR-DHEUNE";"Local technique"; 3.0;"DDE"
355658;4.55556;46.78444;"04° 33' 20.00'' Est, 46° 47' 04.00'' Nord";"71435";"ÉCLUSE 11-LES BOULAYS";;"71210";"SAINT-JULIEN-SUR-DHEUNE";"Local technique"; 3.0;"DDE"
355671;4.56333;46.79611;"04° 33' 48.00'' Est, 46° 47' 46.00'' Nord";"71321";"ÉCLUSE 12-LA COURTAILLE";;"71510";"MOREY";"Local technique"; 3.0;"DDE"
355673;4.56917;46.80000;"04° 34' 09.00'' Est, 46° 47' 60.00'' Nord";"71321";"ÉCLUSE 13-LE THEUROT DE LA GAG";;"71510";"MOREY";"Local technique"; 3.0;"DDE"
355677;4.57694;46.80611;"04° 34' 37.00'' Est, 46° 48' 22.00'' Nord";"71321";"ÉCLUSE 14-LA GAGÈRE";;"71510";"MOREY";"Local technique"; 3.0;"DDE"
355679;4.59028;46.81472;"04° 35' 25.00'' Est, 46° 48' 53.00'' Nord";"71391";"ÉCLUSE 15-LE BÂTIMENT";;"71510";"SAINT-BERAIN-SUR-DHEUNE";"Local technique"; 3.0;"DDE"
355682;4.59389;46.81639;"04° 35' 38.00'' Est, 46° 48' 59.00'' Nord";"71391";"ÉCLUSE 16-VELLEROT";;"71510";"SAINT-BERAIN-SUR-DHEUNE";"Local technique"; 3.0;"DDE"
355684;4.59972;46.82444;"04° 35' 59.00'' Est, 46° 49' 28.00'' Nord";"71391";"ÉCLUSE 17-LA TUILERIE";;"71510";"SAINT-BERAIN-SUR-DHEUNE";"Local technique"; 3.0;"DDE"
355686;4.60944;46.82972;"04° 36' 34.00'' Est, 46° 49' 47.00'' Nord";"71391";"ÉCLUSE 18-LES SALORNAYS";;"71510";"SAINT-BERAIN-SUR-DHEUNE";"Local technique"; 3.0;"DDE"
355925;4.62250;46.84056;"04° 37' 21.00'' Est, 46° 50' 26.00'' Nord";"71442";"ÉCLUSE 19-LES JUSTICES";;"71510";"SAINT-LEGER-SUR-DHEUNE";"Local technique"; 4.0;"DDE"
355927;4.63944;46.85333;"04° 38' 22.00'' Est, 46° 51' 12.00'' Nord";"71442";"ÉCLUSE 20-LE CHÂTEAU";;"71510";"SAINT-LEGER-SUR-DHEUNE";"Local technique"; 4.0;"DDE"
355929;4.64611;46.86333;"04° 38' 46.00'' Est, 46° 51' 48.00'' Nord";"71171";"ÉCLUSE 21-LE MOULIN JOLY";;"71510";"DENNEVY";"Local technique"; 5.0;"DDE"
355931;4.65500;46.87194;"04° 39' 18.00'' Est, 46° 52' 19.00'' Nord";"71171";"ÉCLUSE 22";;"71510";"DENNEVY";"Local technique"; 5.0;"DDE"
355933;4.65889;46.87500;"04° 39' 32.00'' Est, 46° 52' 30.00'' Nord";"71425";"ÉCLUSE 23-PRÈS DE L'ÎLE";;"71510";"SAINT-GILLES";"Local technique"; 5.0;"DDE"
355935;4.76083;46.88972;"04° 45' 39.00'' Est, 46° 53' 23.00'' Nord";"71073";"ÉCLUSE 24-LES BOIS DES MANCHES";;"71150";"CHAGNY";"Local technique"; 3.0;"DDE"
355937;4.76500;46.88556;"04° 45' 54.00'' Est, 46° 53' 08.00'' Nord";"71073";"ÉCLUSE 25-LA QUEUE L'ÉTANG";;"71150";"CHAGNY";"Local technique"; 3.0;"DDE"
355939;4.76583;46.88194;"04° 45' 57.00'' Est, 46° 52' 55.00'' Nord";"71378";"ÉCLUSE 26-LA PLAINE DE RULLY";;"71150";"RULLY";"Local technique"; 3.0;"DDE"
355947;4.77056;46.87889;"04° 46' 14.00'' Est, 46° 52' 44.00'' Nord";"71378";"ÉCLUSE 27-MARCHEFONTAINE";;"71150";"RULLY";"Local technique"; 3.0;"DDE"
355950;4.77528;46.87611;"04° 46' 31.00'' Est, 46° 52' 34.00'' Nord";"71378";"ÉCLUSE 28-LE BREUIL";;"71150";"RULLY";"Local technique"; 3.0;"DDE"
355960;4.77944;46.87278;"04° 46' 46.00'' Est, 46° 52' 22.00'' Nord";"71378";"ÉCLUSE 29-LES TREMBLADES";;"71150";"RULLY";"Local technique"; 3.0;"DDE"
355975;4.78639;46.86972;"04° 47' 11.00'' Est, 46° 52' 11.00'' Nord";"71378";"ÉCLUSE 30-LES TREMBLES";;"71150";"RULLY";"Local technique"; 3.0;"DDE"
355995;4.79194;46.86583;"04° 47' 31.00'' Est, 46° 51' 57.00'' Nord";"71202";"ÉCLUSE 31-LE GUÉ DE NIFETTE";;"71150";"FONTAINES";"Local technique"; 3.0;"DDE"
355998;4.80750;46.84778;"04° 48' 27.00'' Est, 46° 50' 52.00'' Nord";"71202";"ÉCLUSE 32-CHAMP NOLLOT";;"71150";"FONTAINES";"Local technique"; 3.0;"DDE"
356007;4.82583;46.84167;"04° 49' 33.00'' Est, 46° 50' 30.00'' Nord";"71265";"ÉCLUSE 33-LES CHASEAUX";;"71530";"LA LOYERE";"Local technique"; 3.0;"DDE"
356011;4.83806;46.83361;"04° 50' 17.00'' Est, 46° 50' 01.00'' Nord";"71204";"ÉCLUSE 34-LE QUART";;"71530";"FRAGNES";"Local technique"; 3.0;"DDE"
356196;4.50667;46.75528;"04° 30' 24.00'' Est, 46° 45' 19.00'' Nord";"71187";"LA PREMIÈRE ECLUSE";"CENTRE ÉLECTRO D 284";"71210";"ECUISSES";"Bâtiment"; 6.0;"DDE"
356211;4.23333;46.57528;"04° 14' 00.00'' Est, 46° 34' 31.00'' Nord";"71212";"LES CHAMPS";"CENTRE ÉLECTRO";"71420";"GENELARD";"Bâtiment"; 6.0;"DDE"
356219;4.86278;46.80694;"04° 51' 46.00'' Est, 46° 48' 25.00'' Nord";"71076";"ZONE PORTUAIRE";"ÉCLUSE 34 BIS / CANAL DU CENTRE CENTRE ÉLECTRO";"71100";"CHALON-SUR-SAONE";"Bâtiment"; 5.0;"DDE"
356238;4.37750;46.67639;"04° 22' 39.00'' Est, 46° 40' 35.00'' Nord";"71306";"ÉTANG DU PLESSIS";"R DU CHAMP DU MOULIN";"71300";"MONTCEAU-LES-MINES";"Local technique"; 4.0;"DDE"
356280;4.36694;46.67833;"04° 22' 01.00'' Est, 46° 40' 42.00'' Nord";"71306";;"9È ÉCLUSE OCÉAN SUBDIVISION NAVIGATION";"71300";"MONTCEAU-LES-MINES";"Bâtiment"; 8.0;"DDE"
363413;4.75944;46.90139;"04° 45' 34.00'' Est, 46° 54' 05.00'' Nord";"71073";"LES ROUGES MOULINS";"ROUTE NATIONALE 6 GARAGE";"71150";"CHAGNY";"Mât métallique"; 7.0;"TDF"
365304;4.42444;46.79583;"04° 25' 28.00'' Est, 46° 47' 45.00'' Nord";"71153";;"126 R EDITH CLAVEL AGENCE DU CREDIT AGRICOLE";"71200";"LE CREUSOT";"Immeuble"; 16.0;"Société Privée SA"
367976;4.82278;46.29944;"04° 49' 22.00'' Est, 46° 17' 58.00'' Nord";"71270";;"AV. DE LA GARE";"71000";"MACON";"Pylône autostable"; 28.0;"ORANGE"
394504;5.13611;46.77361;"05° 08' 10.00'' Est, 46° 46' 25.00'' Nord";"71175";;"R DE THUREY PRÉS D204";"71330";"DICONNE";"Pylône tubulaire"; 11.0;"ORANGE"
411488;4.84472;46.81361;"04° 50' 41.00'' Est, 46° 48' 49.00'' Nord";"71081";;"20 ROUTE DE DEMIGNY ECOLE ET COLLÈGE JACQUES PRÉVERT";"71530";"CHAMPFORGEUIL";"Bâtiment"; 20.0;"Conseil Départemental"
427475;4.75472;46.91167;"04° 45' 17.00'' Est, 46° 54' 42.00'' Nord";"71073";;"14 AV DU GÉNÉRAL DE GAULLE";"71150";"CHAGNY";"Bâtiment"; 10.0;"Copropriété, Syndic, SCI"
437024;4.78333;46.35167;"04° 46' 60.00'' Est, 46° 21' 06.00'' Nord";"71371";"LE GROS MONT";;"71960";"LA ROCHE-VINEUSE";"Pylône autostable"; 40.0;"Towercast"
437344;4.36444;46.64000;"04° 21' 52.00'' Est, 46° 38' 24.00'' Nord";"71486";"CHAMPS DES POIRIERS";"R DES RONZIERES PROCHE TERRAIN RUGBY";"71230";"SAINT-VALLIER";"Pylône autostable"; 32.0;"SFR"
439484;4.20056;46.40639;"04° 12' 02.00'' Est, 46° 24' 23.00'' Nord";"71268";"BOIS DES CULS";"CHEM RURAL";"71120";"LUGNY-LES-CHAROLLES";"Pylône autostable"; 26.9;"ORANGE"
440542;4.36750;46.45528;"04° 22' 03.00'' Est, 46° 27' 19.00'' Nord";"71564";"LES BROSSES SOLLOT";"LA FOURCHE";"71120";"VENDENESSE-LES-CHAROLLES";"Pylône autostable"; 32.0;"SFR"
440607;4.30806;46.53167;"04° 18' 29.00'' Est, 46° 31' 54.00'' Nord";"71285";"CHAMP BLANC";"PYLÔNE DVRN";"71220";"MARTIGNY-LE-COMTE";"Pylône autostable"; 47.0;"TDF"
440938;3.94694;46.26972;"03° 56' 49.00'' Est, 46° 16' 11.00'' Nord";"71071";"LA MOTTE";;"71110";"CERON";"Pylône autostable"; 25.6;"ORANGE"
441130;4.91778;46.54389;"04° 55' 04.00'' Est, 46° 32' 38.00'' Nord";"71576";"ST-CLAIR";"A6 PK 360,116 SENS PARIS LYON";"71700";"LE VILLARS";"Pylône autostable"; 41.0;"Sociétés d'Autoroutes"
441491;4.64028;46.51639;"04° 38' 25.00'' Est, 46° 30' 59.00'' Nord";"71147";;"BUISSON DE LA CROIX PRÈS DU GR 76";"71460";"CORTEVAIX";"Pylône autostable"; 23.0;"TDF"
442671;4.81611;46.32833;"04° 48' 58.00'' Est, 46° 19' 42.00'' Nord";"71270";"LA GRISIÈRE";;"71000";"MACON";"Pylône autostable"; 58.0;"TDF"
444256;4.48083;46.74278;"04° 28' 51.00'' Est, 46° 44' 34.00'' Nord";"71310";;"FONDERIE HENRI PAUL PARC D'ACTIVITE HENRI PAUL";"71210";"MONTCHANIN";"Pylône autostable"; 37.3;"Particulier"
444526;4.80750;46.79694;"04° 48' 27.00'' Est, 46° 47' 49.00'' Nord";"71118";;"AV DE BOURGOGNE";"71880";"CHATENOY-LE-ROYAL";"Château d'eau - réservoir"; 28.0;"Commune, communauté de commune"
445499;4.60778;46.61361;"04° 36' 28.00'' Est, 46° 36' 49.00'' Nord";"71563";"COMMUNAUTE DES BOUILLYS";"LA PLATRIERE";"71460";"VAUX-EN-PRE";"Pylône autostable"; 38.0;"ORANGE"
447783;5.13611;46.92528;"05° 08' 10.00'' Est, 46° 55' 31.00'' Nord";"71329";"LA GRANGE DE BOIS";;"71270";"NAVILLY";"Pylône autostable"; 43.0;"TDF"
448349;4.27861;46.85056;"04° 16' 43.00'' Est, 46° 51' 02.00'' Nord";"71297";"CHAPELLE DE CERTENUE";;"71190";"MESVRES";"Pylône autostable"; 43.9;"TDF"
448814;4.47750;46.62833;"04° 28' 39.00'' Est, 46° 37' 42.00'' Nord";"71320";"LE BELVÉDÈRE";"MONTÉE DE L'OBSERVATOIRE STATION TDF DU CREUSOT - MONT ST VINCENT";"71300";"MONT-SAINT-VINCENT";"Pylône haubané"; 100.0;"TDF"
448818;4.65917;46.40028;"04° 39' 33.00'' Est, 46° 24' 01.00'' Nord";"71525";"LA COMBE NAGUIN";"LES CROISETTES";"71960";"SOLOGNY";"Pylône autostable"; 37.0;"TDF"
448828;4.86250;46.70722;"04° 51' 45.00'' Est, 46° 42' 26.00'' Nord";"71555";"LA MARE";"PRES DU COLOMBIER SOUS UXELLES N 6";"71240";"VARENNES-LE-GRAND";"Pylône autostable"; 40.0;"SFR"
450454;4.41167;46.56417;"04° 24' 42.00'' Est, 46° 33' 51.00'' Nord";"71279";"ORGEVAL";"VOIE COM N° 16";"71220";"MARIZY";"Pylône autostable"; 34.0;"ORANGE"
450810;4.86028;46.64500;"04° 51' 37.00'' Est, 46° 38' 42.00'' Nord";"71249";"LA BOUTEILLE";"A6(SENS LYON-PARIS)";"71240";"LAIVES";"Pylône autostable"; 25.0;"SFR"
451161;4.28861;46.29694;"04° 17' 19.00'' Est, 46° 17' 49.00'' Nord";"71022";"LE PELON";"RÉÉMETTEUR TDF";"71800";"BAUDEMONT";"Pylône autostable"; 28.0;"TDF"
454924;4.83222;46.75389;"04° 49' 56.00'' Est, 46° 45' 14.00'' Nord";"71269";"PRES VERISSEY";"A.6 - PK 335.1 - SENS PARIS-LYON ECH DE CHALON SUD SENS PROVINCE PARIS";"71100";"LUX";"Pylône haubané"; 58.0;"Sociétés d'Autoroutes"
456040;4.83778;46.36639;"04° 50' 16.00'' Est, 46° 21' 59.00'' Nord";"71270";"FERME GALOPIN";"A6 PK 380.813 PEAGE MACON NORD";"71000";"MACON";"Pylône autostable"; 43.0;"BOUYGUES"
458086;4.10972;46.46611;"04° 06' 35.00'' Est, 46° 27' 58.00'' Nord";"71342";;"BD DES CHARMES";"71600";"PARAY-LE-MONIAL";"Immeuble"; 12.0;"Etablissement de soins"
458186;4.81583;46.30306;"04° 48' 57.00'' Est, 46° 18' 11.00'' Nord";"71270";;"13 À 19 R MOZART";"71000";"MACON";"Bâtiment"; 45.0;"Société HLM"
460799;4.66500;46.64556;"04° 39' 54.00'' Est, 46° 38' 44.00'' Nord";"71159";"LES GRANDS BOIS";"CHEM RURAL";"71460";"CULLES-LES-ROCHES";"Pylône autostable"; 30.0;"ORANGE"
463640;5.45278;46.85139;"05° 27' 10.00'' Est, 46° 51' 05.00'' Nord";"71028";"LE GRAND CHAMP LAMBEY";"VOIE COMMUNALE N°3";"71270";"BEAUVERNOIS";"Château d'eau - réservoir"; 57.0;"Commune, communauté de commune"
465986;3.77778;46.61000;"03° 46' 40.00'' Est, 46° 36' 36.00'' Nord";"71047";;"120 R DE BEL AIR";"71140";"BOURBON-LANCY";"Pylône autostable"; 34.0;"SFR"
466038;4.72667;46.88389;"04° 43' 36.00'' Est, 46° 53' 02.00'' Nord";"71051";"EN VARANT";;"71150";"BOUZERON";"Tour hertzienne"; 47.0;"TDF"
468548;4.48861;46.95583;"04° 29' 19.00'' Est, 46° 57' 21.00'' Nord";"71322";"LES PRANIÈRES";"CHEM RURAL DIT DES MACHERIOTS";"71360";"MORLET";"Pylône autostable"; 45.0;"ORANGE Services Fixes"
468594;5.05972;46.82028;"05° 03' 35.00'' Est, 46° 49' 13.00'' Nord";"71456";"LES GRENOUILLÈRES";;"71620";"SAINT-MARTIN-EN-BRESSE";"Pylône autostable"; 25.0;"ORANGE Services Fixes"
469136;5.03333;46.79583;"05° 01' 60.00'' Est, 46° 47' 45.00'' Nord";"71228";"LES MARGOTTES";;"71620";"GUERFAND";"Pylône autostable"; 25.0;"ORANGE"
469574;4.61167;46.90278;"04° 36' 42.00'' Est, 46° 54' 10.00'' Nord";"71480";"MONT DE ROME CHATEAU";;"71510";"SAINT-SERNIN-DU-PLAIN";"Pylône autostable"; 30.0;"TDF"
471122;4.83444;46.30528;"04° 50' 04.00'' Est, 46° 18' 19.00'' Nord";"71270";;"36 R DOMBEY";"71000";"MACON";"Bâtiment"; 13.5;"Société Privée SA"
471545;4.83528;46.31750;"04° 50' 07.00'' Est, 46° 19' 03.00'' Nord";"71270";;"1, R ALBERT CAMUS";"71000";"MACON";"Immeuble"; 36.0;"Société HLM"
473038;4.28778;46.50194;"04° 17' 16.00'' Est, 46° 30' 07.00'' Nord";"71021";"LA MONTAGNE";"LE BOIS DE BARON CÉLAIRE";"71120";"BARON";"Pylône autostable"; 44.0;"SFR"
473039;4.70833;46.34278;"04° 42' 30.00'' Est, 46° 20' 34.00'' Nord";"71069";"MONSARD";"CTRE D'ÉMISSION TDF SITE ARCHÉO";"71960";"BUSSIERES";"Pylône autostable"; 45.0;"TDF"
474223;4.66861;46.47750;"04° 40' 07.00'' Est, 46° 28' 39.00'' Nord";"71287";"BOIS DE CHASSAGNES";"HAMEAU DE COLLONGES";"71250";"MASSILLY";"Pylône autostable"; 30.0;"SFR"
476554;4.30333;46.95972;"04° 18' 12.00'' Est, 46° 57' 35.00'' Nord";"71014";;"CHEM ST MARTIN SITE F.T";"71400";"AUTUN";"Pylône autostable"; 32.4;"ORANGE Services Fixes"
477534;4.39583;46.80361;"04° 23' 45.00'' Est, 46° 48' 13.00'' Nord";"71153";;"R DU MOULIN MIROIR";"71200";"LE CREUSOT";"Pylône autostable"; 35.0;"Towercast"
478139;4.85917;46.81444;"04° 51' 33.00'' Est, 46° 48' 52.00'' Nord";"71076";;"9 B R PIERRE COT Z.I. DU BOIS DE MENUSÉ";"71100";"CHALON-SUR-SAONE";"Pylône autostable"; 35.0;"FPS TOWERS"
481813;5.29639;46.46250;"05° 17' 47.00'' Est, 46° 27' 45.00'' Nord";"71143";"LA COMMUNE";"BOIS DATEFY D40 PM DE BEAUPONT NORD  PRÈS A 39";"71480";"CONDAL";"Pylône autostable"; 40.0;"Sociétés d'Autoroutes"
481842;4.74778;46.91500;"04° 44' 52.00'' Est, 46° 54' 54.00'' Nord";"71073";"VERS LES MURIERS";"CHEM DES STADES STADE MUNICIPAL DES MURIERS";"71150";"CHAGNY";"Pylône autostable"; 25.0;"ORANGE"
481884;4.84111;46.79000;"04° 50' 28.00'' Est, 46° 47' 24.00'' Nord";"71076";;"1A R DE BOURGOGNE";"71100";"CHALON-SUR-SAONE";"Immeuble"; 21.0;"Particulier"
482877;4.91861;46.79056;"04° 55' 07.00'' Est, 46° 47' 26.00'' Nord";"71117";;"R DE LA MARSIÈRE CHÂTEAU D'EAU";"71380";"CHATENOY-EN-BRESSE";"Château d'eau - réservoir"; 38.0;"Commune, communauté de commune"
482897;4.87556;46.56556;"04° 52' 32.00'' Est, 46° 33' 56.00'' Nord";"71543";"L'ORMETEAU";"PYLÔNE TDF";"71700";"TOURNUS";"Pylône autostable"; 25.0;"TDF"
482989;4.67806;46.72000;"04° 40' 41.00'' Est, 46° 43' 12.00'' Nord";"71070";"PLAINE DE LA CHAUME";"LA CHAGNIÈRE STATION TDF";"71390";"BUXY";"Pylône autostable"; 45.0;"TDF"
484671;4.58806;46.62583;"04° 35' 17.00'' Est, 46° 37' 33.00'' Nord";"71563";"VIGNES DE LA ROCHE";"CHEM N°3 DE GENOUILLY";"71460";"VAUX-EN-PRE";"Pylône autostable"; 36.7;"TDF"
484737;5.37500;46.83833;"05° 22' 30.00'' Est, 46° 50' 18.00'' Nord";"71326";"CHAMP DE LA VIGNE";"D323";"71270";"MOUTHIER-EN-BRESSE";"Pylône autostable"; 21.0;"ORANGE Services Fixes"
486551;4.44722;46.71806;"04° 26' 50.00'' Est, 46° 43' 05.00'' Nord";"71412";"LA FONTAINE ST-MEUD";"VOIE COMMUNALE";"71210";"SAINT-EUSEBE";"Pylône autostable"; 28.9;"FPS TOWERS"
498014;4.32667;46.19694;"04° 19' 36.00'' Est, 46° 11' 49.00'' Nord";"71120";"L'HERMITAGE";"PROCHE CHAPELLE";"71170";"CHAUFFAILLES";"Pylône autostable"; 35.0;"TDF"
498026;5.22639;46.62639;"05° 13' 35.00'' Est, 46° 37' 35.00'' Nord";"71263";;"5 PROMENADE DES CORDELIERS";"71500";"LOUHANS";"Bâtiment"; 25.0;"ORANGE Services Fixes"
498947;4.02694;46.49917;"04° 01' 37.00'' Est, 46° 29' 57.00'' Nord";"71176";"LA TRÈCHE";"CHEM RURAL DES CARRIÈRES";"71160";"DIGOIN";"Pylône autostable"; 25.0;"TDF"
499070;5.25472;46.59528;"05° 15' 17.00'' Est, 46° 35' 43.00'' Nord";"71064";"LA GALETTE";"D.972";"71500";"BRUAILLES";"Pylône autostable"; 35.0;"SFR"
499355;4.49139;46.97833;"04° 29' 29.00'' Est, 46° 58' 42.00'' Nord";"71530";"LA PLAINE";"CHEM RURAL";"71360";"SULLY";"Pylône autostable"; 33.0;"SFR"
500569;4.93861;46.55278;"04° 56' 19.00'' Est, 46° 33' 10.00'' Nord";"71248";"LA CROIX DE PIERRE";"CHEM RURAL DIT DE LA CROIX DE PIERRE";"71700";"LACROST";"Pylône autostable"; 35.0;"ORANGE Services Fixes"
509688;4.82250;46.86306;"04° 49' 21.00'' Est, 46° 51' 47.00'' Nord";"71202";"AIRE DE REPOS DE LA LOYERE";"A A6 PK 322.800";"71150";"FONTAINES";"Pylône autostable"; 45.2;"Sociétés d'Autoroutes"
511302;4.45889;46.38111;"04° 27' 32.00'' Est, 46° 22' 52.00'' Nord";"71178";"COL DES VAUX";"CHEM RURAL DU COL DES VAUX";"71520";"DOMPIERRE-LES-ORMES";"Pylône autostable"; 35.6;"SFR"
514455;4.63556;46.42389;"04° 38' 08.00'' Est, 46° 25' 26.00'' Nord";"71240";"LA MONTAGNE";"CHEM RURAL DIT DU PRÉ COURTOT";"71250";"JALOGNY";"Pylône autostable"; 26.0;"SFR"
515161;4.13028;46.45333;"04° 07' 49.00'' Est, 46° 27' 12.00'' Nord";"71342";"LES GRENETIÈRES - NOTRE DAME";"RTE DE VOLESVRES";"71600";"PARAY-LE-MONIAL";"Pylône autostable"; 64.0;"TDF"
516256;4.65889;46.83083;"04° 39' 32.00'' Est, 46° 49' 51.00'' Nord";"71107";"LA CHARBONNIÈRE";"DERRIÈRE VAUFLOT";"71510";"CHARRECEY";"Pylône autostable"; 20.0;"ORANGE"
516476;4.65611;46.49861;"04° 39' 22.00'' Est, 46° 29' 55.00'' Nord";"71199";"LES BELUSES";"CHEM D'EXPLOITATION";"71250";"FLAGY";"Pylône autostable"; 24.0;"ORANGE"
520400;4.68028;46.42556;"04° 40' 49.00'' Est, 46° 25' 32.00'' Nord";"71137";"ARGEROT";"CHEM DE LA GARE CD N°15 STATION TDF";"71250";"CLUNY";"Pylône autostable"; 45.5;"TDF"
521515;4.50111;46.86361;"04° 30' 04.00'' Est, 46° 51' 49.00'' Nord";"71468";;"PRÈS D. 131 ET GR 137 PYLÔNE TDF";"71670";"SAINT-PIERRE-DE-VARENNES";"Pylône autostable"; 32.0;"TDF"
522603;4.16083;46.51972;"04° 09' 39.00'' Est, 46° 31' 11.00'' Nord";"71490";"LE CHEVANET";"VC DE VOLESVRES N°4";"71430";"SAINT-VINCENT-BRAGNY";"Pylône autostable"; 25.0;"ORANGE"
524149;4.58917;46.35611;"04° 35' 21.00'' Est, 46° 21' 22.00'' Nord";"71134";"LA COMBE DU BOIS CLAIR";;"71520";"CLERMAIN";"Pylône autostable"; 30.0;"SFR"
524317;4.59111;46.74667;"04° 35' 28.00'' Est, 46° 44' 48.00'' Nord";"71579";"TERRE DES FOSSES";"D.69 DE CHÂLON-SUR-SAÔNE AUX BAUDOTS D.48 DE MELLECEY AUX BAUDOTS";"71390";"VILLENEUVE-EN-MONTAGNE";"Pylône autostable"; 25.0;"ORANGE"
524504;5.05417;46.94556;"05° 03' 15.00'' Est, 46° 56' 44.00'' Nord";"71186";"AUX GRANDES CHARMES";"RD5";"71350";"ECUELLES";"Pylône autostable"; 25.2;"ORANGE"
524901;4.35889;47.04222;"04° 21' 32.00'' Est, 47° 02' 32.00'' Nord";"71144";"LES TERREAUX";"RTE DE CORDESSE";"71540";"CORDESSE";"Pylône autostable"; 23.0;"ORANGE"
525211;4.85444;46.62472;"04° 51' 16.00'' Est, 46° 37' 29.00'' Nord";"71512";"LA MONTAGNE";;"71240";"SENNECEY-LE-GRAND";"Pylône autostable"; 23.0;"ORANGE"
532498;4.85389;46.78083;"04° 51' 14.00'' Est, 46° 46' 51.00'' Nord";"71076";;"PL DE L HOTEL DE VILLE PARKING HOTEL DE VILLE";"71100";"CHALON-SUR-SAONE";"Intérieur sous-terrain"; 0.0;"Particulier"
534775;4.29278;46.66833;"04° 17' 34.00'' Est, 46° 40' 06.00'' Nord";"71499";;"IMP JULES FERRY PARC COMMUNAL";"71410";"SANVIGNES-LES-MINES";"Pylône autostable"; 31.0;"SFR"
540051;4.26333;46.42583;"04° 15' 48.00'' Est, 46° 25' 33.00'' Nord";"71086";;"COUVOIR DE CHAROLLES OUZY";"71120";"CHANGY";"Bâtiment"; 13.0;"Particulier"
546952;4.49194;46.92167;"04° 29' 31.00'' Est, 46° 55' 18.00'' Nord";"71539";"PATURES DU MONT";"D 265";"71490";"TINTRY";"Pylône autostable"; 29.0;"ORANGE"
547079;4.48861;46.94917;"04° 29' 19.00'' Est, 46° 56' 57.00'' Nord";"71322";"LES ECHARDS";"CHEM RURAL";"71360";"MORLET";"Pylône autostable"; 28.0;"ORANGE"
548331;5.29944;46.53889;"05° 17' 58.00'' Est, 46° 32' 20.00'' Nord";"71209";"LES CROZES";"CHEM DE LA VERRIERE";"71580";"FRONTENAUD";"Château d'eau - réservoir"; 56.2;"Commune, communauté de commune"
548782;4.00111;46.46972;"04° 00' 04.00'' Est, 46° 28' 11.00'' Nord";"71176";"LES CARRAGES";"LES ALOUETTES D.982";"71160";"DIGOIN";"Château d'eau - réservoir"; 43.0;"Commune, communauté de commune"
549298;4.66889;46.43694;"04° 40' 08.00'' Est, 46° 26' 13.00'' Nord";"71137";"LES BROUILLARDS";"LA GUICHE STADE JEAN RENAUD";"71250";"CLUNY";"Pylône autostable"; 31.0;"TDF"
549591;4.58167;46.65111;"04° 34' 54.00'' Est, 46° 39' 04.00'' Nord";"71214";"LA SAULE";"CHEM RURAL DE GENOUILLY PRÈS LIGNE TGV SUD-EST";"71460";"GENOUILLY";"Pylône autostable"; 18.0;"ORANGE"
550088;4.98000;46.82778;"04° 58' 48.00'' Est, 46° 49' 40.00'' Nord";"71033";"PONT DES PLANCHES";"N 73 STATION DE POMPAGE DE BEY";"71620";"BEY";"Pylône autostable"; 28.0;"ORANGE"
550621;4.81917;46.92056;"04° 49' 09.00'' Est, 46° 55' 14.00'' Nord";"71170";"LA GRANDE BARRE";"AUTORAOUTE A6 SENS LYON PARIS PK 316200 CHEM D'EXPLOITATION N°40";"71150";"DEMIGNY";"Pylône autostable"; 42.0;"Sociétés d'Autoroutes"
557199;4.84417;46.78528;"04° 50' 39.00'' Est, 46° 47' 07.00'' Nord";"71076";;"AV 8 MAI 45";"71100";"CHALON-SUR-SAONE";"Bâtiment"; 48.0;"ORANGE Services Fixes"
558115;4.49972;46.90750;"04° 29' 59.00'' Est, 46° 54' 27.00'' Nord";"71450";"BOIS DES RIAUX";;"71490";"SAINT-MARTIN-DE-COMMUNE";"Pylône autostable"; 35.0;"BOUYGUES"
558123;4.49028;46.79306;"04° 29' 25.00'' Est, 46° 47' 35.00'' Nord";"71059";"BEAUREGARD";"CHEMIN DES COUTOTS";"71670";"LE BREUIL";"Pylône autostable"; 35.0;"TDF"
558408;3.88722;46.58250;"03° 53' 14.00'' Est, 46° 34' 57.00'' Nord";"71330";;"CHIZEUIL";"71130";"NEUVY-GRANDCHAMP";"Pylône autostable"; 62.0;"TDF"
558948;4.73722;46.32500;"04° 44' 14.00'' Est, 46° 19' 30.00'' Nord";"71360";"LES CHANTOUX";"N.79 - CHEM DE TERRE";"71960";"PRISSE";"Pylône autostable"; 40.0;"SFR"
563481;4.82917;46.30778;"04° 49' 45.00'' Est, 46° 18' 28.00'' Nord";"71270";;"17 R DE L'HÉRITAN";"71000";"MACON";"Bâtiment"; 22.0;"Société HLM"
565911;4.35028;47.06278;"04° 21' 01.00'' Est, 47° 03' 46.00'' Nord";"71237";"LES CONFINS";"MONTAGNE DES CHAMPS POIRIER PYLONE TDF";"71540";"IGORNAY";"Pylône autostable"; 43.0;"TDF"
566164;4.39528;46.80361;"04° 23' 43.00'' Est, 46° 48' 13.00'' Nord";"71153";"LES HAUTS DE BAUDOT";;"71200";"LE CREUSOT";"Pylône autostable"; 52.0;"TDF"
568181;4.78333;46.24889;"04° 46' 60.00'' Est, 46° 14' 56.00'' Nord";"71150";;"296 R DE LA GARE";"71680";"CRECHES-SUR-SAONE";"Pylône tubulaire"; 20.0;"ORANGE"
568778;4.36139;46.66417;"04° 21' 41.00'' Est, 46° 39' 51.00'' Nord";"71306";;"1 R CHARLES DE FOUCAULD";"71300";"MONTCEAU-LES-MINES";"Immeuble"; 39.0;"Société HLM"
573514;4.76056;46.31000;"04° 45' 38.00'' Est, 46° 18' 36.00'' Nord";"71169";"LA JONCHÈRE";"V.C N° 13";"71960";"DAVAYE";"Pylône autostable"; 38.0;"ORANGE"
573887;4.46778;46.29139;"04° 28' 04.00'' Est, 46° 17' 29.00'' Nord";"71289";"LA GRANDE ROCHE";;"71520";"MATOUR";"Pylône autostable"; 27.0;"TDF"
578301;4.26833;46.43556;"04° 16' 06.00'' Est, 46° 26' 08.00'' Nord";"71106";"CITÉ CHANTECLAIR";"R ST ROCH";"71120";"CHAROLLES";"Pylône autostable"; 34.0;"TDF"
579867;4.06278;46.60194;"04° 03' 46.00'' Est, 46° 36' 07.00'' Nord";"71230";;"PL DES FORGES";"71130";"GUEUGNON";"Bâtiment"; 10.0;"Société Privée SA"
580595;4.79667;46.23528;"04° 47' 48.00'' Est, 46° 14' 07.00'' Nord";"71150";;"HALLE DES SABLONS AIRE DE REPOS DES SABLONS";"71680";"CRECHES-SUR-SAONE";"Pylône autostable"; 43.0;"Sociétés d'Autoroutes"
580936;4.48944;46.89889;"04° 29' 22.00'' Est, 46° 53' 56.00'' Nord";"71409";"LE GRENOUILLÉ";"CHEM RURAL PRÈS D 978";"71490";"SAINT-EMILAND";"Pylône autostable"; 25.0;"ORANGE"
581220;4.75639;46.27639;"04° 45' 23.00'' Est, 46° 16' 35.00'' Nord";"71210";"LES PELÉES";;"71960";"FUISSE";"Pylône autostable"; 34.0;"TDF"
581229;4.07611;46.59417;"04° 04' 34.00'' Est, 46° 35' 39.00'' Nord";"71230";"LA COUCHE AU CHEVALIER";"CHÂTEAU D'EAU";"71130";"GUEUGNON";"Château d'eau - réservoir"; 40.0;"Commune, communauté de commune"
584823;4.22389;46.60639;"04° 13' 26.00'' Est, 46° 36' 23.00'' Nord";"71346";"LE BAS DU CRIE";;"71420";"PERRECY-LES-FORGES";"Château d'eau - réservoir"; 23.0;"Commune, communauté de commune"
587414;4.36917;46.67389;"04° 22' 09.00'' Est, 46° 40' 26.00'' Nord";"71306";;"R BEL AIR R JEAN BOUVERI";"71300";"MONTCEAU-LES-MINES";"Pylône autostable"; 31.0;"ORANGE Services Fixes"
587419;4.46472;46.75778;"04° 27' 53.00'' Est, 46° 45' 28.00'' Nord";"71540";"LE THIELLAY";"RÉSERVOIR C.G.E.";"71210";"TORCY";"Château d'eau - réservoir"; 18.0;"Syndicat des eaux, Adduction"
587431;4.52278;46.72861;"04° 31' 22.00'' Est, 46° 43' 43.00'' Nord";"71436";"BEL AIR";"VC N°4 PRÈS D.977";"71210";"SAINT-LAURENT-D'ANDENAY";"Pylône autostable"; 41.0;"ORANGE"
588115;4.37500;46.86361;"04° 22' 30.00'' Est, 46° 51' 49.00'' Nord";"71282";"PÂTURE DU LOUP";"LE PLATEAU";"71710";"MARMAGNE";"Pylône autostable"; 34.0;"FPS TOWERS"
588168;4.38083;46.67778;"04° 22' 51.00'' Est, 46° 40' 40.00'' Nord";"71306";;"BD DU PLESSIS STADE JEAN BOUVERIE";"71300";"MONTCEAU-LES-MINES";"Pylône autostable"; 35.0;"Commune, communauté de commune"
588170;4.38444;46.70889;"04° 23' 04.00'' Est, 46° 42' 32.00'' Nord";"71040";;"33 RTE DE MONTCENIS CHÂTEAU D'EAU DE PIANRIEUX";"71450";"BLANZY";"Château d'eau - réservoir"; 23.0;"Commune, communauté de commune"
588174;4.45444;46.79889;"04° 27' 16.00'' Est, 46° 47' 56.00'' Nord";"71153";"ZONE ACTIVITÉS BRUYÈRES";"R DES BRUYÈRES";"71200";"LE CREUSOT";"Pylône autostable"; 27.0;"ORANGE"
588181;4.48194;46.76111;"04° 28' 55.00'' Est, 46° 45' 40.00'' Nord";"71310";;"LA GARE";"71210";"MONTCHANIN";"Pylône autostable"; 42.0;"BOUYGUES"
590173;4.69028;46.36222;"04° 41' 25.00'' Est, 46° 21' 44.00'' Nord";"71525";;"CHEM RURAL DIT DE CHAZY - N.79";"71960";"SOLOGNY";"Mât"; 7.0;"ORANGE"
593080;4.49917;46.82167;"04° 29' 57.00'' Est, 46° 49' 18.00'' Nord";"71413";"LA MOTTE";;"71670";"SAINT-FIRMIN";"Pylône autostable"; 24.0;"ORANGE"
593092;4.47056;46.99056;"04° 28' 14.00'' Est, 46° 59' 26.00'' Nord";"71530";"MONT ANDRÉ";;"71360";"SULLY";"Pylône autostable"; 36.0;"ORANGE"
595902;4.71278;46.83583;"04° 42' 46.00'' Est, 46° 50' 09.00'' Nord";"71294";"BOURGNEUF - VAL D'OR -";"LA CROIX ROUSSE";"71640";"MERCUREY";"Pylône autostable"; 28.0;"TDF"
596267;5.31333;46.65111;"05° 18' 48.00'' Est, 46° 39' 04.00'' Nord";"71367";"LA COMMUNAUTÉ";"ANCIENNE RD 140";"71500";"RATTE";"Pylône autostable"; 38.5;"TDF"
596905;4.66972;46.49139;"04° 40' 11.00'' Est, 46° 29' 29.00'' Nord";"71287";"SUR LES CROSSES";;"71250";"MASSILLY";"Pylône autostable"; 41.0;"TDF"
599950;4.75444;46.49222;"04° 45' 16.00'' Est, 46° 29' 32.00'' Nord";"71039";;"MONT ST ROMAIN";"71250";"BLANOT";"Pylône autostable"; 15.0;"Société Privée SA"
603177;4.43639;46.48167;"04° 26' 11.00'' Est, 46° 28' 54.00'' Nord";"71394";;"190 ROUTE DE CHAROLLES";"71220";"SAINT-BONNET-DE-JOUX";"Bâtiment"; 13.0;"Conseil Départemental"
603230;5.24972;46.75528;"05° 14' 59.00'' Est, 46° 45' 19.00'' Nord";"71419";;"V COMMUNALE N°14 MONTÉE DU VILLAGE LE BOURG";"71330";"SAINT-GERMAIN-DU-BOIS";"Pylône autostable"; 30.0;"ORANGE"
609441;4.85278;46.78861;"04° 51' 10.00'' Est, 46° 47' 19.00'' Nord";"71076";;"65 R DE DIJON RESERVOIR";"71100";"CHALON-SUR-SAONE";"Château d'eau - réservoir"; 21.0;"Société Privée SA"
609581;5.03444;46.89056;"05° 02' 04.00'' Est, 46° 53' 26.00'' Nord";"71566";;"LA MAISON BLANCHE";"71350";"VERDUN-SUR-LE-DOUBS";"Château d'eau - réservoir"; 30.0;"Commune, communauté de commune"
610720;4.81750;46.32000;"04° 49' 03.00'' Est, 46° 19' 12.00'' Nord";"71270";;"67, R DE LA LIBERTÉ STADE DE FLACÉ";"71000";"MACON";"Pylône tubulaire"; 22.0;"ORANGE"
611333;4.61944;46.58389;"04° 37' 10.00'' Est, 46° 35' 02.00'' Nord";"71164";"CHAUMETIN";"PYLÔNE RTE À 6 ISOLATEURS";"71460";"CURTIL-SOUS-BURNAND";"Pylône autostable"; 33.0;"RTE"
612537;4.76889;46.86222;"04° 46' 08.00'' Est, 46° 51' 44.00'' Nord";"71202";"CORTETE";"R QUINOT";"71150";"FONTAINES";"Pylône autostable"; 30.0;"SFR"
614496;4.60833;46.58778;"04° 36' 30.00'' Est, 46° 35' 16.00'' Nord";"71164";"BELLES PERCHES";"BOIS DE LA PRECHAULE";"71460";"CURTIL-SOUS-BURNAND";"Pylône autostable"; 41.1;"BOUYGUES"
617510;5.38833;46.48528;"05° 23' 18.00'' Est, 46° 29' 07.00'' Nord";"71157";"CHAMPS SUR CUISEAUX";"PRÈS D.311 B";"71480";"CUISEAUX";"Pylône autostable"; 32.0;"FPS TOWERS"
617844;4.66806;46.75444;"04° 40' 05.00'' Est, 46° 45' 16.00'' Nord";"71324";;"ZAC DE MOROGES RN 80 TERRAIN MODUL CREATION";"71390";"MOROGES";"Pylône autostable"; 23.0;"ORANGE"
622148;4.87611;46.56556;"04° 52' 34.00'' Est, 46° 33' 56.00'' Nord";"71543";"L'ORMETEAU";"CHEM COMMUNAL N°41";"71700";"TOURNUS";"Pylône autostable"; 20.0;"ORANGE"
624751;4.39639;46.80306;"04° 23' 47.00'' Est, 46° 48' 11.00'' Nord";"71153";"LES HAUTS DE BAUDOTS";"CHEM DES HAUTS DE BAUDOTS";"71200";"LE CREUSOT";"Pylône autostable"; 32.0;"Commune, communauté de commune"
627762;4.61222;46.94750;"04° 36' 44.00'' Est, 46° 56' 51.00'' Nord";"71188";"MOUILLE DU LONG CHAMP";;"71360";"EPERTULLY";"Pylône autostable"; 26.0;"ORANGE"
639612;5.25750;46.87778;"05° 15' 27.00'' Est, 46° 52' 40.00'' Nord";"71351";;"R DE MAUBARDS";"71270";"PIERRE-DE-BRESSE";"Pylône autostable"; 33.0;"ORANGE"
643089;4.03611;46.99611;"04° 02' 10.00'' Est, 46° 59' 46.00'' Nord";"71472";"BOIS DU ROI";"LE HAUT FOLIN";"71990";"SAINT-PRIX";"Pylône autostable"; 103.0;"TDF"
643171;4.96111;46.71972;"04° 57' 40.00'' Est, 46° 43' 11.00'' Nord";"71336";"LE PAUTET";;"71370";"OUROUX-SUR-SAONE";"Pylône autostable"; 37.5;"ORANGE"
643188;4.48667;46.83861;"04° 29' 12.00'' Est, 46° 50' 19.00'' Nord";"71468";"LE THEUROT";"CHEM DE LA CAMUZELLE SITE TDF BOIS DU FORT DE LUCHET";"71670";"SAINT-PIERRE-DE-VARENNES";"Pylône autostable"; 32.0;"TDF"
647865;4.30667;46.93889;"04° 18' 24.00'' Est, 46° 56' 20.00'' Nord";"71014";"BOIS DE RIVEAU";"D 120";"71400";"AUTUN";"Pylône autostable"; 24.0;"TDF"
648464;4.81722;46.77583;"04° 49' 02.00'' Est, 46° 46' 33.00'' Nord";"71118";"LES ALOUETTES";"RTE DE GIVRY-PRES INTERSEC A6 DET D69";"71880";"CHATENOY-LE-ROYAL";"Bâtiment"; 25.0;"Société Privée SA"
649107;4.71472;46.42528;"04° 42' 53.00'' Est, 46° 25' 31.00'' Nord";"71236";;"LE MONT DE MANDÉ TOUR HERTZIENNE";"71960";"IGE";"Tour hertzienne"; 62.0;"TDF"
649714;4.56750;46.85806;"04° 34' 03.00'' Est, 46° 51' 29.00'' Nord";"71149";"LES PLAINES";"HAMEAU D'EGUILLY";"71490";"COUCHES";"Pylône autostable"; 47.0;"ORANGE Services Fixes"
650072;4.43444;46.78250;"04° 26' 04.00'' Est, 46° 46' 57.00'' Nord";"71540";"LE VILLET";"AV DE CHAMP CORDET";"71210";"TORCY";"Immeuble"; 52.0;"Commune, communauté de commune"
651308;4.75611;46.21056;"04° 45' 22.00'' Est, 46° 12' 38.00'' Nord";"71090";;"EGLISE- PROCHE D186 LE BOURG";"71570";"LA CHAPELLE-DE-GUINCHAY";"Monument religieux"; 40.0;"Commune, communauté de commune"
657519;4.04306;46.28583;"04° 02' 35.00'' Est, 46° 17' 09.00'' Nord";"71024";"LE CHAMPÊTRE";"V COMMUNALE N°4";"71110";"BAUGY";"Pylône autostable"; 29.0;"ORANGE Services Fixes"
658447;4.74194;46.18750;"04° 44' 31.00'' Est, 46° 11' 15.00'' Nord";"71372";"LA GOUTELLE";;"71570";"ROMANECHE-THORINS";"Immeuble"; 18.0;"Société HLM"
672230;4.47917;46.88500;"04° 28' 45.00'' Est, 46° 53' 06.00'' Nord";"71409";"BOIS DERNIER";"CHEM D'ARNAY LE DUC LA PÂTURE AUX LOUPS";"71490";"SAINT-EMILAND";"Pylône autostable"; 56.0;"ORANGE"
674191;4.55028;46.66750;"04° 33' 01.00'' Est, 46° 40' 03.00'' Nord";"71214";"LES MONTAGNES - LES VOLANS";;"71460";"GENOUILLY";"Pylône autostable"; 36.7;"DDE"
677028;4.94528;46.87306;"04° 56' 43.00'' Est, 46° 52' 23.00'' Nord";"71215";"LE MEIX CROTOT";"R CHARDONNET";"71590";"GERGY";"Château d'eau - réservoir"; 42.0;"Syndicat des eaux, Adduction"
678636;4.43083;47.00944;"04° 25' 51.00'' Est, 47° 00' 34.00'' Nord";"71438";"MOULIN DE NOIRON";"ANCIEN CHEM COMMUNAL";"71360";"SAINT-LEGER-DU-BOIS";"Pylône autostable"; 20.0;"FPS TOWERS"
682077;5.04694;46.68222;"05° 02' 49.00'' Est, 46° 40' 56.00'' Nord";"71489";"LA FONTAINE DU CHÊNE";"CH D'EAU";"71440";"SAINT-VINCENT-EN-BRESSE";"Château d'eau - réservoir"; 46.0;"Syndicat des eaux, Adduction"
682762;4.60667;46.58639;"04° 36' 24.00'' Est, 46° 35' 11.00'' Nord";"71164";"BOIS DES BELLES PERCHES";;"71460";"CURTIL-SOUS-BURNAND";"Pylône autostable"; 42.0;"ORANGE"
683953;4.68528;46.37639;"04° 41' 07.00'' Est, 46° 22' 35.00'' Nord";"71032";"BLONDAS";;"71960";"BERZE-LA-VILLE";"Pylône autostable"; 30.0;"FPS TOWERS"
683954;4.85028;46.77833;"04° 51' 01.00'' Est, 46° 46' 42.00'' Nord";"71076";;"2 QUAI ST-COSME - AV NICÉPHORE NIEPCE COPROPRIÉTÉ DE LA RÉSIDENCE BELLERIVE-LE-DOUBS";"71100";"CHALON-SUR-SAONE";"Immeuble"; 38.0;"Copropriété, Syndic, SCI"
684990;4.66722;46.38528;"04° 40' 02.00'' Est, 46° 23' 07.00'' Nord";"71525";"AU BOIS CLAIR";;"71960";"SOLOGNY";"Pylône autostable"; 16.0;"TDF"
685741;4.80028;46.25306;"04° 48' 01.00'' Est, 46° 15' 11.00'' Nord";"71150";"LES MOINES";"LES PRÉS CANONS";"71680";"CRECHES-SUR-SAONE";"Pylône autostable"; 30.0;"TDF"
686631;4.41556;46.90056;"04° 24' 56.00'' Est, 46° 54' 02.00'' Nord";"71010";;"LE BOURG - RD138";"71400";"ANTULLY";"Château d'eau - réservoir"; 34.0;"Commune, communauté de commune"
690599;4.89278;46.58028;"04° 53' 34.00'' Est, 46° 34' 49.00'' Nord";"71543";;"LA GARENNE";"71700";"TOURNUS";"Château d'eau - réservoir"; 31.0;"Syndicat des eaux, Adduction"
690685;4.81528;46.77167;"04° 48' 55.00'' Est, 46° 46' 18.00'' Nord";"71475";;"R DES ALOUETTES";"71100";"SAINT-REMY";"Château d'eau - réservoir"; 32.0;"Syndicat des eaux, Adduction"
691341;5.40917;46.49972;"05° 24' 33.00'' Est, 46° 29' 59.00'' Nord";"71157";;"CHATEY À LAIT";"71480";"CUISEAUX";"Pylône autostable"; 30.0;"Société Privée SA"
691417;5.25389;46.46444;"05° 15' 14.00'' Est, 46° 27' 52.00'' Nord";"71143";;"LA BERTAUDIÈRE";"71480";"CONDAL";"Château d'eau - réservoir"; 39.0;"Syndicat des eaux, Adduction"
691463;5.16556;46.61944;"05° 09' 56.00'' Est, 46° 37' 10.00'' Nord";"71528";"LA CROIX";"CHEM DU CHÂTEAU D'EAU";"71500";"SORNAY";"Château d'eau - réservoir"; 75.0;"Syndicat des eaux, Adduction"
696613;4.29889;46.95083;"04° 17' 56.00'' Est, 46° 57' 03.00'' Nord";"71014";;"PL DU CHAMP DE MARS THÉATRE";"71400";"AUTUN";"Bâtiment"; 30.0;"Commune, communauté de commune"
699170;4.19694;46.87694;"04° 11' 49.00'' Est, 46° 52' 37.00'' Nord";"71192";"LA GARENNE";;"71190";"ETANG-SUR-ARROUX";"Pylône autostable"; 26.0;"ORANGE"
702618;4.79250;46.78222;"04° 47' 33.00'' Est, 46° 46' 56.00'' Nord";"71118";;"CHEM DE LA DESSERTE ROUTE DE GIVRY";"71880";"CHATENOY-LE-ROYAL";"Pylône autostable"; 24.0;"ORANGE"
703327;4.86194;46.77056;"04° 51' 43.00'' Est, 46° 46' 14.00'' Nord";"71076";"LES VARENNES";"R GUSTAVE LEGRAY";"71100";"CHALON-SUR-SAONE";"Pylône autostable"; 33.0;"ORANGE"
703329;4.83278;46.77889;"04° 49' 58.00'' Est, 46° 46' 44.00'' Nord";"71076";;"R DES CHARREAUX STATION DE POMPAGE";"71100";"CHALON-SUR-SAONE";"Pylône autostable"; 24.0;"ORANGE"
703333;4.85500;46.80611;"04° 51' 18.00'' Est, 46° 48' 22.00'' Nord";"71076";;"AV SALVADOR ALLENDE BOIS DE LA MÉNUSE";"71100";"CHALON-SUR-SAONE";"Château d'eau - réservoir"; 41.0;"Commune, communauté de commune"
703375;4.85917;46.79556;"04° 51' 33.00'' Est, 46° 47' 44.00'' Nord";"71076";;"66, R DU GÉNÉRAL GIRAUD";"71100";"CHALON-SUR-SAONE";"Bâtiment"; 30.0;"ORANGE Services Fixes"
704002;4.85306;46.78861;"04° 51' 11.00'' Est, 46° 47' 19.00'' Nord";"71076";;"R DE DIJON CHATEAU D'EAU";"71100";"CHALON-SUR-SAONE";"Château d'eau - réservoir"; 57.0;"Commune, communauté de commune"
704004;4.84000;46.80556;"04° 50' 24.00'' Est, 46° 48' 20.00'' Nord";"71076";;"R PIERRE MAC ORLAN ADMIN : R ANDRÉ CHÉNIER ANCIEN STADE DE FOOT J. LE JEUNE";"71100";"CHALON-SUR-SAONE";"Pylône tubulaire"; 25.0;"Commune, communauté de commune"
704478;4.83222;46.79139;"04° 49' 56.00'' Est, 46° 47' 29.00'' Nord";"71076";;"6 R RAOUL PONCHON IMM 6B";"71100";"CHALON-SUR-SAONE";"Immeuble"; 29.4;"Société HLM"
706481;4.33556;46.66278;"04° 20' 08.00'' Est, 46° 39' 46.00'' Nord";"71306";;"R DE CHEZ L ECUYER";"71300";"MONTCEAU-LES-MINES";"Immeuble"; 3.0;"Particulier"
711256;4.20972;46.44278;"04° 12' 35.00'' Est, 46° 26' 34.00'' Nord";"71082";"TORTECELLE";"PRÈS N. 79";"71120";"CHAMPLECY";"Pylône autostable"; 38.0;"FPS TOWERS"
715751;5.17861;46.71111;"05° 10' 43.00'' Est, 46° 42' 40.00'' Nord";"71523";"LA BERTANDOISE";"CHEM RURAL DIT DE CORBEAU";"71330";"SIMARD";"Pylône autostable"; 20.0;"ORANGE"
722191;4.28861;46.16639;"04° 17' 19.00'' Est, 46° 09' 59.00'' Nord";"71148";"MONTBERNIER";"SITE ITAS TIM";"71170";"COUBLANC";"Pylône autostable"; 48.0;"Itas Tim"
723479;4.42889;46.82778;"04° 25' 44.00'' Est, 46° 49' 40.00'' Nord";"71479";"LA COMBE  AUX RENARDS";;"71200";"SAINT-SERNIN-DU-BOIS";"Pylône autostable"; 42.0;"TDF"
725009;4.44639;46.99528;"04° 26' 47.00'' Est, 46° 59' 43.00'' Nord";"71530";"LA COME";"D.326 - RTE DE SULLY À VEUVROTTE";"71360";"SULLY";"Pylône autostable"; 42.0;"ORANGE"
726409;4.86056;46.76194;"04° 51' 38.00'' Est, 46° 45' 43.00'' Nord";"71445";"PORT GUILLOT";"RTE DES CENTRALES";"71380";"SAINT-MARCEL";"Pylône autostable"; 40.0;"RTE"
729558;4.49222;46.74722;"04° 29' 32.00'' Est, 46° 44' 50.00'' Nord";"71310";"CHÂTEAU D'AVOISE";;"71210";"MONTCHANIN";"Pylône haubané"; 20.0;"DDE"
729768;4.28833;46.16667;"04° 17' 18.00'' Est, 46° 09' 60.00'' Nord";"71148";;"SIGNAL MONTBERNIER";"71170";"COUBLANC";"Pylône autostable"; 45.0;"TDF"
740434;4.86028;46.63056;"04° 51' 37.00'' Est, 46° 37' 50.00'' Nord";"71512";"RUFFEY";"LA CHIRURGIENNE PROXIMITÉ DE LA CARRIÈRE A6";"71240";"SENNECEY-LE-GRAND";"Pylône autostable"; 15.0;"Sociétés d'Autoroutes"
743120;5.07694;46.73306;"05° 04' 37.00'' Est, 46° 43' 59.00'' Nord";"71548";"LAYER";"D.162 - CHAMP DES OUÉES";"71440";"TRONCHY";"Pylône autostable"; 30.0;"ORANGE"
743794;5.03500;46.54111;"05° 02' 06.00'' Est, 46° 32' 28.00'' Nord";"71213";;"CHEM DE VEILLY";"71290";"LA GENETE";"Pylône autostable"; 24.0;"ORANGE"
745416;4.26583;46.32167;"04° 15' 57.00'' Est, 46° 19' 18.00'' Nord";"71483";"LA BROSSE DE ST GEORGES";;"71800";"SAINT-SYMPHORIEN-DES-BOIS";"Pylône autostable"; 24.0;"ORANGE"
749432;4.54861;46.50528;"04° 32' 55.00'' Est, 46° 30' 19.00'' Nord";"71387";"LA FONTAINE BUCHERET";;"71220";"SAINT-ANDRE-LE-DESERT";"Pylône autostable"; 37.4;"Conseil Départemental"
757709;4.82833;46.76944;"04° 49' 42.00'' Est, 46° 46' 10.00'' Nord";"71475";;"1 PL JEAN JAURÈS MAIRIE";"71100";"SAINT-REMY";"Bâtiment"; 21.0;"Commune, communauté de commune"
760306;4.18278;46.76333;"04° 10' 58.00'' Est, 46° 45' 48.00'' Nord";"71172";"LE BOURG";;"71190";"DETTEY";"Pylône autostable"; 24.0;"DDE"
771158;4.66750;46.38472;"04° 40' 03.00'' Est, 46° 23' 05.00'' Nord";"71525";"LE BOIS CLAIR";"D. 17";"71960";"SOLOGNY";"Pylône autostable"; 24.0;"ORANGE"
774473;4.43694;46.68389;"04° 26' 13.00'' Est, 46° 41' 02.00'' Nord";"71040";"LE FRAGNAY";"CHÂTEAU D'EAU DU FRAGNAY";"71450";"BLANZY";"Château d'eau - réservoir"; 25.0;"Société Privée SA"
777013;4.49306;46.84111;"04° 29' 35.00'' Est, 46° 50' 28.00'' Nord";"71468";"BRAGNY";"CHEM FORESTIER EN BRAGNY AVE DES MOULINS";"71670";"SAINT-PIERRE-DE-VARENNES";"Pylône autostable"; 25.0;"ORANGE"
778828;5.06056;46.82028;"05° 03' 38.00'' Est, 46° 49' 13.00'' Nord";"71456";"LES GRENOUILLÈRES";"R DES GRENOUILLÈRES";"71620";"SAINT-MARTIN-EN-BRESSE";"Pylône autostable"; 26.0;"ORANGE Services Fixes"
783211;4.32694;46.19667;"04° 19' 37.00'' Est, 46° 11' 48.00'' Nord";"71120";"LA CHAPELLE";;"71170";"CHAUFFAILLES";"Pylône autostable"; 27.0;"Towercast"
784245;4.85056;46.78389;"04° 51' 02.00'' Est, 46° 47' 02.00'' Nord";"71076";;"5 BD  DE LA RÉPUBLIQUE";"71100";"CHALON-SUR-SAONE";"Pylône autostable"; 22.0;"Société Privée SA"
790962;5.20944;46.64528;"05° 12' 34.00'' Est, 46° 38' 43.00'' Nord";"71263";"LE GUIDON";"RN 78";"71500";"LOUHANS";"Château d'eau - réservoir"; 36.0;"Syndicat des eaux, Adduction"
791815;5.18000;46.80194;"05° 10' 48.00'' Est, 46° 48' 07.00'' Nord";"71295";;"RUE DU CHAMP BRILLANT ZI DE LA GARE";"71310";"MERVANS";"Pylône autostable"; 31.0;"SFR"
796197;4.85750;46.78583;"04° 51' 27.00'' Est, 46° 47' 09.00'' Nord";"71076";;"5 R COLETTE RÉSIDENCE L'ESQUILIN";"71100";"CHALON-SUR-SAONE";"Immeuble"; 36.0;"Société HLM"
808265;4.12722;46.46639;"04° 07' 38.00'' Est, 46° 27' 59.00'' Nord";"71342";"LE GOLERIAU";;"71600";"PARAY-LE-MONIAL";"Château d'eau - réservoir"; 29.0;"Syndicat des eaux, Adduction"
808488;4.04333;46.19417;"04° 02' 36.00'' Est, 46° 11' 39.00'' Nord";"71291";"LE MERLE - MULSANT";"CHEM RURAL";"71340";"MELAY";"Pylône autostable"; 31.0;"ORANGE Services Fixes"
808939;4.90556;46.93028;"04° 54' 20.00'' Est, 46° 55' 49.00'' Nord";"71443";"LE TARTRE";;"71350";"SAINT-LOUP-DE-LA-SALLE";"Pylône autostable"; 18.0;"Société Privée SA"
808941;4.15000;46.26833;"04° 09' 00.00'' Est, 46° 16' 06.00'' Nord";"71415";"HEURGUES";;"71110";"SAINTE-FOY";"Pylône autostable"; 36.0;"Société Privée SA"
808945;4.42750;46.32611;"04° 25' 39.00'' Est, 46° 19' 34.00'' Nord";"71316";"SUR ST-CYR";;"71520";"MONTMELARD";"Pylône autostable"; 36.0;"Société Privée SA"
809095;4.83528;46.30861;"04° 50' 07.00'' Est, 46° 18' 31.00'' Nord";"71270";;"142, R SIRÈNE RÉSIDENCE VEYLE SIRÈNE";"71000";"MACON";"Bâtiment"; 21.0;"Société HLM"
809192;3.69222;46.70528;"03° 41' 32.00'' Est, 46° 42' 19.00'' Nord";"71155";"LE VERDELET";"D.979";"71140";"CRONAT";"Pylône autostable"; 23.0;"Conseil Départemental"
809788;5.34306;46.56722;"05° 20' 35.00'' Est, 46° 34' 02.00'' Nord";"71300";"ETANG NIAT";"ROUTE DE BEFFOUX A36 DOLE-BOURG EN BRESSE";"71480";"LE MIROIR";"Pylône autostable"; 40.0;"Sociétés d'Autoroutes"
810696;5.10278;46.60167;"05° 06' 10.00'' Est, 46° 36' 06.00'' Nord";"71018";"LA COMMAGNE";"VOIE COMMUNALE N°5";"71500";"BANTANGES";"Pylône autostable"; 32.0;"ORANGE"
811727;4.65222;46.39472;"04° 39' 08.00'' Est, 46° 23' 41.00'' Nord";"71397";"CHAMP TABOLLIN";;"71250";"SAINTE-CECILE";"Pylône autostable"; 42.0;"ORANGE"
811751;4.65889;46.51389;"04° 39' 32.00'' Est, 46° 30' 50.00'' Nord";"71532";"LA CRAS";"CHEM RURAL 2 DE FLAGY";"71250";"TAIZE";"Pylône autostable"; 31.0;"ORANGE"
811889;4.80833;46.28389;"04° 48' 30.00'' Est, 46° 17' 02.00'' Nord";"71270";;"280 CHEM DE LA CROIX SACCARD";"71000";"MACON";"Pylône tubulaire"; 24.0;"ORANGE"
811895;4.84667;46.81611;"04° 50' 48.00'' Est, 46° 48' 58.00'' Nord";"71081";;"R LOUIS JACQUES THÉNARD FONDERIE MATTHIEU";"71530";"CHAMPFORGEUIL";"Pylône tubulaire"; 23.0;"ORANGE"
811901;4.83639;46.82639;"04° 50' 11.00'' Est, 46° 49' 35.00'' Nord";"71081";;"R. ANDRE MARIE AMPERE ZI DES BLETTRYS";"71530";"CHAMPFORGEUIL";"Pylône tubulaire"; 21.0;"ORANGE"
811913;4.25278;47.07861;"04° 15' 10.00'' Est, 47° 04' 43.00'' Nord";"71266";"DESSUS DE LA GURGE";"CHEM FORESTIER";"71540";"LUCENAY-L'EVEQUE";"Pylône autostable"; 15.0;"TDF"
811917;4.18472;47.08028;"04° 11' 05.00'' Est, 47° 04' 49.00'' Nord";"71165";"GRAND BOIS D' ALLYE";"FORET VOILLOT";"71550";"CUSSY-EN-MORVAN";"Pylône haubané"; 37.0;"ORANGE Services Fixes"
811919;4.43750;46.47556;"04° 26' 15.00'' Est, 46° 28' 32.00'' Nord";"71394";"LES CONDEMINES";"RTE COMMUNALE";"71220";"SAINT-BONNET-DE-JOUX";"Pylône autostable"; 41.0;"Conseil Départemental"
811923;4.09944;46.26806;"04° 05' 58.00'' Est, 46° 16' 05.00'' Nord";"71510";"MONT JOMEZ";"CHEM DE LA CROIX NEUVE DÉCHETTERIE MUNICIPALE";"71110";"SEMUR-EN-BRIONNAIS";"Pylône autostable"; 35.0;"Conseil Départemental"
811931;4.28444;46.95139;"04° 17' 04.00'' Est, 46° 57' 05.00'' Nord";"71014";;"BD. DE L'INDUSTRIE";"71400";"AUTUN";"Pylône tubulaire"; 23.0;"ORANGE"
812207;4.28722;46.93056;"04° 17' 14.00'' Est, 46° 55' 50.00'' Nord";"71014";"MONTAGNE ST-SÉBASTIEN";;"71400";"AUTUN";"Pylône autostable"; 44.0;"TDF"
812389;4.82444;46.31583;"04° 49' 28.00'' Est, 46° 18' 57.00'' Nord";"71270";;"4 RUE DE LA LIBERTÉ HÔTEL ESCATEL";"71000";"MACON";"Immeuble"; 21.0;"Copropriété, Syndic, SCI"
812404;4.86667;46.81972;"04° 52' 00.00'' Est, 46° 49' 11.00'' Nord";"71154";;"R DE LA MARE";"71530";"CRISSEY";"Pylône tubulaire"; 22.0;"ORANGE"
812406;4.83917;46.32444;"04° 50' 21.00'' Est, 46° 19' 28.00'' Nord";"71270";"MARBE";"36, R DU DR SCHWEITZER";"71000";"MACON";"Bâtiment"; 26.0;"Société HLM"
812408;4.81778;46.29083;"04° 49' 04.00'' Est, 46° 17' 27.00'' Nord";"71270";;"615 RUE EINSTEIN LAVOISIER";"71000";"MACON";"Pylône autostable"; 22.0;"ORANGE"
812410;4.84667;46.33500;"04° 50' 48.00'' Est, 46° 20' 06.00'' Nord";"71497";;"ZAC DES PLATRIÈRES PRES ROCHATS";"71000";"SANCE";"Pylône autostable"; 25.0;"ORANGE"
812412;4.31917;46.97111;"04° 19' 09.00'' Est, 46° 58' 16.00'' Nord";"71014";"ST SYMPHORIEN";"R BORGNE";"71400";"AUTUN";"Pylône autostable"; 27.0;"ORANGE"
812414;4.79444;46.26361;"04° 47' 40.00'' Est, 46° 15' 49.00'' Nord";"71556";"TERRE DE CERISAT";"PRÈS N.6 LOT ARTISANAL LES COMBES";"71000";"VARENNES-LES-MACON";"Pylône tubulaire"; 24.0;"ORANGE"
812416;4.84278;46.69444;"04° 50' 34.00'' Est, 46° 41' 40.00'' Nord";"71384";;"AIRE DE SERVICE DE LA FERTÉ S.A.P.R.R";"71240";"SAINT-AMBREUIL";"Pylône autostable"; 40.0;"Sociétés d'Autoroutes"
812418;4.10333;46.44778;"04° 06' 12.00'' Est, 46° 26' 52.00'' Nord";"71342";"LES CHARCANTS";"R EDOUARD JAUNEZ";"71600";"PARAY-LE-MONIAL";"Château d'eau - réservoir"; 23.0;"Société Privée SA"
812420;4.78639;46.28750;"04° 47' 11.00'' Est, 46° 17' 15.00'' Nord";"71105";"LES BERTHILLIERS";"CHEM DES BERTHILLIERS ETS BIGOT - SA EADAC";"71850";"CHARNAY-LES-MACON";"Pylône autostable"; 14.0;"ORANGE"
812422;4.84389;46.77306;"04° 50' 38.00'' Est, 46° 46' 23.00'' Nord";"71475";;"10 RTE DE LYON";"71100";"SAINT-REMY";"Bâtiment"; 17.0;"Société Privée SA"
812448;4.86722;46.42139;"04° 52' 02.00'' Est, 46° 25' 17.00'' Nord";"71383";"AIRE DE MÂCON-LA SALLE";"A.6 - PK 374.7 - DIRECTION PARIS";"71260";"SAINT-ALBAIN";"Pylône autostable"; 40.0;"Sociétés d'Autoroutes"
812452;4.41000;46.33306;"04° 24' 36.00'' Est, 46° 19' 59.00'' Nord";"71316";;"VC N°4 DE MONTMELARD CSEC";"71520";"MONTMELARD";"Pylône tubulaire"; 18.0;"SDIS, secours, incendie"
812457;4.79639;46.31000;"04° 47' 47.00'' Est, 46° 18' 36.00'' Nord";"71105";;"GRANDE R DE LA COUPÉE MAIRIE DE CHARNAY LES MACÔN";"71850";"CHARNAY-LES-MACON";"Bâtiment"; 14.0;"Commune, communauté de commune"
812483;4.80528;46.29111;"04° 48' 19.00'' Est, 46° 17' 28.00'' Nord";"71270";;"154 CHEM DE LA LYE";"71000";"MACON";"Immeuble"; 27.0;"Société HLM"
819471;4.70694;46.76333;"04° 42' 25.00'' Est, 46° 45' 48.00'' Nord";"71404";"CHAUME LE CHAPELLE";"STATION TDF";"71390";"SAINT-DESERT";"Pylône autostable"; 23.0;"TDF"
820327;4.82083;46.28278;"04° 49' 15.00'' Est, 46° 16' 58.00'' Nord";"71270";;"45 QUAI JOUFFROY D ALBANS ZONE PORT SUD SILO MACON";"71000";"MACON";"Bâtiment"; 3.0;"Société Privée SA"
820429;4.39389;46.88611;"04° 23' 38.00'' Est, 46° 53' 10.00'' Nord";"71010";"LES VAVRES";;"71400";"ANTULLY";"Pylône autostable"; 28.0;"TDF"
822362;4.43972;46.79250;"04° 26' 23.00'' Est, 46° 47' 33.00'' Nord";"71153";;"R DE CHANZY";"71200";"LE CREUSOT";"Pylône autostable"; 30.0;"ORANGE"
826729;4.28750;46.93417;"04° 17' 15.00'' Est, 46° 56' 03.00'' Nord";"71014";"LA MONTAGNE ST-SÉBASTIEN";"CROIX DE LA LIBÉRATION";"71400";"AUTUN";"Pylône autostable"; 12.0;"Société Privée SA"
826731;4.22500;46.35750;"04° 13' 30.00'' Est, 46° 21' 27.00'' Nord";"71361";"CROIX MOMMESSIN";"BORD VOIE COMMUNALE N°2";"71800";"PRIZY";"Mât"; 12.0;"Société Privée SA"
826733;4.46833;46.90778;"04° 28' 06.00'' Est, 46° 54' 28.00'' Nord";"71409";"LE PÂQUIER DE LA JUSTICE";"BORD VOIE COMMUNALE";"71490";"SAINT-EMILAND";"Mât"; 12.0;"Société Privée SA"
826737;4.71750;46.24417;"04° 43' 03.00'' Est, 46° 14' 39.00'' Nord";"71385";"CÔTE DE BESSET";;"71570";"SAINT-AMOUR-BELLEVUE";"Mât"; 12.0;"Société Privée SA"
826741;4.73750;46.34806;"04° 44' 15.00'' Est, 46° 20' 53.00'' Nord";"71371";"LA ROCHETTE";;"71960";"LA ROCHE-VINEUSE";"Mât"; 12.0;"Société Privée SA"
826743;4.52861;46.28944;"04° 31' 43.00'' Est, 46° 17' 22.00'' Nord";"71469";"LA VERCHÈRE";;"71520";"SAINT-PIERRE-LE-VIEUX";"Mât"; 12.0;"Société Privée SA"
826745;4.43750;46.84083;"04° 26' 15.00'' Est, 46° 50' 27.00'' Nord";"71479";;"10 R DE LA CROIX - BORD DE VOIRIE";"71200";"SAINT-SERNIN-DU-BOIS";"Mât"; 12.0;"Société Privée SA"
826747;4.58889;46.35028;"04° 35' 20.00'' Est, 46° 21' 01.00'' Nord";"71055";"LES ECHELIERS";;"71520";"BRANDON";"Mât"; 12.0;"Société Privée SA"
828634;3.91250;46.65333;"03° 54' 45.00'' Est, 46° 39' 12.00'' Nord";"71227";"LE HAUT DU CROT";;"71760";"GRURY";"Pylône autostable"; 36.0;"Société Privée SA"
833814;4.54333;46.70889;"04° 32' 36.00'' Est, 46° 42' 32.00'' Nord";"71465";"LA RAIE DE L'ECHENAU";"PROCHE PONEY CLUB";"71460";"SAINT-MICAUD";"Pylône autostable"; 30.0;"TDF"
837304;4.79250;46.28222;"04° 47' 33.00'' Est, 46° 16' 56.00'' Nord";"71270";;"BARRIÈRE DE PÉAGE APRR";"71000";"MACON";"Pylône autostable"; 30.0;"Sociétés d'Autoroutes"
848689;3.77111;46.62722;"03° 46' 16.00'' Est, 46° 37' 38.00'' Nord";"71047";;"CHEM DU PRÉ TOYARD TERRAIN DE RUGBY";"71140";"BOURBON-LANCY";"Pylône tubulaire"; 28.0;"ORANGE"
850130;5.04583;46.70222;"05° 02' 45.00'' Est, 46° 42' 08.00'' Nord";"71410";"LES OUEZ";"CHEM DES CHAILLOTS AU MOULIN";"71370";"SAINT-ETIENNE-EN-BRESSE";"Pylône autostable"; 30.0;"ORANGE"
854160;4.85500;46.77722;"04° 51' 18.00'' Est, 46° 46' 38.00'' Nord";"71076";;"2 R THOMAS DUMOREY";"71100";"CHALON-SUR-SAONE";"Bâtiment"; 16.0;"Etat, Ministère"
854179;4.65917;46.43444;"04° 39' 33.00'' Est, 46° 26' 04.00'' Nord";"71137";;"R PORTE DE PARIS";"71250";"CLUNY";"Bâtiment"; 40.0;"Etat, Ministère"
855599;4.84167;46.83917;"04° 50' 30.00'' Est, 46° 50' 21.00'' Nord";"71204";"LA LONGEROIE";;"71530";"FRAGNES";"Pylône autostable"; 50.0;"TDF"
864429;4.87389;46.76583;"04° 52' 26.00'' Est, 46° 45' 57.00'' Nord";"71445";;"R HENRI BECQUEREL ZIP SUD";"71380";"SAINT-MARCEL";"Bâtiment"; 8.0;"Société Privée SA"
864530;4.30139;46.95278;"04° 18' 05.00'' Est, 46° 57' 10.00'' Nord";"71014";;"9 BD FRÉDÉRIC LATOUCHE HOP";"71400";"AUTUN";"Immeuble"; 18.0;"Etablissement de soins"
864594;4.82694;46.29833;"04° 49' 37.00'' Est, 46° 17' 54.00'' Nord";"71270";;"1 CARREFOUR DE L'EUROPE";"71000";"MACON";"Immeuble"; 49.0;"Société HLM"
877900;4.80972;46.29194;"04° 48' 35.00'' Est, 46° 17' 31.00'' Nord";"71270";;"R DU BEAUJOLAIS 69";"71870";"MACON";"Immeuble"; 22.5;"Société HLM"
889858;4.84639;46.81611;"04° 50' 47.00'' Est, 46° 48' 58.00'' Nord";"71081";;"R SADI CARNOT ET LOUIS JACQUES THENARD 19";"71530";"CHAMPFORGEUIL";"Pylône tubulaire"; 25.0;"IFW-FREE"
893081;4.66361;46.35083;"04° 39' 49.00'' Est, 46° 21' 03.00'' Nord";"71525";"PIERRECLOS";;"71960";"SOLOGNY";"Pylône autostable"; 25.0;"EDF ou GDF"
893085;4.84750;46.78000;"04° 50' 51.00'' Est, 46° 46' 48.00'' Nord";"71076";;"20 AV. VICTOR HUGO";"71100";"CHALON-SUR-SAONE";"Bâtiment"; 15.0;"EDF ou GDF"
893598;4.68667;46.85000;"04° 41' 12.00'' Est, 46° 51' 00.00'' Nord";"71005";"RUE DU MOULIN";;"71510";"ALUZE";"Pylône autostable"; 28.0;"EDF ou GDF"
894058;4.84222;46.38250;"04° 50' 32.00'' Est, 46° 22' 57.00'' Nord";"71448";"CLOS JO";;"71118";"SAINT-MARTIN-BELLE-ROCHE";"Mât métallique"; 15.0;"EDF ou GDF"
895589;4.86944;46.81972;"04° 52' 10.00'' Est, 46° 49' 11.00'' Nord";"71154";;"CHEM DE LA MENUSE 7";"71530";"CRISSEY";"Pylône tubulaire"; 20.0;"IFW-FREE"
903861;3.91194;46.65278;"03° 54' 43.00'' Est, 46° 39' 10.00'' Nord";"71227";"LE HAUT DU CROT";;"71760";"GRURY";"Pylône autostable"; 20.0;"EDF ou GDF"
905551;4.65639;46.81556;"04° 39' 23.00'' Est, 46° 48' 56.00'' Nord";"71442";"LA TROCHE";;"71510";"SAINT-LEGER-SUR-DHEUNE";"Pylône autostable"; 26.0;"Société Privée SA"
905581;4.75278;46.91389;"04° 45' 10.00'' Est, 46° 54' 50.00'' Nord";"71073";;"RUE DES PONTS";"71150";"CHAGNY";"Mât"; 9.0;"EDF ou GDF"
908304;4.84333;46.77278;"04° 50' 36.00'' Est, 46° 46' 22.00'' Nord";"71475";;"ROUTE DE LYON 10";"71100";"SAINT-REMY";"Château d'eau - réservoir"; 20.0;"Société Privée SA"
908551;4.39472;46.98139;"04° 23' 41.00'' Est, 46° 58' 53.00'' Nord";"71162";;"LES CRAYS DE COLLONGES";"71400";"CURGY";"Pylône autostable"; 32.0;"TDF"
910746;4.42750;46.32611;"04° 25' 39.00'' Est, 46° 19' 34.00'' Nord";"71316";;"MONTAGNE DE SAINT CYR TABLE D'ORIENTATION";"71520";"MONTMELARD";"Pylône autostable"; 15.0;"EDF ou GDF"
915902;5.21361;46.61889;"05° 12' 49.00'' Est, 46° 37' 08.00'' Nord";"71263";;"CHEMIN DU TACOT";"71500";"LOUHANS";"Bâtiment"; 6.0;"EDF ou GDF"
918467;5.34167;46.74556;"05° 20' 30.00'' Est, 46° 44' 44.00'' Nord";"71534";;"LES RIPPES";"71330";"LE TARTRE";"Château d'eau - réservoir"; 46.0;"Syndicat des eaux, Adduction"
918875;4.84306;46.79694;"04° 50' 35.00'' Est, 46° 47' 49.00'' Nord";"71076";;"19 R ANDRE GIDE";"71100";"CHALON-SUR-SAONE";"Immeuble"; 37.0;"Société HLM"
919007;4.83250;46.30417;"04° 49' 57.00'' Est, 46° 18' 15.00'' Nord";"71270";;"R JEAN BAPTISTE FERRET 21";"71870";"MACON";"Immeuble"; 19.7;"Copropriété, Syndic, SCI"
920815;4.82222;46.29694;"04° 49' 20.00'' Est, 46° 17' 49.00'' Nord";"71270";;"AV EDOUARD HERRIOT 76";"71870";"MACON";"Immeuble"; 43.5;"Société HLM"
921860;4.78222;46.34861;"04° 46' 56.00'' Est, 46° 20' 55.00'' Nord";"71371";"LE GROS MONT";;"71960";"LA ROCHE-VINEUSE";"Pylône autostable"; 30.0;"Société Privée SA"
932177;4.85944;46.81444;"04° 51' 34.00'' Est, 46° 48' 52.00'' Nord";"71076";;"R PIERRE COT  ZI DU BOIS DE MENUSE";"71100";"CHALON-SUR-SAONE";"Pylône tubulaire"; 25.0;"IFW-FREE"
948150;4.11444;46.46556;"04° 06' 52.00'' Est, 46° 27' 56.00'' Nord";"71342";;"BD. DU CHAMP BOSSU ZAC DU CHAMP BOSSU AGENCE D'EXPLOITATION ET LOCAUX TECHNIQUES";"71600";"PARAY-LE-MONIAL";"Bâtiment"; 11.0;"EDF ou GDF"
951933;4.31806;46.95556;"04° 19' 05.00'' Est, 46° 57' 20.00'' Nord";"71014";;"ROUTE DE CHALON POSTE SOURCE";"71400";"AUTUN";"Bâtiment"; 6.0;"EDF ou GDF"
953459;5.22500;46.63083;"05° 13' 30.00'' Est, 46° 37' 51.00'' Nord";"71263";;"RUE DE L'ECOTET RUE DU PARC DUPLAN";"71500";"LOUHANS";"Bâtiment"; 8.0;"EDF ou GDF"
953465;4.50250;46.74750;"04° 30' 09.00'' Est, 46° 44' 51.00'' Nord";"71187";;"ROUTE DU PONT JEANNE ROSE POSTE EDF/ERDF HENRI PAUL";"71210";"ECUISSES";"Bâtiment"; 9.0;"EDF ou GDF"
958851;4.49472;46.93278;"04° 29' 41.00'' Est, 46° 55' 58.00'' Nord";"71539";"LA PERRIÈRE";"CHEM DE DESSERTE";"71490";"TINTRY";"Pylône autostable"; 34.0;"TDF"
959381;4.40250;47.00694;"04° 24' 09.00'' Est, 47° 00' 25.00'' Nord";"71162";"PETITE VERNUSSE";"D107";"71400";"CURGY";"Pylône autostable"; 30.2;"TDF"
959437;4.85361;46.78083;"04° 51' 13.00'' Est, 46° 46' 51.00'' Nord";"71076";;"3 PL DE L HOTEL DE VILLE";"71100";"CHALON-SUR-SAONE";"Bâtiment"; 15.0;"Commune, communauté de commune"
962100;4.10722;46.46028;"04° 06' 26.00'' Est, 46° 27' 37.00'' Nord";"71342";;"20 RUE DE BOURGOGNE POSTE SOURCE";"71600";"PARAY-LE-MONIAL";"Bâtiment"; 5.0;"EDF ou GDF"
964917;4.83056;46.29861;"04° 49' 50.00'' Est, 46° 17' 55.00'' Nord";"71270";;"RUE DE LA REPUBLIQUE";"71000";"MACON";"Bâtiment"; 8.0;"EDF ou GDF"
966172;4.47139;47.02417;"04° 28' 17.00'' Est, 47° 01' 27.00'' Nord";"71530";;"BOUTON";"71360";"SULLY";"Bâtiment"; 4.0;"TDF"
968628;4.67528;46.46000;"04° 40' 31.00'' Est, 46° 27' 36.00'' Nord";"71146";"LA PRAIRIE";"VOIE VERTE DE LA CÔTE CHALONNAISE";"71250";"CORTAMBERT";"Pylône autostable"; 34.6;"TDF"
970052;4.86806;46.76833;"04° 52' 05.00'' Est, 46° 46' 06.00'' Nord";"71445";;"RUE LOUIS ALPHONSE POITEVIN POSTE MT CHANTERELLE";"71380";"SAINT-MARCEL";"Bâtiment"; 3.0;"EDF ou GDF"
970063;4.36722;46.67917;"04° 22' 02.00'' Est, 46° 40' 45.00'' Nord";"71306";;"AV. DU MARÉCHAL LECLERC";"71300";"MONTCEAU-LES-MINES";"Bâtiment"; 13.0;"EDF ou GDF"
970065;3.76250;46.62306;"03° 45' 45.00'' Est, 46° 37' 23.00'' Nord";"71047";;"AV. EMILE ET CLAUDE PUZENAT";"71140";"BOURBON-LANCY";"Bâtiment"; 6.0;"EDF ou GDF"
970355;4.41528;46.80667;"04° 24' 55.00'' Est, 46° 48' 24.00'' Nord";"71153";;"RUE DE LA FONDERIE POSTE SOURCE";"71200";"LE CREUSOT";"Bâtiment"; 8.0;"EDF ou GDF"
976255;4.09417;46.79083;"04° 05' 39.00'' Est, 46° 47' 27.00'' Nord";"71537";"LES PETITS ETANGS";"CHEVIGNY  D 47";"71190";"THIL-SUR-ARROUX";"Pylône autostable"; 32.0;"Conseil Départemental"
995417;4.85361;46.39667;"04° 51' 13.00'' Est, 46° 23' 48.00'' Nord";"71513";"CLOS JOUBERT";"RUE DU TREUIL - RTE DE LA MONTAGNE";"71260";"SENOZAN";"Pylône autostable"; 20.0;"ORANGE"
1004436;4.77556;46.85139;"04° 46' 32.00'' Est, 46° 51' 05.00'' Nord";"71202";;"DERIÈRE LA GARE";"71150";"FONTAINES";"Pylône autostable"; 20.0;"SNCF Réseau"
1004438;4.83972;46.77028;"04° 50' 23.00'' Est, 46° 46' 13.00'' Nord";"71475";;"PRÉ SAINT JEAN";"71100";"SAINT-REMY";"Pylône autostable"; 30.0;"SNCF Réseau"
1004440;4.86750;46.68972;"04° 52' 03.00'' Est, 46° 41' 23.00'' Nord";"71384";;"BRULEFIN";"71240";"SAINT-AMBREUIL";"Pylône autostable"; 25.0;"SNCF Réseau"
1004442;4.90583;46.61056;"04° 54' 21.00'' Est, 46° 36' 38.00'' Nord";"71052";;"LES COURS BOUCHEY";"71700";"BOYER";"Pylône autostable"; 25.0;"SNCF Réseau"
1004444;4.92222;46.54583;"04° 55' 20.00'' Est, 46° 32' 45.00'' Nord";"71576";;"LA MOUILLE";"71700";"LE VILLARS";"Pylône autostable"; 25.0;"SNCF Réseau"
1004446;4.92111;46.50639;"04° 55' 16.00'' Est, 46° 30' 23.00'' Nord";"71195";;"SUR LE MUR";"71700";"FARGES-LES-MACON";"Pylône autostable"; 25.0;"SNCF Réseau"
1004448;4.87639;46.42222;"04° 52' 35.00'' Est, 46° 25' 20.00'' Nord";"71383";;"SOUS BERRY";"71260";"SAINT-ALBAIN";"Pylône autostable"; 20.0;"SNCF Réseau"
1012412;4.82833;46.84889;"04° 49' 42.00'' Est, 46° 50' 56.00'' Nord";"71265";"LA PIECE DU ROI";"RUE ST VINCENT";"71530";"LA LOYERE";"Pylône autostable"; 22.0;"ORANGE"
1016419;4.66333;46.42778;"04° 39' 48.00'' Est, 46° 25' 40.00'' Nord";"71137";;"ROUTE DE LA DIGUE";"71250";"CLUNY";"Bâtiment"; 3.0;"EDF ou GDF"
1016822;3.73861;46.62194;"03° 44' 19.00'' Est, 46° 37' 19.00'' Nord";"71047";"LES FORGES";"D979 ROUTE DE DIGOIN";"71140";"BOURBON-LANCY";"Bâtiment"; 8.0;"EDF ou GDF"
1016951;4.00361;46.49139;"04° 00' 13.00'' Est, 46° 29' 29.00'' Nord";"71176";"LA BIERETTE";"LES LOTISSEMENTS LES SAULES";"71160";"DIGOIN";"Bâtiment"; 6.0;"EDF ou GDF"
1016957;4.27250;46.44417;"04° 16' 21.00'' Est, 46° 26' 39.00'' Nord";"71106";"CHAZEAU";"LE CHAZAEU";"71120";"CHAROLLES";"Bâtiment"; 6.0;"EDF ou GDF"
1016959;4.17361;46.78667;"04° 10' 25.00'' Est, 46° 47' 12.00'' Nord";"71172";"LES GRANDES BRUYERES";"LA GRANDE COMBE";"71190";"DETTEY";"Bâtiment"; 6.0;"EDF ou GDF"
1016990;4.40722;46.70833;"04° 24' 26.00'' Est, 46° 42' 30.00'' Nord";"71040";"LE MEPLIER";"RUE DE LA FOLIE";"71450";"BLANZY";"Bâtiment"; 7.0;"EDF ou GDF"
1016994;4.50500;46.97778;"04° 30' 18.00'' Est, 46° 58' 40.00'' Nord";"71190";"BELLE VUE POSTE MT-EPINAC(3727";"ROUTE DE BELLEVUE";"71360";"EPINAC";"Mât"; 16.0;"EDF ou GDF"
1017004;4.82944;46.29889;"04° 49' 46.00'' Est, 46° 17' 56.00'' Nord";"71270";"LES BLANCHETTES 1";"RUE DE LA RÉPUBLIQUE";"71000";"MACON";"Bâtiment"; 3.0;"EDF ou GDF"
1017526;5.21472;46.81250;"05° 12' 53.00'' Est, 46° 48' 45.00'' Nord";"71168";;"LE ROSELAY ROUTE DE CHAMP RENAUD";"71310";"DAMPIERRE-EN-BRESSE";"Château d'eau - réservoir"; 51.0;"Syndicat des eaux, Adduction"
1017569;4.83778;46.32417;"04° 50' 16.00'' Est, 46° 19' 27.00'' Nord";"71270";"LA GIROUETTE";"AVENUE DU MARECHAL JUIN";"71000";"MACON";"Bâtiment"; 5.0;"EDF ou GDF"
1017880;4.47722;46.62750;"04° 28' 38.00'' Est, 46° 37' 39.00'' Nord";"71320";"A LA CROIX NEUVE";;"71300";"MONT-SAINT-VINCENT";"Pylône autostable"; 12.0;"EDF ou GDF"
1018371;4.88639;46.57028;"04° 53' 11.00'' Est, 46° 34' 13.00'' Nord";"71543";"LA CROIX LEONARD";"D 215 RUE PAUL PERREAUT";"71700";"TOURNUS";"Bâtiment"; 5.0;"EDF ou GDF"
1018373;4.81222;46.28722;"04° 48' 44.00'' Est, 46° 17' 14.00'' Nord";"71270";"LES NOYERATS";"RUE LAVOISIER";"71000";"MACON";"Bâtiment"; 5.0;"EDF ou GDF"
1018375;5.05083;46.50472;"05° 03' 03.00'' Est, 46° 30' 17.00'' Nord";"71373";"LES DOURYS";"LES LONGUES RAIES";"71470";"ROMENAY";"Bâtiment"; 5.0;"EDF ou GDF"
1018690;5.14139;46.91972;"05° 08' 29.00'' Est, 46° 55' 11.00'' Nord";"71329";;"LE SENTIER DE DAMES";"71270";"NAVILLY";"Pylône autostable"; 25.0;"SNCF Réseau"
1018692;5.17083;46.81333;"05° 10' 15.00'' Est, 46° 48' 48.00'' Nord";"71295";;"BUXY OUEST";"71310";"MERVANS";"Pylône autostable"; 30.0;"SNCF Réseau"
1018694;5.19139;46.71833;"05° 11' 29.00'' Est, 46° 43' 06.00'' Nord";"71523";;"LE GALLET";"71330";"SIMARD";"Pylône autostable"; 25.0;"SNCF Réseau"
1018696;5.30222;46.50083;"05° 18' 08.00'' Est, 46° 30' 03.00'' Nord";"71177";;"QUARTIER DE LA GARE";"71480";"DOMMARTIN-LES-CUISEAUX";"Pylône autostable"; 30.0;"SNCF Réseau"
1018806;4.07417;46.60806;"04° 04' 27.00'' Est, 46° 36' 29.00'' Nord";"71230";"THOU";"ROUTE DE TOULON";"71130";"GUEUGNON";"Bâtiment"; 12.0;"EDF ou GDF"
1018998;3.96111;46.22306;"03° 57' 40.00'' Est, 46° 13' 23.00'' Nord";"71123";"LA CHAPELLE";;"71340";"CHENAY-LE-CHATEL";"Château d'eau - réservoir"; 40.0;"Syndicat des eaux, Adduction"
1019706;4.86056;46.76694;"04° 51' 38.00'' Est, 46° 46' 01.00'' Nord";"71076";"LES VARENNES";"RUE HYPOLITE BAYARD";"71100";"CHALON-SUR-SAONE";"Bâtiment"; 4.0;"EDF ou GDF"
1022409;5.26611;46.56806;"05° 15' 58.00'' Est, 46° 34' 05.00'' Nord";"71209";;"PRAIRIE DE BIONE";"71580";"FRONTENAUD";"Pylône autostable"; 25.0;"SNCF Réseau"
1022411;5.21639;46.63139;"05° 12' 59.00'' Est, 46° 37' 53.00'' Nord";"71263";;"5 AVENUE DU 8 MAI";"71500";"LOUHANS";"Pylône autostable"; 25.0;"SNCF Réseau"
1027472;4.84750;46.77944;"04° 50' 51.00'' Est, 46° 46' 46.00'' Nord";"71076";;"20 AV. VICTIR HUGO ENTRE DU SITE SAINT COSME";"71100";"CHALON-SUR-SAONE";"Bâtiment"; 15.0;"EDF ou GDF"
1027503;4.84750;46.78056;"04° 50' 51.00'' Est, 46° 46' 50.00'' Nord";"71076";;"AV. VICTOR HUGO ST COSME L'INTERIEUR DU SITE";"71100";"CHALON-SUR-SAONE";"Bâtiment"; 15.0;"EDF ou GDF"
1030762;5.07389;46.94333;"05° 04' 26.00'' Est, 46° 56' 36.00'' Nord";"71186";"ECLUSE D'ECUELLES";;"71350";"ECUELLES";"Bâtiment"; 12.0;"Voies navigables de France"
1030764;4.94972;46.62028;"04° 56' 59.00'' Est, 46° 37' 13.00'' Nord";"71332";"LA MARE";"ECLUSE D'ORMES";"71290";"ORMES";"Pylône autostable"; 20.0;"Voies navigables de France"
1030767;4.89750;46.45111;"04° 53' 51.00'' Est, 46° 27' 04.00'' Nord";"71305";"PORT DE FLEURVILLE";"CHEMIN DE HALAGE PRAIRIE DES VACHES";"71260";"MONTBELLET";"Pylône autostable"; 30.0;"Voies navigables de France"
1031157;4.86750;46.78694;"04° 52' 03.00'' Est, 46° 47' 13.00'' Nord";"71076";;"AVENUE PIERRE NUGUES PORT NORD";"71100";"CHALON-SUR-SAONE";"Pylône autostable"; 30.0;"Voies navigables de France"
1031174;4.82833;46.29250;"04° 49' 42.00'' Est, 46° 17' 33.00'' Nord";"71270";"SUBDIVION VNF";"SERVIVE DE LA NAVIGATION DE LA SAÔNE QUAI DES MARANS";"71000";"MACON";"Pylône autostable"; 20.0;"Voies navigables de France"
1032438;4.84028;46.79444;"04° 50' 25.00'' Est, 46° 47' 40.00'' Nord";"71076";;"RUE JEAN GIRAUDOUX";"71100";"CHALON-SUR-SAONE";"Bâtiment"; 48.0;"Commune, communauté de commune"
1033334;4.75139;46.91694;"04° 45' 05.00'' Est, 46° 55' 01.00'' Nord";"71073";;"GRAND PRÉ";"71150";"CHAGNY";"Pylône autostable"; 30.0;"SNCF Réseau"
1056632;4.95250;46.57389;"04° 57' 09.00'' Est, 46° 34' 26.00'' Nord";"71001";;"LES PETITS BOULAIS STATION DE POMPAGE";"71290";"L'ABERGEMENT-DE-CUISERY";"Bâtiment"; 5.0;"Société Privée SA"
1058337;4.83000;46.32139;"04° 49' 48.00'' Est, 46° 19' 17.00'' Nord";"71270";;"9, RUE DE L'ILE DE FRANCE";"71000";"MACON";"Immeuble"; 42.0;"Société Privée SA"
1058395;4.64333;46.79833;"04° 38' 36.00'' Est, 46° 47' 54.00'' Nord";"71115";"LA PETITE CHAUME";;"71510";"CHATEL-MORON";"Pylône autostable"; 21.0;"DDE"
1063214;4.49722;46.84722;"04° 29' 50.00'' Est, 46° 50' 50.00'' Nord";"71468";"LES BERNAUX";"RUE DES BERNAUDS";"71670";"SAINT-PIERRE-DE-VARENNES";"Pylône autostable"; 35.0;"ORANGE"
1206015;4.84417;46.78556;"04° 50' 39.00'' Est, 46° 47' 08.00'' Nord";"71076";;"1 RUE RHIN & DANUBE";"71100";"CHALON-SUR-SAONE";"Immeuble"; 52.5;"ORANGE Services Fixes"
1234504;4.49917;46.91167;"04° 29' 57.00'' Est, 46° 54' 42.00'' Nord";"71450";"LE GRAND CHAMP";"CHEMIN DES BOULETS";"71490";"SAINT-MARTIN-DE-COMMUNE";"Pylône autostable"; 35.0;"ORANGE"
1238345;4.86972;46.75750;"04° 52' 11.00'' Est, 46° 45' 27.00'' Nord";"71445";"EPERVAN SAINT-MARCEL";"ZONE PORTUAIRE SUD RN 80";"71380";"SAINT-MARCEL";"Bâtiment"; 3.0;"Société Privée SA"
1271970;4.04472;46.40972;"04° 02' 41.00'' Est, 46° 24' 35.00'' Nord";"71491";"LES GROSSES TERRES";;"71600";"SAINT-YAN";"Pylône autostable"; 22.5;"BOUYGUES"
1278464;4.36583;46.66528;"04° 21' 57.00'' Est, 46° 39' 55.00'' Nord";"71306";;"RUE CAMILLE DESMOULINS CHÂTEAU D'EAU LA GIRAFE";"71300";"MONTCEAU-LES-MINES";"Château d'eau - réservoir"; 23.0;"Syndicat des eaux, Adduction"
1278487;4.39639;46.80333;"04° 23' 47.00'' Est, 46° 48' 12.00'' Nord";"71153";"LES HAUTS BAUDOTS";"CHÂTEAU D'EAU DES HAUTS BAUDOTS";"71200";"LE CREUSOT";"Pylône autostable"; 18.0;"Société Privée SA"
1284801;4.76889;46.41694;"04° 46' 08.00'' Est, 46° 25' 01.00'' Nord";"71016";"EN RONDAILLE";;"71260";"AZE";"Pylône autostable"; 30.0;"Commune, communauté de commune"
1286761;4.33944;46.66222;"04° 20' 22.00'' Est, 46° 39' 44.00'' Nord";"71306";;"LIEU-DIT LES PRES LONGS";"71300";"MONTCEAU-LES-MINES";"Bâtiment"; 13.6;"Société Privée SA"
1301320;4.84889;46.35528;"04° 50' 56.00'' Est, 46° 21' 19.00'' Nord";"71270";;"LE PRÉ NEUF";"71870";"MACON";"Pylône autostable"; 20.0;"SNCF Réseau"
1301322;4.80389;46.28250;"04° 48' 14.00'' Est, 46° 16' 57.00'' Nord";"71270";;"LA VERCHÈRE DES CONDEMINES";"71100";"MACON";"Pylône autostable"; 20.0;"SNCF Réseau"
1305780;4.82972;46.32889;"04° 49' 47.00'' Est, 46° 19' 44.00'' Nord";"71270";"LES SAUGERAIES";"IMP DES SAUGERAIES";"71000";"MACON";"Pylône autostable"; 22.5;"BOUYGUES"
1308803;4.83944;46.80611;"04° 50' 22.00'' Est, 46° 48' 22.00'' Nord";"71081";;"17 LEVÉE DU CANAL";"71530";"CHAMPFORGEUIL";"Pylône tubulaire"; 27.4;"IFW-FREE"
1326793;4.45583;46.99639;"04° 27' 21.00'' Est, 46° 59' 47.00'' Nord";"71530";;"BOIS DE LA COMME";"71360";"SULLY";"Pylône autostable"; 20.0;"SNCF Réseau"
1326797;4.58111;46.65417;"04° 34' 52.00'' Est, 46° 39' 15.00'' Nord";"71214";;"PRÉ DU MOULIN";"71460";"GENOUILLY";"Pylône autostable"; 30.0;"SNCF Réseau"
1327587;4.78444;46.24722;"04° 47' 04.00'' Est, 46° 14' 50.00'' Nord";"71150";;"A L'ORME";"71680";"CRECHES-SUR-SAONE";"Pylône autostable"; 20.1;"SNCF Réseau"
1327589;4.79389;46.26667;"04° 47' 38.00'' Est, 46° 15' 60.00'' Nord";"71583";;"TERRE DE LA CURE";"71680";"VINZELLES";"Pylône autostable"; 20.1;"SNCF Réseau"
1331643;4.65667;46.40000;"04° 39' 24.00'' Est, 46° 23' 60.00'' Nord";"71525";;"LES CROIZETTES";"71960";"SOLOGNY";"Pylône autostable"; 30.0;"SNCF Réseau"
1332878;4.54972;46.69694;"04° 32' 59.00'' Est, 46° 41' 49.00'' Nord";"71465";;"LA PRAYE";"71460";"SAINT-MICAUD";"Pylône autostable"; 30.0;"SNCF Réseau"
1332880;4.60833;46.59472;"04° 36' 30.00'' Est, 46° 35' 41.00'' Nord";"71164";;"LES BOIS DE SAVIGNY";"71460";"CURTIL-SOUS-BURNAND";"Pylône autostable"; 30.0;"SNCF Réseau"
1332882;4.64028;46.54361;"04° 38' 25.00'' Est, 46° 32' 37.00'' Nord";"71147";;"BREUIL DE CORTEVAIX";"71460";"CORTEVAIX";"Pylône autostable"; 25.0;"SNCF Réseau"
1332884;4.66167;46.48333;"04° 39' 42.00'' Est, 46° 29' 00.00'' Nord";"71287";;"EN MIMONTOT";"71250";"MASSILLY";"Pylône autostable"; 30.0;"SNCF Réseau"
1332886;4.70361;46.35250;"04° 42' 13.00'' Est, 46° 21' 09.00'' Nord";"71299";;"LES PRÈS DES PLANCHES";"71960";"MILLY-LAMARTINE";"Pylône autostable"; 30.0;"SNCF Réseau"
1335182;4.65194;46.61056;"04° 39' 07.00'' Est, 46° 36' 38.00'' Nord";"71417";;"ST-ROCH";"71460";"SAINT-GENGOUX-LE-NATIONAL";"Pylône autostable"; 20.0;"TDF"
1344486;4.48333;46.96833;"04° 29' 00.00'' Est, 46° 58' 06.00'' Nord";"71530";;"LES IGAUX";"71360";"SULLY";"Pylône autostable"; 35.0;"SNCF Réseau"
1344488;4.50944;46.73972;"04° 30' 34.00'' Est, 46° 44' 23.00'' Nord";"71436";;"LA BICHETÉE";"71210";"SAINT-LAURENT-D'ANDENAY";"Pylône autostable"; 25.0;"SNCF Réseau"
1348382;4.67417;46.43528;"04° 40' 27.00'' Est, 46° 26' 07.00'' Nord";"71137";"LES BROUILLARDS";"ROUTE DE VARANGES";"71250";"CLUNY";"Pylône autostable"; 20.0;"SNCF Réseau"
1348438;5.29583;46.74861;"05° 17' 45.00'' Est, 46° 44' 55.00'' Nord";"71514";;"LE BOIS DE LONG D970 CHAMBRE A VANNE";"71330";"SENS-SUR-SEILLE";"Mât"; 5.0;"Société Privée SA"
1348440;5.25167;46.56944;"05° 15' 06.00'' Est, 46° 34' 10.00'' Nord";"71401";;"GRAND PRE CHEVALIER CHAMBRE A VANNE";"71470";"SAINTE-CROIX";"Mât"; 5.0;"Société Privée SA"
1351550;4.94889;46.81056;"04° 56' 56.00'' Est, 46° 48' 38.00'' Nord";"71004";"LE TREMBLAY";;"71380";"ALLERIOT";"Château d'eau - réservoir"; 39.0;"Commune, communauté de commune"
1397126;4.43972;46.80000;"04° 26' 23.00'' Est, 46° 47' 60.00'' Nord";"71153";;"9 AV DE VERDUN";"71200";"LE CREUSOT";"Bâtiment"; 30.0;"ORANGE"
1397934;5.18750;46.65500;"05° 11' 15.00'' Est, 46° 39' 18.00'' Nord";"71056";"ZI LES MAROSSES";"365, RUE DES INDUSTRIES";"71500";"BRANGES";"Bâtiment"; 11.0;"Société Privée SA"
1403190;4.96000;46.71222;"04° 57' 36.00'' Est, 46° 42' 44.00'' Nord";"71336";"BOIS DU LANDON";"PRES DE LA RD 978";"71370";"OUROUX-SUR-SAONE";"Pylône autostable"; 31.0;"TDF"
1404468;4.82444;46.30333;"04° 49' 28.00'' Est, 46° 18' 12.00'' Nord";"71270";;"AVENUE DE LA GARE";"71000";"MACON";"Pylône autostable"; 25.0;"SNCF Réseau"
1404470;4.37333;47.02750;"04° 22' 24.00'' Est, 47° 01' 39.00'' Nord";"71184";;"LES GROS CARREAUX";"71400";"DRACY-SAINT-LOUP";"Pylône autostable"; 30.4;"SNCF Réseau"
1404478;4.75639;46.19361;"04° 45' 23.00'' Est, 46° 11' 37.00'' Nord";"71481";"LES BOIS CLAIRS";;"71570";"SAINT-SYMPHORIEN-D'ANCELLES";"Pylône autostable"; 25.0;"SNCF Réseau"
1405495;4.28694;46.50278;"04° 17' 13.00'' Est, 46° 30' 10.00'' Nord";"71021";;"BOIS ROYAL DU PETIT BARON";"71120";"BARON";"Pylône autostable"; 45.0;"Towercast"
1410864;4.49028;46.91583;"04° 29' 25.00'' Est, 46° 54' 57.00'' Nord";"71450";;"LES PIERRES CROULEES D343";"71490";"SAINT-MARTIN-DE-COMMUNE";"Pylône autostable"; 30.4;"SNCF Réseau"
1416470;4.87028;46.76028;"04° 52' 13.00'' Est, 46° 45' 37.00'' Nord";"71445";;"APROPORT CHALONS ZONE PORTUAIRE DU SUD";"71380";"SAINT-MARCEL";"Bâtiment"; 3.0;"Société Privée SA"
1416472;4.87417;46.75917;"04° 52' 27.00'' Est, 46° 45' 33.00'' Nord";"71189";;"APROPORT CHALONS ZONE PORTUAIRE DU SUD";"71380";"EPERVANS";"Bâtiment"; 6.0;"Société Privée SA"
1417845;4.78667;46.32583;"04° 47' 12.00'' Est, 46° 19' 33.00'' Nord";"71235";"ASSOCIATION DU PRADO BOURGOGNE";"152 RTE DE SALORNAY";"71870";"HURIGNY";"Bâtiment"; 16.2;"Association"
1421390;4.66556;46.73639;"04° 39' 56.00'' Est, 46° 44' 11.00'' Nord";"71034";"MONT BROGNY";;"71390";"BISSEY-SOUS-CRUCHAUD";"Pylône autostable"; 15.0;"Société Privée SA"
1421396;4.66444;46.73667;"04° 39' 52.00'' Est, 46° 44' 12.00'' Nord";"71034";"MONT BROGNY";"LES GOURLES DES MONTOTS";"71390";"BISSEY-SOUS-CRUCHAUD";"Pylône autostable"; 28.0;"CELLNEX"
1424364;4.74167;46.31861;"04° 44' 30.00'' Est, 46° 19' 07.00'' Nord";"71360";"D209";"ROUTE DE CHEVIGNE";"71960";"PRISSE";"Pylône autostable"; 20.4;"SNCF Réseau"
1438725;4.49639;46.79250;"04° 29' 47.00'' Est, 46° 47' 33.00'' Nord";"71059";"LA FIOLE";"CHEMIN DES COUTOTS";"71670";"LE BREUIL";"Pylône autostable"; 25.4;"SNCF Réseau"
1439088;4.83861;46.32806;"04° 50' 19.00'' Est, 46° 19' 41.00'' Nord";"71270";"LA GRANDE TERRE";"RUE DU 4EME BATAILLON DE CHOC";"71000";"MACON";"Pylône autostable"; 20.0;"SNCF Réseau"
1439526;4.71750;46.24417;"04° 43' 03.00'' Est, 46° 14' 39.00'' Nord";"71385";"CÔTE DE BESSET";"PRÈS RÉSERVOIR DE ST AMOUR";"71570";"SAINT-AMOUR-BELLEVUE";"Pylône autostable"; 12.0;"ORANGE Services Fixes"
1439527;4.71778;46.24444;"04° 43' 04.00'' Est, 46° 14' 40.00'' Nord";"71385";"CÔTE DE BESSET";"RÉSERVOIR DE ST AMOUR";"71570";"SAINT-AMOUR-BELLEVUE";"Pylône autostable"; 25.0;"SFR"
1442504;4.42639;46.83833;"04° 25' 35.00'' Est, 46° 50' 18.00'' Nord";"71479";"LES BRÛLÉES";;"71200";"SAINT-SERNIN-DU-BOIS";"Pylône autostable"; 31.0;"TDF"
1444283;4.40361;46.71194;"04° 24' 13.00'' Est, 46° 42' 43.00'' Nord";"71040";"LE MÉPLIER";"ZI DE LA FIOLLE R DU MOULIN";"71450";"BLANZY";"Pylône autostable"; 30.0;"SFR"
1446653;5.30139;46.50889;"05° 18' 05.00'' Est, 46° 30' 32.00'' Nord";"71177";;"LE MALAQUIN";"71480";"DOMMARTIN-LES-CUISEAUX";"Pylône autostable"; 30.0;"TDF"
1446895;4.92611;46.73472;"04° 55' 34.00'' Est, 46° 44' 05.00'' Nord";"71336";;"LES ECHETS";"71370";"OUROUX-SUR-SAONE";"Pylône autostable"; 30.0;"SFR"
1454981;4.47028;46.75306;"04° 28' 13.00'' Est, 46° 45' 11.00'' Nord";"71310";;"8 R DU CREUSOT USINE CERIC AUTOMATION";"71210";"MONTCHANIN";"Pylône autostable"; 30.0;"SFR"
1456425;4.47972;46.77000;"04° 28' 47.00'' Est, 46° 46' 12.00'' Nord";"71059";;"CHEM RURAL, LE BOIS D'AUBOUT";"71670";"LE BREUIL";"Pylône autostable"; 45.0;"SFR"
1460242;4.49333;46.86861;"04° 29' 36.00'' Est, 46° 52' 07.00'' Nord";"71468";;"BOIS BRISON";"71670";"SAINT-PIERRE-DE-VARENNES";"Pylône autostable"; 25.0;"SNCF Réseau"
1461355;4.71250;46.83556;"04° 42' 45.00'' Est, 46° 50' 08.00'' Nord";"71294";"LA CROIS ROUSSE";;"71640";"MERCUREY";"Pylône autostable"; 25.0;"SFR"
1465442;4.87528;46.45889;"04° 52' 31.00'' Est, 46° 27' 32.00'' Nord";"71305";"LES BERGERIES";"PROCHE A6 -SENS PARIS PROVINCE";"71260";"MONTBELLET";"Pylône autostable"; 28.0;"TDF"
1466249;4.78583;46.27583;"04° 47' 09.00'' Est, 46° 16' 33.00'' Nord";"71270";;"AU PERRAT";"71000";"MACON";"Pylône autostable"; 20.0;"SNCF Réseau"
1474266;4.73028;46.46000;"04° 43' 49.00'' Est, 46° 27' 36.00'' Nord";"71181";"EN DAMBIZAN";"CHEM RURAL N°7 RD N°146";"71250";"DONZY-LE-PERTUIS";"Pylône autostable"; 25.0;"Commune, communauté de commune"
1475862;4.55083;46.98833;"04° 33' 03.00'' Est, 46° 59' 18.00'' Nord";"71190";"CHAPELLE DE MONTARTAUX";"RÉÉMETTEUR TDF";"71360";"EPINAC";"Pylône autostable"; 25.0;"TDF"
1475866;5.21667;46.62583;"05° 13' 00.00'' Est, 46° 37' 33.00'' Nord";"71263";;"STADE DE BRAM 1 MONTÉE DE SAINT-CLAUDE";"71500";"LOUHANS";"Pylône tubulaire"; 33.5;"FPS TOWERS"
1487752;5.14222;46.67028;"05° 08' 32.00'' Est, 46° 40' 13.00'' Nord";"71056";"LE PIOCHE";"V C N°8";"71500";"BRANGES";"Pylône autostable"; 33.0;"TDF"
1489967;4.46972;46.93083;"04° 28' 11.00'' Est, 46° 55' 51.00'' Nord";"71539";;"BARRAGE DU PONT DU ROI";"71490";"TINTRY";"Mât"; 10.0;"Conseil Départemental"
1489969;4.47611;47.01750;"04° 28' 34.00'' Est, 47° 01' 03.00'' Nord";"71530";;"RUE DE BOUTON";"71360";"SULLY";"Mât"; 10.0;"Conseil Départemental"
1489971;4.49806;46.99972;"04° 29' 53.00'' Est, 46° 59' 59.00'' Nord";"71190";;"DINAY RUE CHAVRIERE";"71360";"EPINAC";"Mât"; 15.0;"Conseil Départemental"
1489973;4.47167;46.94917;"04° 28' 18.00'' Est, 46° 56' 57.00'' Nord";"71015";;"CHEMIN DU CANADA";"71400";"AUXY";"Mât"; 9.0;"Conseil Départemental"
1489975;4.48889;46.95583;"04° 29' 20.00'' Est, 46° 57' 21.00'' Nord";"71322";;"HAUT DES CHAMPS LES MACHERIATS";"71360";"MORLET";"Mât"; 10.0;"Conseil Départemental"
1489977;4.45111;47.01861;"04° 27' 04.00'' Est, 47° 01' 07.00'' Nord";"71438";;"LA CHAUME";"71360";"SAINT-LEGER-DU-BOIS";"Mât"; 15.0;"Conseil Départemental"
1489979;4.50139;46.97639;"04° 30' 05.00'' Est, 46° 58' 35.00'' Nord";"71190";;"LA DREE AV DE LA LIBERATION";"71360";"EPINAC";"Mât"; 10.0;"Conseil Départemental"
1508223;4.79139;46.27194;"04° 47' 29.00'' Est, 46° 16' 19.00'' Nord";"71583";"PRE DE LA LIE";;"71680";"VINZELLES";"Ouvrage d'art (pont, viaduc)"; 6.7;"SNCF Réseau"
1518218;4.39056;46.68500;"04° 23' 26.00'' Est, 46° 41' 06.00'' Nord";"71040";;"BOIS DES RANCHES";"71450";"BLANZY";"Pylône autostable"; 30.0;"IFW-FREE"
1520207;4.97694;46.77194;"04° 58' 37.00'' Est, 46° 46' 19.00'' Nord";"71398";"CORTOT";;"71370";"SAINT-CHRISTOPHE-EN-BRESSE";"Pylône autostable"; 30.0;"ORANGE"
1531321;4.36444;46.64028;"04° 21' 52.00'' Est, 46° 38' 25.00'' Nord";"71486";;"RUE DES RONZIERES";"71230";"SAINT-VALLIER";"Pylône tubulaire"; 24.0;"IFW-FREE"
1537985;4.38111;47.02917;"04° 22' 52.00'' Est, 47° 01' 45.00'' Nord";"71184";"LES ECHARDS";"CD 26";"71400";"DRACY-SAINT-LOUP";"Pylône autostable"; 35.0;"ORANGE"
1541467;5.02833;46.88917;"05° 01' 42.00'' Est, 46° 53' 21.00'' Nord";"71566";;"6 AVE PRESIDENT BORGEOT";"71350";"VERDUN-SUR-LE-DOUBS";"Bâtiment"; 6.0;"Société Privée SA"
1541469;4.87028;46.80222;"04° 52' 13.00'' Est, 46° 48' 08.00'' Nord";"71076";;"R DES FRERES LUMIERES";"71100";"CHALON-SUR-SAONE";"Bâtiment"; 5.0;"Société Privée SA"
1543474;4.87472;46.75861;"04° 52' 29.00'' Est, 46° 45' 31.00'' Nord";"71189";;"PORT FLUVIAL SUD";"71380";"EPERVANS";"Bâtiment"; 6.0;"Coopérative Agricole, Vinicole"
1552064;3.99611;46.49111;"03° 59' 46.00'' Est, 46° 29' 28.00'' Nord";"71176";;"4 PL MARECHAL LECLERC";"71160";"DIGOIN";"Immeuble"; 21.4;"Copropriété, Syndic, SCI"
1553294;4.62694;46.56056;"04° 37' 37.00'' Est, 46° 33' 38.00'' Nord";"71042";"LE BOIS AUMÔNIER";"PRÈS D. 84";"71460";"BONNAY";"Pylône autostable"; 35.0;"ORANGE"
1554233;4.48889;46.79056;"04° 29' 20.00'' Est, 46° 47' 26.00'' Nord";"71059";"LE CHÊNE AU PRÊTRE";"CHEMIN DE LA GARENNE";"71670";"LE BREUIL";"Pylône autostable"; 30.0;"ORANGE Services Fixes"
1554285;4.61278;46.58306;"04° 36' 46.00'' Est, 46° 34' 59.00'' Nord";"71164";"GRAVALON";"CHEMIN RURAL DE CAMPAGNE";"71460";"CURTIL-SOUS-BURNAND";"Pylône autostable"; 54.0;"RTE"
1554289;4.63528;46.56944;"04° 38' 07.00'' Est, 46° 34' 10.00'' Nord";"71164";"LES BUIS JARDIN DES OLIVES";"CROISEMENT DE CHEMINS RURAUX LES NANTINS";"71460";"CURTIL-SOUS-BURNAND";"Pylône autostable"; 38.0;"ORANGE"
1556612;4.65583;46.47944;"04° 39' 21.00'' Est, 46° 28' 46.00'' Nord";"71264";"LES ESSARTS";"CHEMIN RURAL DIT LE CHOLOT";"71250";"LOURNAND";"Pylône autostable"; 35.0;"ORANGE"
1557065;4.66167;46.41611;"04° 39' 42.00'' Est, 46° 24' 58.00'' Nord";"71137";;"DÉCHETTERIE ZA DU PRÉ ROBERT";"71250";"CLUNY";"Pylône tubulaire"; 26.0;"ORANGE"
1558705;4.60806;46.59667;"04° 36' 29.00'' Est, 46° 35' 48.00'' Nord";"71068";"FORÊT DE SAVIGNY";"CHEMIN DE L'HOMME MORT";"71460";"BURZY";"Pylône autostable"; 30.0;"ORANGE"
1558709;4.54889;46.69639;"04° 32' 56.00'' Est, 46° 41' 47.00'' Nord";"71465";"LA FIAUTE";"CHEMIN RURAL PRÈS D28";"71460";"SAINT-MICAUD";"Pylône autostable"; 25.0;"ORANGE"
1559514;4.90778;46.78750;"04° 54' 28.00'' Est, 46° 47' 15.00'' Nord";"71117";;"ZONE D'ACTIVITE DU CHAMP CHASSY";"71380";"CHATENOY-EN-BRESSE";"Pylône tubulaire"; 16.0;"IFW-FREE"
1560984;4.89667;46.76861;"04° 53' 48.00'' Est, 46° 46' 07.00'' Nord";"71445";;"RUE DENIS PAPIN";"71380";"SAINT-MARCEL";"Pylône tubulaire"; 23.0;"ORANGE"
1575008;4.52944;46.71083;"04° 31' 46.00'' Est, 46° 42' 39.00'' Nord";"71465";"LA BROSSE À LA COPIE";;"71460";"SAINT-MICAUD";"Pylône autostable"; 36.0;"ORANGE"
1582918;3.76833;46.61694;"03° 46' 06.00'' Est, 46° 37' 01.00'' Nord";"71047";;"20 RUE DE LA ROCHE";"71140";"BOURBON-LANCY";"Pylône autostable"; 12.0;"ORANGE"
1584991;5.03389;46.54222;"05° 02' 02.00'' Est, 46° 32' 32.00'' Nord";"71213";"LE CHAMP DE VEILLY";;"71290";"LA GENETE";"Bâtiment"; 10.5;"Société Privée SA"
1590868;4.47861;46.30972;"04° 28' 43.00'' Est, 46° 18' 35.00'' Nord";"71289";"CROIX MISSION";"PRÈS CASERNE DES POMPIERS";"71520";"MATOUR";"Mât"; 12.0;"ORANGE Services Fixes"
1593896;4.77667;46.21389;"04° 46' 36.00'' Est, 46° 12' 50.00'' Nord";"71090";"LES ROUVRES";"ROUTE NATIONALE 6";"71570";"LA CHAPELLE-DE-GUINCHAY";"Pylône autostable"; 31.6;"IFW-FREE"
1610028;5.17417;46.85500;"05° 10' 27.00'' Est, 46° 51' 18.00'' Nord";"71396";;"RTE DE DEJON";"71310";"SAINT-BONNET-EN-BRESSE";"Pylône autostable"; 24.0;"ORANGE"
1616861;3.89778;46.69278;"03° 53' 52.00'' Est, 46° 41' 34.00'' Nord";"71152";"LE HAUT DE LA FAY";"CHEM DE LA CROISETTE À LA MALVELLE";"71760";"CRESSY-SUR-SOMME";"Pylône autostable"; 27.0;"Conseil Départemental"
1626712;5.37639;46.62167;"05° 22' 35.00'' Est, 46° 37' 18.00'' Nord";"71506";"AIRE DE LA VALLIÈRE PR 99.800";"A 39 - SITE SAPRR SENS  LONS LE SAUNIER - BOURG EN BRESSE";"71580";"SAVIGNY-EN-REVERMONT";"Pylône autostable"; 40.0;"Sociétés d'Autoroutes"
1628885;4.79222;46.27611;"04° 47' 32.00'' Est, 46° 16' 34.00'' Nord";"71556";"BEAULIEU";"RUE DES ESSARTS ET DES ARTS";"71000";"VARENNES-LES-MACON";"Mât métallique"; 3.0;"SNCF Réseau"
1633398;4.36000;46.23972;"04° 21' 36.00'' Est, 46° 14' 23.00'' Nord";"71008";"CHEMON DES LITRES";"CHEM RURAL DES CRUZILLES";"71170";"ANGLURE-SOUS-DUN";"Pylône autostable"; 28.0;"ORANGE"
1633786;4.75583;46.90917;"04° 45' 21.00'' Est, 46° 54' 33.00'' Nord";"71073";;"1 R THÉO BRETIN";"71150";"CHAGNY";"Immeuble"; 27.0;"Société HLM"
1634086;4.78028;46.28972;"04° 46' 49.00'' Est, 46° 17' 23.00'' Nord";"71105";;"207 CHEMIN DES JONCHÈRES";"71850";"CHARNAY-LES-MACON";"Pylône tubulaire"; 26.2;"IFW-FREE"
1634390;5.04056;46.56556;"05° 02' 26.00'' Est, 46° 33' 56.00'' Nord";"71061";"AUX TEPPES";;"71290";"BRIENNE";"Pylône autostable"; 32.0;"SFR"
1634589;5.17806;46.70944;"05° 10' 41.00'' Est, 46° 42' 34.00'' Nord";"71523";;"CHEM RURAL DE CORBEAU";"71330";"SIMARD";"Pylône autostable"; 28.0;"SFR"
1634593;5.08750;46.75222;"05° 05' 15.00'' Est, 46° 45' 08.00'' Nord";"71256";"LE VILLEROT";"V COM. N° 5 DIT DU VERGER";"71440";"LESSARD-EN-BRESSE";"Pylône autostable"; 28.0;"SFR"
1635020;4.98500;46.64139;"04° 59' 06.00'' Est, 46° 38' 29.00'' Nord";"71332";"LES BRUYÈRES";;"71290";"ORMES";"Pylône autostable"; 37.0;"SFR"
1635031;5.16389;46.55083;"05° 09' 50.00'' Est, 46° 33' 03.00'' Nord";"71318";"LES COURTERETS";;"71470";"MONTPONT-EN-BRESSE";"Pylône autostable"; 27.4;"SFR"
1635045;4.87556;46.47750;"04° 52' 32.00'' Est, 46° 28' 39.00'' Nord";"71305";"MONT FALCON";"D 410 / CHEM RURAL 18";"71260";"MONTBELLET";"Pylône autostable"; 33.0;"TDF"
1635075;4.96750;46.70139;"04° 58' 03.00'' Est, 46° 42' 05.00'' Nord";"71336";"LE CURTIL NEUF";;"71370";"OUROUX-SUR-SAONE";"Pylône autostable"; 27.0;"SFR"
1635230;4.79444;46.83750;"04° 47' 40.00'' Est, 46° 50' 15.00'' Nord";"71202";"LE NAINGLET";;"71150";"FONTAINES";"Pylône autostable"; 30.0;"FPS TOWERS"
1635517;5.11194;46.65917;"05° 06' 43.00'' Est, 46° 39' 33.00'' Nord";"71508";"LE TABARY";"D 206 - ROUTE DE MONTRET BOIS GROSJEAN";"71440";"SAVIGNY-SUR-SEILLE";"Pylône autostable"; 32.4;"SFR"
1635944;4.80778;46.54333;"04° 48' 28.00'' Est, 46° 32' 36.00'' Nord";"71377";"BOIS DE LA DAME";;"71700";"ROYER";"Pylône autostable"; 25.0;"Conseil Départemental"
1636176;4.88194;46.77222;"04° 52' 55.00'' Est, 46° 46' 20.00'' Nord";"71445";;"LE GRAND PAQUIER ALLÉE DE LA FRATERNITÉ";"71380";"SAINT-MARCEL";"Pylône autostable"; 26.1;"IFW-FREE"
1636730;4.42194;46.80583;"04° 25' 19.00'' Est, 46° 48' 21.00'' Nord";"71153";;"PL SCHNEIDER EGLISE ST LAURENT";"71200";"LE CREUSOT";"Monument religieux"; 41.0;"Commune, communauté de commune"
1646965;4.49639;46.97306;"04° 29' 47.00'' Est, 46° 58' 23.00'' Nord";"71190";"PRÉ DU CROT";"ROUTE DU FOULON D43";"71360";"EPINAC";"Pylône autostable"; 30.0;"FPS TOWERS"
1647174;4.22139;47.12139;"04° 13' 17.00'' Est, 47° 07' 17.00'' Nord";"71129";"SOUS LES ROCHES";"LA GRANDE CROIX VC N°12";"71540";"CHISSEY-EN-MORVAN";"Pylône autostable"; 20.4;"TDF"
1651400;4.84611;46.79944;"04° 50' 46.00'' Est, 46° 47' 58.00'' Nord";"71076";;"1 RUE ANDRE GIDE";"71100";"CHALON-SUR-SAONE";"Immeuble"; 40.0;"Société HLM"
1653870;4.18833;46.30167;"04° 11' 18.00'' Est, 46° 18' 06.00'' Nord";"71337";"LE BOIS BOTHON";"CHEM RURAL DE LA CLAYETTE À BRIANT AU GRAND BOIS";"71800";"OYE";"Pylône autostable"; 25.5;"ORANGE"
1655159;4.50556;46.74667;"04° 30' 20.00'' Est, 46° 44' 48.00'' Nord";"71187";"LES GRANDES PIÈCES DU CHARMOIS";;"71210";"ECUISSES";"Pylône autostable"; 55.0;"SNCF Réseau"
1655162;4.50556;46.74667;"04° 30' 20.00'' Est, 46° 44' 48.00'' Nord";"71187";"LES GRANDES PIÈCES DU CHARMOIS";;"71210";"ECUISSES";"Pylône autostable"; 20.0;"ORANGE"
1661753;4.05194;46.27806;"04° 03' 07.00'' Est, 46° 16' 41.00'' Nord";"71275";"BÉLUZE";"RD 108 VC 2";"71110";"MARCIGNY";"Pylône autostable"; 20.0;"SFR"
1661906;4.43139;46.71972;"04° 25' 53.00'' Est, 46° 43' 11.00'' Nord";"71412";;"ETANG DU MAUNAY D 102";"71210";"SAINT-EUSEBE";"Mât béton"; 6.0;"Société Privée SA"
1661908;4.47667;46.73472;"04° 28' 36.00'' Est, 46° 44' 05.00'' Nord";"71310";;"PONT DES MORANDS N 70";"71210";"MONTCHANIN";"Mât béton"; 6.0;"Société Privée SA"
1665308;4.82361;46.90806;"04° 49' 25.00'' Est, 46° 54' 29.00'' Nord";"71170";"CRÉTAINE";"V C. N°20";"71150";"DEMIGNY";"Pylône autostable"; 44.0;"SFR"
1670121;5.23278;46.96000;"05° 13' 58.00'' Est, 46° 57' 36.00'' Nord";"71357";"LES MARES";"NATIONALE N°73";"71270";"POURLANS";"Château d'eau - réservoir"; 26.0;"Syndicat des eaux, Adduction"
1670285;5.37694;46.50167;"05° 22' 37.00'' Est, 46° 30' 06.00'' Nord";"71157";"Z.I. DE LA CHARBONNIÈRE";"RTE DE LA COMBE";"71480";"CUISEAUX";"Pylône autostable"; 44.0;"SFR"
1670645;4.98361;46.91306;"04° 59' 01.00'' Est, 46° 54' 47.00'' Nord";"71003";"LA MALADIÈRE";;"71350";"ALLEREY-SUR-SAONE";"Pylône autostable"; 32.0;"SFR"
1670680;5.28583;46.87806;"05° 17' 09.00'' Est, 46° 52' 41.00'' Nord";"71351";;"R DU BOIS ST PIERRE";"71270";"PIERRE-DE-BRESSE";"Pylône autostable"; 30.0;"SFR"
1670684;5.04444;46.87167;"05° 02' 40.00'' Est, 46° 52' 18.00'' Nord";"71131";"LES GRANDS BOULAYS";"RTE DÉPART. N°970 - CH D'EAU";"71350";"CIEL";"Château d'eau - réservoir"; 49.0;"Syndicat des eaux, Adduction"
1670691;5.05806;46.81028;"05° 03' 29.00'' Est, 46° 48' 37.00'' Nord";"71456";;"RTE DE GUERFAND STADE DE FOOT";"71620";"SAINT-MARTIN-EN-BRESSE";"Pylône autostable"; 32.0;"SFR"
1675220;4.74639;46.79389;"04° 44' 47.00'' Est, 46° 47' 38.00'' Nord";"71182";"LE CLOS JUS";"CHEM RURAL";"71640";"DRACY-LE-FORT";"Pylône autostable"; 24.0;"ORANGE"
1681881;4.82667;46.76250;"04° 49' 36.00'' Est, 46° 45' 45.00'' Nord";"71475";;"RUE ALPHONSE BONNOT";"71100";"SAINT-REMY";"Pylône autostable"; 26.8;"IFW-FREE"
1682677;4.61139;46.90306;"04° 36' 41.00'' Est, 46° 54' 11.00'' Nord";"71480";"MONT DE ROME CHATEAU";;"71510";"SAINT-SERNIN-DU-PLAIN";"Pylône autostable"; 36.0;"Conseil Départemental"
1682994;4.88694;46.51306;"04° 53' 13.00'' Est, 46° 30' 47.00'' Nord";"71550";"LES CHAMPS DE LIN";"CHEM RURAL N°9 STATION DE POMPAGE";"71700";"UCHIZY";"Pylône autostable"; 23.0;"ORANGE"
1685107;4.37361;46.69722;"04° 22' 25.00'' Est, 46° 41' 50.00'' Nord";"71040";"TERRE DE CROIX";;"71450";"BLANZY";"Pylône autostable"; 26.3;"SFR"
1688430;4.99778;46.63417;"04° 59' 52.00'' Est, 46° 38' 03.00'' Nord";"71522";"LES BRUYÈRES";"RTE DES BAUDRIERES";"71290";"SIMANDRE";"Pylône autostable"; 32.5;"FPS TOWERS"
1689191;4.52333;46.99000;"04° 31' 24.00'' Est, 46° 59' 24.00'' Nord";"71190";"LA PIECE";"11 R JEAN MOULIN";"71360";"EPINAC";"Immeuble"; 21.6;"Société HLM"
1689732;4.15556;46.50111;"04° 09' 20.00'' Est, 46° 30' 04.00'' Nord";"71490";;"CHEM RURAL DE BORNAT N°2, LE FOURNEAU";"71430";"SAINT-VINCENT-BRAGNY";"Pylône autostable"; 32.7;"TDF"
1690444;4.07639;47.07500;"04° 04' 35.00'' Est, 47° 04' 30.00'' Nord";"71009";"LE TRAPAN";;"71550";"ANOST";"Pylône autostable"; 33.0;"TDF"
1691523;5.11889;46.88056;"05° 07' 08.00'' Est, 46° 52' 50.00'' Nord";"71544";"LES COMMUNAUX";"RUE CHAUDE";"71350";"TOUTENANT";"Pylône autostable"; 30.0;"ORANGE"
1691970;4.35028;46.38000;"04° 21' 01.00'' Est, 46° 22' 48.00'' Nord";"71339";;"VOIE COMMUNALE N°3 D'OZOLLES";"71120";"OZOLLES";"Pylône autostable"; 18.0;"ORANGE"
1692155;4.30583;46.36694;"04° 18' 21.00'' Est, 46° 22' 01.00'' Nord";"71335";"EN ROUSSET";;"71800";"OUROUX-SOUS-LE-BOIS-SAINTE-MARIE";"Pylône autostable"; 29.0;"ORANGE"
1692804;4.14639;46.98028;"04° 08' 47.00'' Est, 46° 58' 49.00'' Nord";"71223";;"CHEMIN RURAL DE MIZIEUX";"71990";"LA GRANDE-VERRIERE";"Pylône autostable"; 25.0;"ORANGE"
1706685;4.05750;46.60361;"04° 03' 27.00'' Est, 46° 36' 13.00'' Nord";"71230";;"9012 AV. DE LA DÉPORTATION";"71130";"GUEUGNON";"Pylône autostable"; 29.2;"ORANGE"
