Numéro du support;Longitude;Latitude;"Position";"Insee";"Lieu dit";"Adresse";"Code postal";"Commune";"Nature du support";Hauteur en m;"Propriétaire"
15936;0.23722;48.17278;"00° 14' 14.00'' Est, 48° 10' 22.00'' Nord";"72023";;"R DU CHAMP DE FOIRE CENTRAL TÉLÉPHONIQUE";"72290";"BALLON";"Pylône tubulaire"; 9.0;"ORANGE Services Fixes"
15954;0.34778;47.83972;"00° 20' 52.00'' Est, 47° 50' 23.00'' Nord";"72187";"LA CROIX MANCEAU";;"72220";"MARIGNE-LAILLE";"Pylône autostable"; 46.0;"ANFR"
38299;0.15083;47.95583;"00° 09' 03.00'' Est, 47° 57' 21.00'' Nord";"72003";;"STADE CLAUDE VOISIN";"72700";"ALLONNES";"Pylône autostable"; 30.7;"SFR"
55677;0.04194;47.97250;"00° 02' 31.00'' Est, 47° 58' 21.00'' Nord";"72339";"P.S. RD22 SUD A11";;"72210";"SOULIGNE-FLACE";"Pylône autostable"; 14.0;"Sociétés d'Autoroutes"
55679;-0.08306;47.91111;"00° 04' 59.00'' Ouest, 47° 54' 40.00'' Nord";"72237";"AIRE DE REPOS EST A11";;"72430";"PIRMIL";"Pylône autostable"; 20.0;"Sociétés d'Autoroutes"
55731;0.09750;48.00444;"00° 05' 51.00'' Est, 48° 00' 16.00'' Nord";"72247";"AIRE DE REPOS NORD A11";;"72700";"PRUILLE-LE-CHETIF";"Pylône autostable"; 50.0;"Sociétés d'Autoroutes"
58066;-0.02056;47.87361;"00° 01' 14.00'' Ouest, 47° 52' 25.00'' Nord";"72293";;"LE CHAMP DES LANDES";"72430";"SAINT-JEAN-DU-BOIS";"Pylône autostable"; 39.0;"ORANGE"
63381;0.14667;48.30500;"00° 08' 48.00'' Est, 48° 18' 18.00'' Nord";"72254";"LES ROUCHES";"A28 PK141,8";"72610";"ROUESSE-FONTAINE";"Pylône tubulaire"; 15.0;"Sociétés d'Autoroutes"
63389;0.30167;47.84583;"00° 18' 06.00'' Est, 47° 50' 45.00'' Nord";"72124";"LA TIERCERIE";"A28 PK78,5";"72220";"ECOMMOY";"Pylône autostable"; 15.0;"Sociétés d'Autoroutes"
63839;0.14833;48.11806;"00° 08' 54.00'' Est, 48° 07' 05.00'' Nord";"72289";"LES LUARDIÈRES";"A28 PK 119,5";"72380";"SAINTE-JAMME-SUR-SARTHE";"Pylône tubulaire"; 15.0;"Sociétés d'Autoroutes"
63843;0.29417;48.04750;"00° 17' 39.00'' Est, 48° 02' 51.00'' Nord";"72386";"LA PAPINIÈRE";"A28 PK102";"72530";"YVRE-L'EVEQUE";"Pylône tubulaire"; 15.0;"Sociétés d'Autoroutes"
83904;-0.06583;47.83472;"00° 03' 57.00'' Ouest, 47° 50' 05.00'' Nord";"72179";"LA SOUCHE";"RD 23";"72270";"MALICORNE-SUR-SARTHE";"Château d'eau - réservoir"; 74.0;"Syndicat des eaux, Adduction"
83906;0.75194;48.16500;"00° 45' 07.00'' Est, 48° 09' 54.00'' Nord";"72105";"LES BRUYÈRES";;"72320";"COURGENARD";"Pylône autostable"; 50.0;"TDF"
83992;0.02028;47.99694;"00° 01' 13.00'' Est, 47° 59' 49.00'' Nord";"72096";"LA CROIX MENEAU";"RD 50";"72550";"COULANS-SUR-GEE";"Château d'eau - réservoir"; 55.7;"Syndicat des eaux, Adduction"
103023;0.44500;47.87111;"00° 26' 42.00'' Est, 47° 52' 16.00'' Nord";"72143";"LES GUIMERIES";;"72150";"LE GRAND-LUCE";"Pylône autostable"; 42.0;"ORANGE Services Fixes"
103081;0.51667;47.97861;"00° 31' 00.00'' Est, 47° 58' 43.00'' Nord";"72042";"L'AVENRY";"CHEM D'EXPLOITATION N°3";"72440";"BOULOIRE";"Pylône autostable"; 30.0;"ORANGE"
103109;0.50778;47.82472;"00° 30' 28.00'' Est, 47° 49' 29.00'' Nord";"72325";"MAISON NEUVE";;"72150";"SAINT-VINCENT-DU-LOROUER";"Pylône autostable"; 34.0;"ORANGE"
132154;-0.10778;48.16833;"00° 06' 28.00'' Ouest, 48° 10' 06.00'' Nord";"72315";;"LES ESSARTS";"72140";"SAINT-REMY-DE-SILLE";"Pylône autostable"; 33.0;"ORANGE"
136181;-0.37278;47.79917;"00° 22' 22.00'' Ouest, 47° 47' 57.00'' Nord";"72236";"LA PIECE DU DEVANT";;"72300";"PINCE";"Pylône autostable"; 33.0;"ORANGE"
139161;-0.18639;47.96472;"00° 11' 11.00'' Ouest, 47° 57' 53.00'' Nord";"72307";"LA BROSSE";;"72350";"SAINT-OUEN-EN-CHAMPAGNE";"Château d'eau - réservoir"; 29.0;
144735;0.50667;47.71194;"00° 30' 24.00'' Est, 47° 42' 43.00'' Nord";"72183";"LE BOIS BLANDIN";;"72340";"MARCON";"Pylône autostable"; 18.0;"FPS TOWERS"
163890;0.15333;47.92306;"00° 09' 12.00'' Est, 47° 55' 23.00'' Nord";"72344";;"PLACE DU HUIT MAI MAIRIE";"72700";"SPAY";"Bâtiment"; 12.0;"Commune, communauté de commune"
198272;0.20583;48.00278;"00° 12' 21.00'' Est, 48° 00' 10.00'' Nord";"72181";;"43 AV BOLLEE";"72100";"LE MANS";"Support non décrit"; 40.0;
214480;0.17083;48.03278;"00° 10' 15.00'' Est, 48° 01' 58.00'' Nord";"72065";;"RST LA PETITE CROIX PN 110 PK 216.000";"72650";"LA CHAPELLE-SAINT-AUBIN";"Mât"; 10.0;"SNCF Réseau"
214530;-0.12222;47.87000;"00° 07' 20.00'' Ouest, 47° 52' 12.00'' Nord";"72223";;"RST LES GUESNIERES PK 241.210";"72430";"NOYEN-SUR-SARTHE";"Mât"; 15.0;"SNCF Réseau"
214532;-0.32194;47.85556;"00° 19' 19.00'' Ouest, 47° 51' 20.00'' Nord";"72151";;"RST PONT DE PAILLE PK 256.830";"72300";"JUIGNE-SUR-SARTHE";"Mât"; 22.0;"SNCF Réseau"
283650;0.44389;47.65583;"00° 26' 38.00'' Est, 47° 39' 21.00'' Nord";"72115";"MARTHE";"PARKING 51/A28";"72500";"DISSAY-SOUS-COURCILLON";"Pylône autostable"; 12.0;"Sociétés d'Autoroutes"
288661;0.19111;47.75750;"00° 11' 28.00'' Est, 47° 45' 27.00'' Nord";"72243";"COLLÈGE JACQUES PRÉVERT";"R VISBEK";"72510";"PONTVALLAIN";"Bâtiment"; 53.0;"Etat, Ministère"
332440;0.34417;48.11639;"00° 20' 39.00'' Est, 48° 06' 59.00'' Nord";"72335";"MAISONS ROUGES -LAUBOURCHE";"CHEM RURAL";"72460";"SILLE-LE-PHILIPPE";"Pylône autostable"; 31.0;"ORANGE"
337308;0.55583;47.81861;"00° 33' 21.00'' Est, 47° 49' 07.00'' Nord";"72103";"LA CROIX DE L'ORMEAU";"CR 5 DE BRIVES";"72150";"COURDEMANCHE";"Pylône autostable"; 24.0;"Société Privée SA"
337598;0.16528;48.07417;"00° 09' 55.00'' Est, 48° 04' 27.00'' Nord";"72320";"LA PETITE NORMANDIE";;"72650";"SAINT-SATURNIN";"Pylône autostable"; 36.0;"Société Privée SA"
337608;0.14583;47.63056;"00° 08' 45.00'' Est, 47° 37' 50.00'' Nord";"72176";;"AV DE SAUMUR";"72800";"LE LUDE";"Pylône autostable"; 38.0;"Syndicat des eaux, Adduction"
356999;0.50667;47.99694;"00° 30' 24.00'' Est, 47° 59' 49.00'' Nord";"72046";;"DOMAINE DE PESCHERAY";"72370";"LE BREIL-SUR-MERIZE";"Mât"; 6.0;
364140;0.19389;48.00528;"00° 11' 38.00'' Est, 48° 00' 19.00'' Nord";"72181";;"16 PL DE L'ÉPERON";"72100";"LE MANS";"Immeuble"; 24.7;"Copropriété, Syndic, SCI"
366846;0.32361;47.61528;"00° 19' 25.00'' Est, 47° 36' 55.00'' Nord";"72077";"LA GOURDINELLERIE";"LE CHAMP DE L' ORMEAU CHEM RURAL";"72500";"CHENU";"Pylône autostable"; 35.0;"ORANGE"
371872;0.58139;48.23000;"00° 34' 53.00'' Est, 48° 13' 48.00'' Nord";"72062";"LE POIRIER JAUNE";"D2";"72400";"LA CHAPELLE-DU-BOIS";"Pylône autostable"; 48.0;
379963;0.26444;47.69639;"00° 15' 52.00'' Est, 47° 41' 47.00'' Nord";"72013";;"LE TERTRE";"72800";"AUBIGNE-RACAN";"Pylône autostable"; 17.4;"TDF"
390143;0.19139;47.99500;"00° 11' 29.00'' Est, 47° 59' 42.00'' Nord";"72181";;"83 BD  ALEXANDRE OYON";"72100";"LE MANS";"Immeuble"; 15.6;
395245;-0.05917;47.70306;"00° 03' 33.00'' Ouest, 47° 42' 11.00'' Nord";"72154";;"33-35 ALL DES BLEUETS";"72200";"LA FLECHE";"Immeuble"; 23.0;"Société HLM"
406433;0.17583;47.97694;"00° 10' 33.00'' Est, 47° 58' 37.00'' Nord";"72181";;"44 AV PIERRE PIFFAULT";"72027";"LE MANS";"Immeuble"; 12.0;"Société Privée SA"
418428;0.57778;47.72944;"00° 34' 40.00'' Est, 47° 43' 46.00'' Nord";"72068";;"AV DE LA PLEIADE";"72340";"LA CHARTRE-SUR-LE-LOIR";"Pylône autostable"; 30.0;
435125;0.36583;48.04000;"00° 21' 57.00'' Est, 48° 02' 24.00'' Nord";"72300";"LES FONTAINES";"CH D'EAU DE MONTBESLIN";"72470";"SAINT-MARS-LA-BRIERE";"Château d'eau - réservoir"; 35.0;"Syndicat des eaux, Adduction"
437062;-0.06750;47.71889;"00° 04' 03.00'' Ouest, 47° 43' 08.00'' Nord";"72154";"ST GERMAIN DU VAL";"LA BOURDONNIÈRE";"72200";"LA FLECHE";"Pylône autostable"; 77.0;"ORANGE Services Fixes"
437070;-0.08778;47.71111;"00° 05' 16.00'' Ouest, 47° 42' 40.00'' Nord";"72154";"BOUCHEVEREAU";;"72200";"LA FLECHE";"Pylône autostable"; 38.0;"TDF"
437372;0.16056;48.00306;"00° 09' 38.00'' Est, 48° 00' 11.00'' Nord";"72257";"LES PETITES RIGAUDERIES";;"72700";"ROUILLON";"Pylône haubané"; 96.0;"TDF"
437441;0.48444;47.67361;"00° 29' 04.00'' Est, 47° 40' 25.00'' Nord";"72115";"LE MENHIR";"LES DORÉES";"72500";"DISSAY-SOUS-COURCILLON";"Pylône autostable"; 46.0;"TDF"
438139;0.32333;47.76472;"00° 19' 24.00'' Est, 47° 45' 53.00'' Nord";"72191";"LES TERRES BLANCHES";"AV. DU 14 JUILLET";"72360";"MAYET";"Pylône haubané"; 343.3;"TDF"
440534;-0.35917;47.86611;"00° 21' 33.00'' Ouest, 47° 51' 58.00'' Nord";"72264";"BELLEVUE";"ROUTE DE BALLEE";"72300";"SABLE-SUR-SARTHE";"Pylône autostable"; 74.0;"TDF"
444598;-0.08611;47.70667;"00° 05' 10.00'' Ouest, 47° 42' 24.00'' Nord";"72154";;"BD DU QUÉBEC CENTRE DÉPARTEMENTAL D'INCENDIE";"72200";"LA FLECHE";"Bâtiment"; 28.0;"SDIS, secours, incendie"
445135;0.68250;48.20306;"00° 40' 57.00'' Est, 48° 12' 11.00'' Nord";"72081";"CHAMP DE LA PTE BRUYERE";"LA SORIE";"72400";"CHERREAU";"Pylône autostable"; 90.0;"ORANGE Services Fixes"
445842;0.13722;48.01944;"00° 08' 14.00'' Est, 48° 01' 10.00'' Nord";"72181";"LA FORÊTERIE";"BOIS DE PANNETIÈRE TOUR TDF";"72000";"LE MANS";"Tour hertzienne"; 75.0;"ORANGE Services Fixes"
453013;0.17583;47.92472;"00° 10' 33.00'' Est, 47° 55' 29.00'' Nord";"72344";"LE PRE DU DEVANT";"RTE DES AULNAYS";"72700";"SPAY";"Pylône autostable"; 45.0;"TDF"
454852;-0.35278;47.83806;"00° 21' 10.00'' Ouest, 47° 50' 17.00'' Nord";"72264";"LA CARRIERE DU LONG CHAMP";"V COMM N°8";"72300";"SABLE-SUR-SARTHE";"Pylône autostable"; 40.0;"TDF"
457343;0.06583;47.90222;"00° 03' 57.00'' Est, 47° 54' 08.00'' Nord";"72253";"LE PRE DE LA GROIE";;"72210";"ROEZE-SUR-SARTHE";"Pylône autostable"; 33.8;"FPS TOWERS"
457682;0.18361;47.89139;"00° 11' 01.00'' Est, 47° 53' 29.00'' Nord";"72200";;"R DU STADE LA BUTTE";"72230";"MONCE-EN-BELIN";"Pylône autostable"; 43.5;"FPS TOWERS"
457836;0.17722;48.02611;"00° 10' 38.00'' Est, 48° 01' 34.00'' Nord";"72181";;"20 R HYPPOLYTE FOUCAULT R THOMAS EDISON";"72000";"LE MANS";"Pylône tubulaire"; 34.0;"ORANGE"
458237;0.29500;48.01778;"00° 17' 42.00'' Est, 48° 01' 04.00'' Nord";"72386";"LE TERTRE D'AUVOURS";;"72530";"YVRE-L'EVEQUE";"Pylône autostable"; 44.0;"FPS TOWERS"
460746;0.19917;48.00361;"00° 11' 57.00'' Est, 48° 00' 13.00'' Nord";"72181";;"ALL DU BOURG D'ANGUY TOUR DES MUTUELLES DU MANS";"72000";"LE MANS";"Bâtiment"; 65.0;"Société Privée SA"
472105;0.21722;47.98222;"00° 13' 02.00'' Est, 47° 58' 56.00'' Nord";"72181";;"7 R HENRI CHAMPION PONTLIEUE";"72000";"LE MANS";"Immeuble"; 21.0;"Société HLM"
478527;0.68361;48.08250;"00° 41' 01.00'' Est, 48° 04' 57.00'' Nord";"72296";"LES VEAUX PICAULT";"LES PETITES GANCHES";"72320";"SAINT-MAIXENT";"Pylône autostable"; 35.0;"TDF"
480849;0.21667;48.00278;"00° 13' 00.00'' Est, 48° 00' 10.00'' Nord";"72181";;"10 R EMMANUEL MAIRE";"72000";"LE MANS";"Immeuble"; 34.1;"Copropriété, Syndic, SCI"
482076;0.19306;48.01528;"00° 11' 35.00'' Est, 48° 00' 55.00'' Nord";"72181";;"1 R DE CLAIRCIGNY STADE LÉON BOLLÉE TRIBUNE SEM";"72000";"LE MANS";"Bâtiment"; 33.0;"Commune, communauté de commune"
483385;0.19083;48.00333;"00° 11' 27.00'' Est, 48° 00' 12.00'' Nord";"72181";;"14-18-22 BD PAUL COURBOULAY";"72000";"LE MANS";"Bâtiment"; 38.0;"Société HLM"
486967;0.29694;47.83056;"00° 17' 49.00'' Est, 47° 49' 50.00'' Nord";"72124";"LE CLOTEAU";;"72220";"ECOMMOY";"Pylône autostable"; 44.0;"TDF"
492601;0.02167;47.88194;"00° 01' 18.00'' Est, 47° 52' 55.00'' Nord";"72346";"LE PETIT HETRE";"RTE DE MALICORNE";"72210";"LA SUZE-SUR-SARTHE";"Château d'eau - réservoir"; 34.2;"Syndicat des eaux, Adduction"
493391;0.42583;47.69083;"00° 25' 33.00'' Est, 47° 41' 27.00'' Nord";"72071";;"AV DE TOURS CH D'EAU";"72500";"CHATEAU-DU-LOIR";"Château d'eau - réservoir"; 37.0;"Syndicat des eaux, Adduction"
496231;0.16222;48.01583;"00° 09' 44.00'' Est, 48° 00' 57.00'' Nord";"72181";;"AV OLIVIER MESSIAEN UNIVERSITE BAT PHYSIQUE CHIMIE";"72000";"LE MANS";"Immeuble"; 25.5;"Etat, Ministère"
498455;0.39278;48.04806;"00° 23' 34.00'' Est, 48° 02' 53.00'' Nord";"72241";"MONTBOUTEILLE";"CHEM RURAL N°6 DU PAVILLON";"72450";"MONTFORT-LE-GESNOIS";"Pylône tubulaire"; 45.0;"TDF"
498880;0.17194;48.03250;"00° 10' 19.00'' Est, 48° 01' 57.00'' Nord";"72181";"R ARMAND PEUGEOT";"R ARMAND PEUGEOT ZAC DU MOULIN AUX MOINES";"72000";"LE MANS";"Pylône autostable"; 50.0;"SFR"
499529;0.51028;47.91194;"00° 30' 37.00'' Est, 47° 54' 43.00'' Nord";"72298";"SAPINS DES PAUVRES";"D208 PRÈS RÉSERVOIR";"72440";"SAINT-MARS-DE-LOCQUENAY";"Pylône autostable"; 53.0;"Société Privée SA"
499803;0.67917;47.94500;"00° 40' 45.00'' Est, 47° 56' 42.00'' Nord";"72204";"LA PETITE CHEVALERIE";"CHEM RURAL DE LA CHEVALERIE À L' AUBERDIÈRE CHAMP DES BOIS";"72120";"MONTAILLE";"Pylône autostable"; 36.0;"ORANGE"
500393;0.23444;47.99722;"00° 14' 04.00'' Est, 47° 59' 50.00'' Nord";"72181";"LES SABLONS";"R DU DANEMARK CHAUFFERIE";"72000";"LE MANS";"Bâtiment"; 35.0;"Société Privée SA"
501301;0.65889;47.78361;"00° 39' 32.00'' Est, 47° 47' 01.00'' Nord";"72240";"LE PRESSOIR";"L'ORASIERE";"72340";"PONCE-SUR-LE-LOIR";"Pylône autostable"; 26.5;"Société Privée SA"
501356;0.71472;47.92889;"00° 42' 53.00'' Est, 47° 55' 44.00'' Nord";"72204";"LE CHAMP DES FOSSÉS";;"72120";"MONTAILLE";"Pylône autostable"; 42.0;"Société Privée SA"
501766;0.16167;48.00361;"00° 09' 42.00'' Est, 48° 00' 13.00'' Nord";"72257";"LA NOÉ";"ROUTE DE ROUILLON";"72700";"ROUILLON";"Pylône haubané"; 92.0;"Towercast"
501770;0.02000;48.28778;"00° 01' 12.00'' Est, 48° 17' 16.00'' Nord";"72011";"HAUT LIEU";"R DES EGLANTIERS";"72130";"ASSE-LE-BOISNE";"Château d'eau - réservoir"; 50.0;"Syndicat des eaux, Adduction"
502048;0.16917;48.38861;"00° 10' 09.00'' Est, 48° 23' 19.00'' Nord";"72318";"LA VOISINE";;"72610";"SAINT-RIGOMER-DES-BOIS";"Pylône tubulaire"; 10.0;"Société Privée SA"
502190;0.35694;48.34639;"00° 21' 25.00'' Est, 48° 20' 47.00'' Nord";"72295";"LES FOURCHES";;"72600";"SAINT-LONGIS";"Pylône autostable"; 36.0;"Société Privée SA"
502322;0.13639;48.01722;"00° 08' 11.00'' Est, 48° 01' 02.00'' Nord";"72360";"LA PANNETIÈRE";"CHÂTEAU D'EAU RN 147";"72650";"TRANGE";"Château d'eau - réservoir"; 48.0;"Commune, communauté de commune"
508764;-0.11861;47.86944;"00° 07' 07.00'' Ouest, 47° 52' 10.00'' Nord";"72223";"PUITS AU LARD";"CHÂTEAU D'EAU";"72430";"NOYEN-SUR-SARTHE";"Château d'eau - réservoir"; 38.0;"Syndicat des eaux, Adduction"
508775;-0.23111;48.01111;"00° 13' 52.00'' Ouest, 48° 00' 40.00'' Nord";"72278";"LE PRE DES LOGES";;"72350";"SAINT-DENIS-D'ORQUES";"Pylône autostable"; 40.0;"TDF"
509580;0.15111;48.04083;"00° 09' 04.00'' Est, 48° 02' 27.00'' Nord";"72198";"LE BOURGNEUF";"D304";"72650";"LA MILESSE";"Pylône autostable"; 28.0;"ORANGE"
515185;0.09528;48.38167;"00° 05' 43.00'' Est, 48° 22' 54.00'' Nord";"72056";"LA TARROTERIE";"LA FEUILLERE";"72610";"CHAMPFLEUR";"Pylône autostable"; 36.0;"TDF"
515767;0.25861;48.00667;"00° 15' 31.00'' Est, 48° 00' 24.00'' Nord";"72386";"LE LUARD";"PRÈS D 314";"72530";"YVRE-L'EVEQUE";"Pylône autostable"; 48.0;"ORANGE"
517440;0.55778;47.96139;"00° 33' 28.00'' Est, 47° 57' 41.00'' Nord";"72042";"LA CRANCE";"RTE DE MAISONCELLES";"72440";"BOULOIRE";"Château d'eau - réservoir"; 55.0;"Syndicat des eaux, Adduction"
519913;0.38000;48.35833;"00° 22' 48.00'' Est, 48° 21' 30.00'' Nord";"72180";"LES GROSSES BOURSES";"CHEM RURAL N°11 DIT DE GROSSE BOURSE";"72600";"MAMERS";"Château d'eau - réservoir"; 71.7;"Syndicat des eaux, Adduction"
532249;-0.31500;47.83500;"00° 18' 54.00'' Ouest, 47° 50' 06.00'' Nord";"72264";;"23 R GEORGES GUYNEMER";"72300";"SABLE-SUR-SARTHE";"Immeuble"; 24.4;"Société HLM"
532832;0.21167;47.97194;"00° 12' 42.00'' Est, 47° 58' 19.00'' Nord";"72181";;"2 ALL RAPHAËL";"72000";"LE MANS";"Bâtiment"; 31.0;"Société HLM"
533483;0.13917;48.03417;"00° 08' 21.00'' Est, 48° 02' 03.00'' Nord";"72065";"CHAMP DU GRAND FOUGERAY";"A 11-SENS PROVINCE  VERS PARIS- PK 175";"72650";"LA CHAPELLE-SAINT-AUBIN";"Pylône autostable"; 49.0;"SFR"
533493;0.28444;47.94639;"00° 17' 04.00'' Est, 47° 56' 47.00'' Nord";"72260";"LES ORMES";"CHEM DE LA GUITIÈRE";"72230";"RUAUDIN";"Pylône autostable"; 47.0;"SFR"
534102;0.16583;47.94194;"00° 09' 57.00'' Est, 47° 56' 31.00'' Nord";"72344";"LA PIÈCE DU GENÊT";"LE PARC ZAC LA ROUVELIÈRE";"72700";"SPAY";"Pylône autostable"; 50.0;"ORANGE"
534152;0.23444;47.97583;"00° 14' 04.00'' Est, 47° 58' 33.00'' Nord";"72181";;"2 R DE GRENOBLE";"72000";"LE MANS";"Immeuble"; 33.0;"Copropriété, Syndic, SCI"
537788;0.14889;48.10028;"00° 08' 56.00'' Est, 48° 06' 01.00'' Nord";"72024";;"9 R DE LA MADELEINE CHATEAU D'EAU";"72650";"LA BAZOGE";"Château d'eau - réservoir"; 34.0;"Syndicat des eaux, Adduction"
537836;0.00389;47.75833;"00° 00' 14.00'' Est, 47° 45' 30.00'' Nord";"72163";"LA TUFFETIÈRE";;"72270";"LIGRON";"Château d'eau - réservoir"; 48.5;"Syndicat des eaux, Adduction"
537903;0.03056;47.97333;"00° 01' 50.00'' Est, 47° 58' 24.00'' Nord";"72339";"LA CHALLERIE";"VOIE COMMUNALE N° 49";"72210";"SOULIGNE-FLACE";"Château d'eau - réservoir"; 57.0;"Syndicat des eaux, Adduction"
540739;0.35889;48.36000;"00° 21' 32.00'' Est, 48° 21' 36.00'' Nord";"72180";;"RTE DU MELE HOP";"72600";"MAMERS";"Bâtiment"; 25.0;"Etablissement de soins"
542300;0.16333;47.97111;"00° 09' 48.00'' Est, 47° 58' 16.00'' Nord";"72003";;"1 R E. CHABRIER";"72700";"ALLONNES";"Immeuble"; 42.0;"Société HLM"
542844;-0.25167;47.72139;"00° 15' 06.00'' Ouest, 47° 43' 17.00'' Nord";"72061";"LES GUYONNIÈRES";"D.23 - A.11";"72300";"LA CHAPELLE-D'ALIGNE";"Pylône autostable"; 45.0;"Sociétés d'Autoroutes"
545529;0.05417;47.67361;"00° 03' 15.00'' Est, 47° 40' 25.00'' Nord";"72357";"LES PETITES LANDES";;"72800";"THOREE-LES-PINS";"Pylône autostable"; 36.0;"ORANGE"
546377;0.23778;48.01833;"00° 14' 16.00'' Est, 48° 01' 06.00'' Nord";"72181";"CHARBONNIÉRE";"CHEM DU VILLARET PARKING DU STADE DE FONTENELLES";"72000";"LE MANS";"Pylône tubulaire"; 25.0;"SFR"
552292;0.10611;48.08889;"00° 06' 22.00'' Est, 48° 05' 20.00'' Nord";"72198";"MONTAILLÉ";"EMMAÜS";"72650";"LA MILESSE";"Pylône autostable"; 33.0;"ORANGE"
552520;0.19472;47.98944;"00° 11' 41.00'' Est, 47° 59' 22.00'' Nord";"72181";;"4 PL GEORGES GAUTHIER";"72000";"LE MANS";"Immeuble"; 46.0;"Copropriété, Syndic, SCI"
557655;0.14722;48.20167;"00° 08' 50.00'' Est, 48° 12' 06.00'' Nord";"72186";"LE PETIT PARC";"D6 LA MALADRIE (CHÂTEAU D' EAU)";"72170";"MARESCHE";"Château d'eau - réservoir"; 37.0;"Commune, communauté de commune"
557674;-0.17306;47.69750;"00° 10' 23.00'' Ouest, 47° 41' 51.00'' Nord";"72025";"CLOS DE MONDAGRON";"RTE DE CROSMIÈRES D 70";"72200";"BAZOUGES-SUR-LE-LOIR";"Pylône autostable"; 33.0;"FPS TOWERS"
557691;-0.12056;47.73417;"00° 07' 14.00'' Ouest, 47° 44' 03.00'' Nord";"72377";"LA BERTRAIE - LES VERGERS";"D.306 - VC N°1";"72270";"VILLAINES-SOUS-MALICORNE";"Pylône autostable"; 50.0;"SFR"
559315;0.65167;48.07222;"00° 39' 06.00'' Est, 48° 04' 20.00'' Nord";"72041";"LES GROS BOIS";;"72390";"BOUER";"Pylône autostable"; 43.0;"ORANGE"
564989;-0.15667;47.82250;"00° 09' 24.00'' Ouest, 47° 49' 21.00'' Nord";"72228";"LE POINT DU JOUR";"CHEM COMMUNAL PRÉS A11";"72300";"PARCE-SUR-SARTHE";"Pylône autostable"; 47.0;"SFR"
566157;0.15056;47.95722;"00° 09' 02.00'' Est, 47° 57' 26.00'' Nord";"72003";"BOIS DE HARDANGERE";"STADE CLAUDE VOISIN BOIS DE HARDANGERE";"72700";"ALLONNES";"Pylône tubulaire"; 37.0;"ORANGE"
567633;0.16750;47.96528;"00° 10' 03.00'' Est, 47° 57' 55.00'' Nord";"72003";"LA FORÊTERIE -BOIS DU MARIN";"D.51 - R. LEDRU ROLLIN CHÂTEAU D'EAU";"72700";"ALLONNES";"Château d'eau - réservoir"; 47.0;"Syndicat des eaux, Adduction"
568494;0.37278;47.92667;"00° 22' 22.00'' Est, 47° 55' 36.00'' Nord";"72231";"L'AUBERDIÈRE";;"72250";"PARIGNE-L'EVEQUE";"Pylône autostable"; 47.0;"SFR"
569489;-0.10861;47.71583;"00° 06' 31.00'' Ouest, 47° 42' 57.00'' Nord";"72154";"VERRON";"LES QUATRES JOURNAUX";"72200";"LA FLECHE";"Pylône tubulaire"; 35.0;"ORANGE"
569582;0.48278;48.04861;"00° 28' 58.00'' Est, 48° 02' 55.00'' Nord";"72090";"LE GRAND MÉNIL";"LE PETIT BOULAY";"72160";"CONNERRE";"Pylône tubulaire"; 30.0;"ORANGE"
573191;-0.31556;47.82667;"00° 18' 56.00'' Ouest, 47° 49' 36.00'' Nord";"72264";;"R. DU CLOS DU BOIS Z.I. DU CLOS DU BOIS";"72300";"SABLE-SUR-SARTHE";"Bâtiment"; 32.0;"SDIS, secours, incendie"
573407;0.55778;47.86528;"00° 33' 28.00'' Est, 47° 51' 55.00'' Nord";"72210";"LE BROUILLARD";;"72150";"MONTREUIL-LE-HENRI";"Château d'eau - réservoir"; 53.0;"Commune, communauté de commune"
573827;-0.29306;47.83250;"00° 17' 35.00'' Ouest, 47° 49' 57.00'' Nord";"72336";"LA FOUQUERIE";"RÉSERVOIR DE LA FOUQUERIE ROUTE DE LA SOLESMES";"72300";"SOLESMES";"Château d'eau - réservoir"; 54.0;"Syndicat des eaux, Adduction"
574858;-0.26778;47.92417;"00° 16' 04.00'' Ouest, 47° 55' 27.00'' Nord";"72239";"GARE DE POILLÉ";"VC N°8 DE POILLÉ SUR VÈGRE À COSSÉ EN CHAMPAGNE STADE MUNICIPAL";"72350";"POILLE-SUR-VEGRE";"Pylône autostable"; 45.0;"ORANGE"
576682;0.19417;48.01500;"00° 11' 39.00'' Est, 48° 00' 54.00'' Nord";"72181";;"14 R CLAIRCIGNY STADE BOLLÉE";"72000";"LE MANS";"Bâtiment"; 32.6;"Commune, communauté de commune"
580665;0.47972;48.27861;"00° 28' 47.00'' Est, 48° 16' 43.00'' Nord";"72276";"LA GRANDE GROUAS";"SIS ROUTE DE CONTRES D206";"72110";"SAINT-COSME-EN-VAIRAIS";"Château d'eau - réservoir"; 36.0;"Syndicat des eaux, Adduction"
580675;0.18778;47.96306;"00° 11' 16.00'' Est, 47° 57' 47.00'' Nord";"72181";"GARE DE TRIAGE";"AV PIERRE PIFFAULT ZI SUD";"72000";"LE MANS";"Pylône autostable"; 46.6;"SFR"
584307;0.18056;48.00722;"00° 10' 50.00'' Est, 48° 00' 26.00'' Nord";"72181";;"236 BD CARNOT RÉSIDENCE CARUSO";"72000";"LE MANS";"Immeuble"; 14.7;"Copropriété, Syndic, SCI"
584817;0.21694;47.96444;"00° 13' 01.00'' Est, 47° 57' 52.00'' Nord";"72181";;"12 R ALAIN GERBAULT";"72000";"LE MANS";"Pylône tubulaire"; 17.0;"SFR"
587604;-0.04417;48.05056;"00° 02' 39.00'' Ouest, 48° 03' 02.00'' Nord";"72004";"LES GRANDES GROIES";;"72540";"AMNE";"Pylône autostable"; 12.0;"Particulier"
588037;0.23389;48.08861;"00° 14' 02.00'' Est, 48° 05' 19.00'' Nord";"72217";"BOIS DE JOUÉ";"CHATEAU D EAU";"72190";"NEUVILLE-SUR-SARTHE";"Château d'eau - réservoir"; 29.0;"Syndicat des eaux, Adduction"
589764;0.19972;48.00444;"00° 11' 59.00'' Est, 48° 00' 16.00'' Nord";"72181";;"38 AV FRANÇOIS MITTERAND";"72000";"LE MANS";"Immeuble"; 37.0;"Copropriété, Syndic, SCI"
590278;0.42972;47.68639;"00° 25' 47.00'' Est, 47° 41' 11.00'' Nord";"72071";"LE POINT DU JOUR";;"72500";"CHATEAU-DU-LOIR";"Pylône autostable"; 47.0;"SFR"
590290;0.07306;47.72528;"00° 04' 23.00'' Est, 47° 43' 31.00'' Nord";"72175";"TAILLIS DES TURPINIÃ?RES";"BOIS DES HERSES";"72800";"LUCHE-PRINGE";"Château d'eau - réservoir"; 49.0;"Syndicat des eaux, Adduction"
590958;0.44472;47.71194;"00° 26' 41.00'' Est, 47° 42' 43.00'' Nord";"72071";"LES FROMENTINIÈRES";;"72500";"CHATEAU-DU-LOIR";"Château d'eau - réservoir"; 44.0;"Commune, communauté de commune"
595935;0.16750;48.19694;"00° 10' 03.00'' Est, 48° 11' 49.00'' Nord";"72186";"LE PETIT FROU";"A28 PK 128,5";"72170";"MARESCHE";"Pylône autostable"; 56.0;"Sociétés d'Autoroutes"
595954;0.68750;48.14944;"00° 41' 15.00'' Est, 48° 08' 58.00'' Nord";"72080";;"ROUTE DE VIBRAYE";"72400";"CHERRE";"Pylône autostable"; 40.0;"Sociétés d'Autoroutes"
597306;0.33972;48.01556;"00° 20' 23.00'' Est, 48° 00' 56.00'' Nord";"72054";;"Z.A. DE LA FORÊT";"72470";"CHAMPAGNE";"Pylône autostable"; 42.5;"Société Privée SA"
599915;0.52667;48.17111;"00° 31' 36.00'' Est, 48° 10' 16.00'' Nord";"72040";;"PL DE L EGLISE";"72400";"LA BOSSE";"Château d'eau - réservoir"; 50.0;"Particulier"
606385;0.22083;48.04500;"00° 13' 15.00'' Est, 48° 02' 42.00'' Nord";"72095";;"ROUTE DE BALLON";"72190";"COULAINES";"Bâtiment"; 10.0;"Etat, Ministère"
614077;-0.26639;47.87639;"00° 15' 59.00'' Ouest, 47° 52' 35.00'' Nord";"72151";"LA MAISON NEUVE - LA CHENAYE";"VOIE COMMUNALE";"72300";"JUIGNE-SUR-SARTHE";"Pylône autostable"; 40.0;"SFR"
615909;0.20806;47.95111;"00° 12' 29.00'' Est, 47° 57' 04.00'' Nord";"72181";;"CIRCUIT BUGATTI TRIBUNES PRÈS D 139";"72000";"LE MANS";"Bâtiment"; 28.0;"Association"
615937;0.61028;48.06417;"00° 36' 37.00'' Est, 48° 03' 51.00'' Nord";"72041";"LE GRENOUILLET";"CHEM RURAL DU PETIT THIELLET";"72390";"BOUER";"Pylône autostable"; 33.0;"ORANGE"
622022;0.16722;48.01806;"00° 10' 02.00'' Est, 48° 01' 05.00'' Nord";"72181";;"BD  D'ESTOURNELLES DE CONSTANT COMPLEXE SPORTIF LE PETIT VAUROUZÉ";"72000";"LE MANS";"Pylône autostable"; 25.3;"SFR"
622064;-0.31417;47.85917;"00° 18' 51.00'' Ouest, 47° 51' 33.00'' Nord";"72151";"BELLE-VUE";"CHEM RURAL N° 28";"72300";"JUIGNE-SUR-SARTHE";"Pylône autostable"; 30.0;"ORANGE"
622105;0.19556;47.99861;"00° 11' 44.00'' Est, 47° 59' 55.00'' Nord";"72181";;"39, R MARENGO/43 AV GAL DE GAULLE RÉSIDENCE MARENGO";"72000";"LE MANS";"Immeuble"; 32.0;"Copropriété, Syndic, SCI"
623961;0.15944;48.05028;"00° 09' 34.00'' Est, 48° 03' 01.00'' Nord";"72320";"LE TERTRE- LES GOUPILLÈRES";"CHEM D'EXPLOITATION";"72650";"SAINT-SATURNIN";"Pylône autostable"; 35.0;"SFR"
624481;0.55083;48.08556;"00° 33' 03.00'' Est, 48° 05' 08.00'' Nord";"72383";"LA GROIE";;"72160";"VOUVRAY-SUR-HUISNE";"Château d'eau - réservoir"; 27.0;"Syndicat des eaux, Adduction"
624804;0.22556;47.96500;"00° 13' 32.00'' Est, 47° 57' 54.00'' Nord";"72181";;"R DE GUETTELOUP CLINIQUE";"72000";"LE MANS";"Bâtiment"; 25.0;"Etablissement de soins"
629209;0.20500;47.99000;"00° 12' 18.00'' Est, 47° 59' 24.00'' Nord";"72181";;"100 BD JEAN JAURÈS CENTRAL TÉLÉPHONIQUE";"72000";"LE MANS";"Bâtiment"; 39.0;"ORANGE Services Fixes"
629225;0.21472;47.95833;"00° 12' 53.00'' Est, 47° 57' 30.00'' Nord";"72181";"LES RAINERIES";"CIRCUIT DES 24 HEURES";"72000";"LE MANS";"Pylône haubané"; 26.0;"ORANGE"
629227;0.18083;47.96444;"00° 10' 51.00'' Est, 47° 57' 52.00'' Nord";"72181";;"5 R ANTOINE BECQUEREL ZI SUD";"72000";"LE MANS";"Pylône autostable"; 35.0;"ORANGE"
629231;0.21528;47.97389;"00° 12' 55.00'' Est, 47° 58' 26.00'' Nord";"72181";;"11 PL PAUL CÉZANNE HLM";"72000";"LE MANS";"Immeuble"; 29.0;"Société HLM"
629233;0.20667;48.01306;"00° 12' 24.00'' Est, 48° 00' 47.00'' Nord";"72181";;"45 - 47 R DES MAILLETS";"72000";"LE MANS";"Immeuble"; 32.0;"Copropriété, Syndic, SCI"
629235;0.20639;48.01250;"00° 12' 23.00'' Est, 48° 00' 45.00'' Nord";"72181";;"1, R DES VICTIMES DU NAZISME RÉSIDENCE NÉGRIER";"72000";"LE MANS";"Immeuble"; 26.4;"Copropriété, Syndic, SCI"
629238;0.20139;48.00361;"00° 12' 05.00'' Est, 48° 00' 13.00'' Nord";"72181";;"13 AV DU GÉNÉRAL DE GAULLE RES DU MAINE";"72000";"LE MANS";"Immeuble"; 35.0;"Copropriété, Syndic, SCI"
629240;0.19556;48.00694;"00° 11' 44.00'' Est, 48° 00' 25.00'' Nord";"72181";;"97 GRANDE RUE MJC JACQUES PRÉVERT";"72000";"LE MANS";"Immeuble"; 19.0;"Commune, communauté de commune"
629244;0.21333;48.00778;"00° 12' 48.00'' Est, 48° 00' 28.00'' Nord";"72181";;"25, R RENÉ BARDET RÉSIDENCE LE PANORAMA";"72000";"LE MANS";"Immeuble"; 18.0;"Copropriété, Syndic, SCI"
629250;0.16361;48.01917;"00° 09' 49.00'' Est, 48° 01' 09.00'' Nord";"72181";;"13 AV RENÉ LAËNNEC CLINIQUE DU PRÉ";"72000";"LE MANS";"Immeuble"; 30.0;"Société Privée SA"
629256;0.20583;47.97278;"00° 12' 21.00'' Est, 47° 58' 22.00'' Nord";"72181";;"283 AV FELIX GENESLAY RÉSIDENCE ST SAENS";"72000";"LE MANS";"Immeuble"; 28.0;"Copropriété, Syndic, SCI"
629262;0.19889;47.97750;"00° 11' 56.00'' Est, 47° 58' 39.00'' Nord";"72181";;"150 R DE LA FOUCAUDIÈRE";"72000";"LE MANS";"Pylône autostable"; 38.0;"ORANGE"
629268;0.18444;48.01972;"00° 11' 04.00'' Est, 48° 01' 11.00'' Nord";"72181";;"206 - 208 AV DU RHIN ET DANUBE";"72000";"LE MANS";"Immeuble"; 19.0;"Copropriété, Syndic, SCI"
629270;0.18361;48.02056;"00° 11' 01.00'' Est, 48° 01' 14.00'' Nord";"72181";;"243 AV RHIN ET DANUBE RÉSIDENCE LE SURCOUF";"72000";"LE MANS";"Immeuble"; 19.8;"Copropriété, Syndic, SCI"
629274;0.18500;48.01167;"00° 11' 06.00'' Est, 48° 00' 42.00'' Nord";"72181";;"77 AV RUBILLARD RÉSIDENCE RUBILLARD";"72000";"LE MANS";"Immeuble"; 32.0;"Copropriété, Syndic, SCI"
629276;0.16944;48.01278;"00° 10' 10.00'' Est, 48° 00' 46.00'' Nord";"72181";;"5 ALLÉE ALFRED NOBEL";"72000";"LE MANS";"Immeuble"; 17.0;"Copropriété, Syndic, SCI"
629280;0.18833;47.99500;"00° 11' 18.00'' Est, 47° 59' 42.00'' Nord";"72181";;"19 BD ALEXANDRE OYON";"72000";"LE MANS";"Immeuble"; 27.0;"Copropriété, Syndic, SCI"
629282;0.18889;47.97889;"00° 11' 20.00'' Est, 47° 58' 44.00'' Nord";"72181";;"10, R ROBERVAL";"72000";"LE MANS";"Pylône tubulaire"; 30.0;"Société Privée SA"
629284;0.20028;47.95833;"00° 12' 01.00'' Est, 47° 57' 30.00'' Nord";"72181";;"1, AV DU PARC DES EXPOSITIONS";"72000";"LE MANS";"Pylône tubulaire"; 15.0;"ORANGE"
629290;0.20694;47.95167;"00° 12' 25.00'' Est, 47° 57' 06.00'' Nord";"72181";"CIRCUIT BUGATTI";"RD 139 CIRCUIT DES 24 H";"72000";"LE MANS";"Immeuble"; 27.0;"Association"
629292;0.21750;48.00278;"00° 13' 03.00'' Est, 48° 00' 10.00'' Nord";"72181";"STE CROIX";"R EMMANUEL MAIRE";"72000";"LE MANS";"Immeuble"; 32.0;"Copropriété, Syndic, SCI"
629294;0.21861;48.00306;"00° 13' 07.00'' Est, 48° 00' 11.00'' Nord";"72181";;"18, R EMMANUEL MARIE STATION TDF DE LE MANS EST - IMM BELVÉDÈRE";"72000";"LE MANS";"Immeuble"; 33.0;"Copropriété, Syndic, SCI"
629296;0.20139;47.96639;"00° 12' 05.00'' Est, 47° 57' 59.00'' Nord";"72181";;"426 B  AV FÉLIX GENESLAY STADE AVIA";"72000";"LE MANS";"Pylône tubulaire"; 20.0;"ORANGE"
629298;0.19778;48.00389;"00° 11' 52.00'' Est, 48° 00' 14.00'' Nord";"72181";;"11 PL DE LA RÉPUBLIQUE";"72000";"LE MANS";"Immeuble"; 30.0;"Copropriété, Syndic, SCI"
629302;0.20944;47.98472;"00° 12' 34.00'' Est, 47° 59' 05.00'' Nord";"72181";;"234 AV. JEAN JAURÈS";"72000";"LE MANS";"Immeuble"; 34.0;"Copropriété, Syndic, SCI"
629304;0.18472;48.00222;"00° 11' 05.00'' Est, 48° 00' 08.00'' Nord";"72181";;"194 AV DE LA LIBÉRATION RÉSIDENCE ST GILLES";"72000";"LE MANS";"Immeuble"; 29.0;"Copropriété, Syndic, SCI"
629306;0.21389;47.96667;"00° 12' 50.00'' Est, 47° 58' 00.00'' Nord";"72181";;"120 R ETIENNE FALCONET";"72000";"LE MANS";"Immeuble"; 20.0;"Société HLM"
629308;0.17167;47.98083;"00° 10' 18.00'' Est, 47° 58' 51.00'' Nord";"72181";;"23, R GRANDES COURBES STÉ YOPLAIT";"72000";"LE MANS";"Château d'eau - réservoir"; 48.0;"Société Privée SA"
629310;0.18167;47.98500;"00° 10' 54.00'' Est, 47° 59' 06.00'' Nord";"72181";;"10 BD ESTIENNE D'ORVES";"72000";"LE MANS";"Pylône tubulaire"; 25.0;"ORANGE"
635096;0.62028;48.13944;"00° 37' 13.00'' Est, 48° 08' 22.00'' Nord";"72375";"LA PLOUTERIE";;"72400";"VILLAINES-LA-GONAIS";"Pylône autostable"; 42.0;"ORANGE"
635108;0.07806;48.10194;"00° 04' 41.00'' Est, 48° 06' 07.00'' Nord";"72119";"LA TRENTINIÈRE";"CHEM RURAL N°11";"72240";"DOMFRONT-EN-CHAMPAGNE";"Pylône autostable"; 35.0;"ORANGE"
638375;0.45083;48.07333;"00° 27' 03.00'' Est, 48° 04' 24.00'' Nord";"72165";"AIRE DE LA CHARPENTERIE";"A.11 - PK.150 SENS PROVINCE - PARIS";"72450";"LOMBRON";"Pylône autostable"; 45.0;"Sociétés d'Autoroutes"
647425;0.23611;47.98139;"00° 14' 10.00'' Est, 47° 58' 53.00'' Nord";"72181";"LA SAPINIÈRE DES LANDES";"7, R DES PLATANES LES BRUYERES";"72000";"LE MANS";"Pylône autostable"; 31.0;"SFR"
647585;0.11667;48.10806;"00° 07' 00.00'' Est, 48° 06' 29.00'' Nord";"72024";"FORÊT DE LA BAZOGE";"D242 BÛCHER CARRÉ CHÂTEAU D'EAU";"72650";"LA BAZOGE";"Château d'eau - réservoir"; 32.0;"Commune, communauté de commune"
651238;0.74944;48.05722;"00° 44' 58.00'' Est, 48° 03' 26.00'' Nord";"72373";"LE PANORAMA";;"72320";"VIBRAYE";"Pylône autostable"; 38.0;"TDF"
651341;-0.11889;47.85472;"00° 07' 08.00'' Ouest, 47° 51' 17.00'' Nord";"72223";"LA PETITE GALETIERE";"A 11 PK 204";"72430";"NOYEN-SUR-SARTHE";"Pylône autostable"; 49.0;"Sociétés d'Autoroutes"
651972;-0.11639;48.17389;"00° 06' 59.00'' Ouest, 48° 10' 26.00'' Nord";"72315";"LE CHÊNE VERT";"CHEM RURAL N°39";"72140";"SAINT-REMY-DE-SILLE";"Pylône autostable"; 45.0;"SFR"
652008;0.11639;47.93750;"00° 06' 59.00'' Est, 47° 56' 15.00'' Nord";"72381";"LE BROUILLARD";"CHEM D'EXPLOITATION N° 8";"72210";"VOIVRES-LES-LE-MANS";"Pylône autostable"; 40.0;"ORANGE"
657959;0.35583;48.05389;"00° 21' 21.00'' Est, 48° 03' 14.00'' Nord";"72300";;"A 11 PK 158";"72470";"SAINT-MARS-LA-BRIERE";"Pylône autostable"; 49.0;"SFR"
659061;0.54861;48.04750;"00° 32' 55.00'' Est, 48° 02' 51.00'' Nord";"72118";"GOUGER";"D52 LES FEUILLUS";"72390";"DOLLON";"Pylône autostable"; 33.0;"ORANGE"
661198;0.74972;47.92278;"00° 44' 59.00'' Est, 47° 55' 22.00'' Nord";"72269";"LA COURTILLE";"SITE ITAS TIM";"72120";"SAINT-CALAIS";"Pylône autostable"; 36.0;"Itas Tim"
661212;0.48500;47.67472;"00° 29' 06.00'' Est, 47° 40' 29.00'' Nord";"72115";"PIERRE LEVÉE";"SITE ITAS TIM";"72500";"DISSAY-SOUS-COURCILLON";"Pylône autostable"; 36.0;"Itas Tim"
663585;-0.07194;47.69861;"00° 04' 19.00'' Ouest, 47° 41' 55.00'' Nord";"72154";;"27 R GROLIER";"72200";"LA FLECHE";"Bâtiment"; 24.0;"Commune, communauté de commune"
665087;0.79778;47.99806;"00° 47' 52.00'' Est, 47° 59' 53.00'' Nord";"72366";"LA PÉCHAUDIÈRE";"RTE DU RÉSERVOIR";"72320";"VALENNES";"Pylône autostable"; 35.0;"Conseil Départemental"
671314;-0.07611;47.92806;"00° 04' 34.00'' Ouest, 47° 55' 41.00'' Nord";"72177";"L'OUVRARDIÈRE";;"72210";"MAIGNE";"Pylône autostable"; 38.0;"BOUYGUES"
673165;0.15861;47.63833;"00° 09' 31.00'' Est, 47° 38' 18.00'' Nord";"72176";;"BD  DES TOURELLES SOCIÉTÉ NEOPOST";"72800";"LE LUDE";"Bâtiment"; 14.0;"Société Privée SA"
674994;-0.31528;47.76444;"00° 18' 55.00'' Ouest, 47° 45' 52.00'' Nord";"72244";"LA SUARDIÈRE";"CHEM DU CHÂTEAU D'EAU";"72300";"PRECIGNE";"Château d'eau - réservoir"; 38.0;"Commune, communauté de commune"
678546;0.16750;47.82611;"00° 10' 03.00'' Est, 47° 49' 34.00'' Nord";"72385";;"LE TAILLIS DE GRAUDALON";"72330";"YVRE-LE-POLIN";"Pylône autostable"; 30.0;"SFR"
678661;0.31611;48.26667;"00° 18' 58.00'' Est, 48° 15' 60.00'' Nord";"72189";"LE PARC BESNIER";"LA HAUT DU BOIS";"72260";"MAROLLES-LES-BRAULTS";"Château d'eau - réservoir"; 39.9;"Syndicat des eaux, Adduction"
678674;0.17361;47.77194;"00° 10' 25.00'' Est, 47° 46' 19.00'' Nord";"72243";"LA PRÉVERIE";;"72510";"PONTVALLAIN";"Château d'eau - réservoir"; 48.0;"Syndicat des eaux, Adduction"
684814;0.26528;47.88806;"00° 15' 55.00'' Est, 47° 53' 17.00'' Nord";"72350";;"R DE LA SALLE DES FETES STADE";"72220";"TELOCHE";"Pylône tubulaire"; 26.0;"ORANGE"
685717;0.82139;48.09194;"00° 49' 17.00'' Est, 48° 05' 31.00'' Nord";"72193";"LA TAUPINIÈRE";;"72320";"MELLERAY";"Pylône autostable"; 45.0;"SFR"
685830;0.68889;48.07083;"00° 41' 20.00'' Est, 48° 04' 15.00'' Nord";"72158";"LES TUAUX ROUGES";;"72390";"LAVARE";"Château d'eau - réservoir"; 45.0;"Syndicat des eaux, Adduction"
687591;0.18417;47.99806;"00° 11' 03.00'' Est, 47° 59' 53.00'' Nord";"72181";;"1 AV OLIVIER HEUZÉ MAGASINS GÉNÉRAUX CCI";"72000";"LE MANS";"Bâtiment"; 37.8;"CCI,Ch Metiers,Port Aut,Aérop"
687595;0.22667;47.94972;"00° 13' 36.00'' Est, 47° 56' 59.00'' Nord";"72181";;"RTE DE TOURS HIPPODROME DES HUNAUDIÈRES";"72000";"LE MANS";"Pylône autostable"; 32.6;"SFR"
687597;0.21528;47.98833;"00° 12' 55.00'' Est, 47° 59' 18.00'' Nord";"72181";;"28 BD WINSTON CHURCHILL";"72000";"LE MANS";"Immeuble"; 40.6;"Copropriété, Syndic, SCI"
688428;0.22306;47.99083;"00° 13' 23.00'' Est, 47° 59' 27.00'' Nord";"72181";;"67 BD  WINSTON CHURCHILL IMM LE LAFFITTE";"72000";"LE MANS";"Immeuble"; 27.3;"Copropriété, Syndic, SCI"
688430;0.20861;47.99833;"00° 12' 31.00'' Est, 47° 59' 54.00'' Nord";"72181";;"78 B , R SCARRON";"72000";"LE MANS";"Immeuble"; 23.0;"Copropriété, Syndic, SCI"
688434;0.66194;48.18278;"00° 39' 43.00'' Est, 48° 10' 58.00'' Nord";"72132";;"R DE CHÂTEAUDUN - D.7";"72400";"LA FERTE-BERNARD";"Château d'eau - réservoir"; 36.6;"Syndicat des eaux, Adduction"
688444;0.18833;47.96722;"00° 11' 18.00'' Est, 47° 58' 02.00'' Nord";"72181";;"68 R DE LA FOUCAUDIÈRE  GARE DE TRIAGE";"72000";"LE MANS";"Pylône autostable"; 33.0;"BOUYGUES"
688448;0.21889;47.95250;"00° 13' 08.00'' Est, 47° 57' 09.00'' Nord";"72181";;"CHEM AUX BOEUFS ENTRE LE CIRCUIT BUGATTI ET L'HYPPODROME";"72000";"LE MANS";"Pylône tubulaire"; 30.0;"FPS TOWERS"
690439;-0.33000;47.83806;"00° 19' 48.00'' Ouest, 47° 50' 17.00'' Nord";"72264";;"R NOTRE DAME EGLISE NOTRE DAME";"72300";"SABLE-SUR-SARTHE";"Monument religieux"; 51.4;"Commune, communauté de commune"
693221;0.52444;48.04528;"00° 31' 28.00'' Est, 48° 02' 43.00'' Nord";"72358";"LA LONGRAIS";;"72160";"THORIGNE-SUR-DUE";"Pylône autostable"; 14.0;"TDF"
695484;-0.12167;48.19472;"00° 07' 18.00'' Ouest, 48° 11' 41.00'' Nord";"72334";"CITÉ SCOLAIRE P. SCARRON";"ROUTE DU MONT ST-JEAN";"72140";"SILLE-LE-GUILLAUME";"Immeuble"; 21.0;"Etat, Ministère"
695553;0.00333;48.11028;"00° 00' 12.00'' Est, 48° 06' 37.00'' Nord";"72089";"LE MOULIN À VENT";"CHEM DE CURES À L'HABIT";"72240";"CONLIE";"Pylône autostable"; 30.0;"ORANGE"
695681;0.35417;48.34944;"00° 21' 15.00'' Est, 48° 20' 58.00'' Nord";"72295";"LA GRANDE NOË";;"72600";"SAINT-LONGIS";"Pylône autostable"; 36.0;"SFR"
695749;-0.16972;47.70944;"00° 10' 11.00'' Ouest, 47° 42' 34.00'' Nord";"72025";"LE BOIS BIGNON";"CHÂTEAU D'EAU DE LA HAUTE BATE";"72200";"BAZOUGES-SUR-LE-LOIR";"Château d'eau - réservoir"; 39.0;"Syndicat des eaux, Adduction"
695781;0.26028;47.69917;"00° 15' 37.00'' Est, 47° 41' 57.00'' Nord";"72013";"LES JORIES";;"72800";"AUBIGNE-RACAN";"Pylône autostable"; 38.0;"ORANGE"
695795;-0.19944;48.14944;"00° 11' 58.00'' Ouest, 48° 08' 58.00'' Nord";"72255";"LES SEPT";"RTE DE PARENNES";"72140";"ROUESSE-VASSE";"Pylône autostable"; 39.0;"SFR"
698566;-0.37361;47.83167;"00° 22' 25.00'' Ouest, 47° 49' 54.00'' Nord";"72264";"LA BOUDARDIÈRE";"LA CLOSERAIE DU BOIS PRÈS CHÂTEAU D'EAU D 309";"72300";"SABLE-SUR-SARTHE";"Pylône tubulaire"; 25.0;"ORANGE"
699043;-0.05667;48.13694;"00° 03' 24.00'' Ouest, 48° 08' 13.00'' Nord";"72351";"LA GRANDE VIEILLE ABBAYE";"LE CHAMP DU CARREFOUR";"72240";"TENNIE";"Pylône autostable"; 30.0;"ORANGE"
699176;0.29944;47.91722;"00° 17' 58.00'' Est, 47° 55' 02.00'' Nord";"72047";"BEL AIR";"A 28";"72250";"BRETTE-LES-PINS";"Pylône autostable"; 39.0;"Sociétés d'Autoroutes"
699915;0.27639;47.83250;"00° 16' 35.00'' Est, 47° 49' 57.00'' Nord";"72124";"LE MONT VAILLANT";"R DU HAUT VAILLANT";"72220";"ECOMMOY";"Pylône autostable"; 29.0;"ORANGE Services Fixes"
699928;0.42833;48.00444;"00° 25' 42.00'' Est, 48° 00' 16.00'' Nord";"72007";"L'ANERAIS";"VOIE COMMUNALE N° 202 LE PETIT CHAMP";"72370";"ARDENAY-SUR-MERIZE";"Pylône autostable"; 30.0;"ORANGE"
700291;0.19278;48.00000;"00° 11' 34.00'' Est, 48° 00' 00.00'' Nord";"72181";;"2, R D'ESSLING";"72100";"LE MANS";"Immeuble"; 22.0;"Particulier"
703167;0.15250;48.02306;"00° 09' 09.00'' Est, 48° 01' 23.00'' Nord";"72181";"LE PETIT ROUGEMONT";;"72100";"LE MANS";"Pylône haubané"; 52.0;"Société Privée SA"
703955;0.75028;47.92250;"00° 45' 01.00'' Est, 47° 55' 21.00'' Nord";"72269";;"LA COURTILLE";"72120";"SAINT-CALAIS";"Pylône autostable"; 31.0;"TDF"
704698;-0.10028;48.20528;"00° 06' 01.00'' Ouest, 48° 12' 19.00'' Nord";"72315";"LES BOURDAINES";;"72140";"SAINT-REMY-DE-SILLE";"Pylône autostable"; 41.0;"Société Privée SA"
704700;0.20167;48.00167;"00° 12' 06.00'' Est, 48° 00' 06.00'' Nord";"72181";;"26 R CHANZY COLLÈGE BERTHELOT";"72100";"LE MANS";"Bâtiment"; 21.0;"Conseil Départemental"
704702;0.79583;47.94278;"00° 47' 45.00'' Est, 47° 56' 34.00'' Nord";"72269";"LES FORÊTS";;"72120";"SAINT-CALAIS";"Pylône autostable"; 31.0;"Titulaire programme Radio/TV"
706752;0.12417;47.87111;"00° 07' 27.00'' Est, 47° 52' 16.00'' Nord";"72146";"LE CHAMP DU CORMIER";"IMP DU CORMIER STADE MUNICIPAL";"72230";"GUECELARD";"Pylône tubulaire"; 38.0;"FPS TOWERS"
711227;0.42833;48.18194;"00° 25' 42.00'' Est, 48° 10' 55.00'' Nord";"72039";"LA BAHINE";"R DES VIGNES";"72110";"BONNETABLE";"Pylône tubulaire"; 28.0;"COMPLETEL"
714717;0.23306;47.91389;"00° 13' 59.00'' Est, 47° 54' 50.00'' Nord";"72213";"LA PETITE LANDE";"LE SABLON VIRAGE DE MULSANNE";"72230";"MULSANNE";"Château d'eau - réservoir"; 30.0;"Syndicat des eaux, Adduction"
716933;0.30056;47.84389;"00° 18' 02.00'' Est, 47° 50' 38.00'' Nord";"72124";"LA TIERCERIE";"CHEM RURAL 67 AVANT BNE 169";"72220";"ECOMMOY";"Pylône autostable"; 36.0;"ORANGE"
720234;0.36861;47.68694;"00° 22' 07.00'' Est, 47° 41' 13.00'' Nord";"72203";;"LE VEAU BLANCHARD POINT D APPUI A28 KM 60";"72500";"MONTABON";"Bâtiment"; 6.0;"Sociétés d'Autoroutes"
720240;0.31194;48.00528;"00° 18' 43.00'' Est, 48° 00' 19.00'' Nord";"72058";"BOIS DE LOUDON";"BEAUVAIS CAMP D AUVOURS A28 KM 97";"72560";"CHANGE";"Mât"; 12.0;"Sociétés d'Autoroutes"
720402;0.30778;47.78694;"00° 18' 28.00'' Est, 47° 47' 13.00'' Nord";"72191";"LA GASNERIE";"A28 PYLONE  BRAYE VC 9";"72360";"MAYET";"Pylône autostable"; 18.0;"Sociétés d'Autoroutes"
720406;0.34917;47.70611;"00° 20' 57.00'' Est, 47° 42' 22.00'' Nord";"72160";"LES GIGOUS";"A28";"72500";"LAVERNAT";"Pylône autostable"; 55.0;"Sociétés d'Autoroutes"
720505;0.43639;48.18833;"00° 26' 11.00'' Est, 48° 11' 18.00'' Nord";"72039";"LA DOLONNIÈRE";"PRÉS DE D60";"72110";"BONNETABLE";"Pylône autostable"; 38.0;"ORANGE Services Fixes"
720587;-0.26444;47.76917;"00° 15' 52.00'' Ouest, 47° 46' 09.00'' Nord";"72244";"CITÉ D'ALSACE";"USINES DE MALPAIRE ENTREPRISE LACROIX";"72300";"PRECIGNE";"Bâtiment"; 9.0;"Société Privée SA"
722500;0.24222;48.16556;"00° 14' 32.00'' Est, 48° 09' 56.00'' Nord";"72023";"L'ASNERIE";"STADE MUNICIPAL";"72290";"BALLON";"Pylône tubulaire"; 31.0;"ORANGE"
731062;0.09028;47.96333;"00° 05' 25.00'' Est, 47° 57' 48.00'' Nord";"72280";"LA BLANCHARDIÈRE";"RD 309";"72700";"SAINT-GEORGES-DU-BOIS";"Pylône autostable"; 44.0;"TDF"
735907;0.01083;47.87417;"00° 00' 39.00'' Est, 47° 52' 27.00'' Nord";"72346";;"RTE DE MALICORNE";"72210";"LA SUZE-SUR-SARTHE";"Mât"; 28.0;"Syndicat des eaux, Adduction"
738663;-0.09444;47.70028;"00° 05' 40.00'' Ouest, 47° 42' 01.00'' Nord";"72154";"LES PILLETIÈRES";;"72200";"LA FLECHE";"Pylône autostable"; 46.5;"SFR"
739267;0.08056;47.62500;"00° 04' 50.00'' Est, 47° 37' 30.00'' Nord";"72330";"LE CLOS";"CHEM RURAL 34";"72800";"SAVIGNE-SOUS-LE-LUDE";"Pylône autostable"; 40.0;"Conseil Départemental"
747219;0.14972;48.04306;"00° 08' 59.00'' Est, 48° 02' 35.00'' Nord";"72198";"LE BOIS JARRY";"D.304/A.11 - P.K. 173.9";"72650";"LA MILESSE";"Mât béton"; 18.0;"Sociétés d'Autoroutes"
748340;0.02778;48.03611;"00° 01' 40.00'' Est, 48° 02' 10.00'' Nord";"72096";"PRÈS LA FOSSE";;"72550";"COULANS-SUR-GEE";"Mât béton"; 18.0;"Sociétés d'Autoroutes"
752178;0.20611;48.01278;"00° 12' 22.00'' Est, 48° 00' 46.00'' Nord";"72181";;"39 R DES MAILLETS";"72000";"LE MANS";"Immeuble"; 31.7;"Commune, communauté de commune"
752612;-0.20889;47.77611;"00° 12' 32.00'' Ouest, 47° 46' 34.00'' Nord";"72022";"LA CHASSE AU POINT DU JOUR";"A 11-ECH SABLÉ-LA FLÈCHE";"72200";"LE BAILLEUL";"Pylône autostable"; 44.3;"Sociétés d'Autoroutes"
752733;-0.12000;48.19444;"00° 07' 12.00'' Ouest, 48° 11' 40.00'' Nord";"72334";"LA BRUNETIÈRE";"RTE DE MONT ST-JEAN LA CROIX CHEM RURAL LES EVRARDIÈRES PRÈS RÉSERVOIRS";"72140";"SILLE-LE-GUILLAUME";"Château d'eau - réservoir"; 45.6;"Syndicat des eaux, Adduction"
752942;-0.06000;47.81250;"00° 03' 36.00'' Ouest, 47° 48' 45.00'' Nord";"72195";"LE TERTRE";"CHEM COMMUNAL";"72270";"MEZERAY";"Pylône autostable"; 40.0;"ORANGE"
756095;0.24000;47.91278;"00° 14' 24.00'' Est, 47° 54' 46.00'' Nord";"72213";"LE SABLON";;"72230";"MULSANNE";"Pylône autostable"; 44.9;"TDF"
756528;-0.16056;48.00167;"00° 09' 38.00'' Ouest, 48° 00' 06.00'' Nord";"72168";"LE RABLEAU";"CHEM DE LA COIRE";"72540";"LOUE";"Château d'eau - réservoir"; 32.0;"Commune, communauté de commune"
756628;0.09583;47.82500;"00° 05' 45.00'' Est, 47° 49' 30.00'' Nord";"72051";"LES LANDES DE CÉRANS";"CHEM DES LANDES";"72330";"CERANS-FOULLETOURTE";"Pylône tubulaire"; 27.0;"ORANGE"
756638;-0.33778;47.84361;"00° 20' 16.00'' Ouest, 47° 50' 37.00'' Nord";"72264";;"D.306 - AV CHARLES DE GAULLE RÉS. LE GUIVON PRÈS STADES";"72300";"SABLE-SUR-SARTHE";"Immeuble"; 35.8;"Copropriété, Syndic, SCI"
757140;0.14417;48.14694;"00° 08' 39.00'' Est, 48° 08' 49.00'' Nord";"72289";"TROMPE SOURIS - BUISSONNIÈRE";"CHEM RURAL N°1 A.28 LE MANS - ALENÇPN";"72380";"SAINTE-JAMME-SUR-SARTHE";"Pylône autostable"; 40.0;"ORANGE"
757196;0.54528;47.76722;"00° 32' 43.00'' Est, 47° 46' 02.00'' Nord";"72161";"RENNES";"CHEM RURAL N°41 DE L'AITRE MAÇON À LA CORBINIÈRE";"72340";"LHOMME";"Pylône autostable"; 33.0;"ORANGE"
759572;-0.01389;47.72056;"00° 00' 50.00'' Ouest, 47° 43' 14.00'' Nord";"72084";"LES GRANDES PLANTES";"CHEM D'EXPLOITATION";"72200";"CLERMONT-CREANS";"Pylône autostable"; 35.0;"ORANGE"
760341;0.68250;47.79194;"00° 40' 57.00'' Est, 47° 47' 31.00'' Nord";"72159";"LA MARTINERIE";"L'ECOTE - CHEM RURAL";"72310";"LAVENAY";"Pylône autostable"; 39.0;"Conseil Départemental"
760866;-0.15056;48.17278;"00° 09' 02.00'' Ouest, 48° 10' 22.00'' Nord";"72334";"LE COURS D'EN HAUT";"LE COURS D'EN HAUT - TERRAIN";"72140";"SILLE-LE-GUILLAUME";"Pylône autostable"; 30.0;"ORANGE"
763114;0.75750;48.17583;"00° 45' 27.00'' Est, 48° 10' 33.00'' Nord";"72353";"LE JARIÉ";"P.R. 124.700";"72320";"THELIGNY";"Pylône tubulaire"; 18.0;"Sociétés d'Autoroutes"
763116;0.67111;48.14472;"00° 40' 16.00'' Est, 48° 08' 41.00'' Nord";"72080";"LA JUSTIÈRE";"P.R. 132.000";"72400";"CHERRE";"Pylône tubulaire"; 28.0;"Sociétés d'Autoroutes"
763120;0.49611;48.08389;"00° 29' 46.00'' Est, 48° 05' 02.00'' Nord";"72031";"LA ROUGERIE";"P.R. 146.800";"72160";"BEILLE";"Pylône tubulaire"; 18.0;"Sociétés d'Autoroutes"
763122;0.42417;48.06694;"00° 25' 27.00'' Est, 48° 04' 01.00'' Nord";"72165";"LES BESLIÈRES";"P.R. 152.600";"72450";"LOMBRON";"Pylône tubulaire"; 18.0;"Sociétés d'Autoroutes"
763402;-0.21667;48.00417;"00° 13' 00.00'' Ouest, 48° 00' 15.00'' Nord";"72149";;"CENTRE D'ENTRETIEN COFIROUTE ECH DE JOUÉ EN CHARNIE SUR A81 PR 202";"72540";"JOUE-EN-CHARNIE";"Pylône autostable"; 30.0;"Société Privée SA"
763879;0.55306;48.10667;"00° 33' 11.00'' Est, 48° 06' 24.00'' Nord";"72288";"PIED LARRON";"P.R. 141.850";"72160";"SAINT-HILAIRE-LE-LIERRU";"Pylône tubulaire"; 18.0;"Sociétés d'Autoroutes"
766382;-0.11083;48.01056;"00° 06' 39.00'' Ouest, 48° 00' 38.00'' Nord";"72070";"LA BRETONNIÈRE";"P.R.194.400";"72540";"CHASSILLE";"Mât béton"; 18.0;"Sociétés d'Autoroutes"
766384;-0.16389;48.00694;"00° 09' 50.00'' Ouest, 48° 00' 25.00'' Nord";"72168";;"PRÈS AIRE DE REPOS DES GRIPPERIES P.R. 198.500";"72540";"LOUE";"Mât béton"; 18.0;"Sociétés d'Autoroutes"
773699;0.24861;48.05667;"00° 14' 55.00'' Est, 48° 03' 24.00'' Nord";"72328";;"A.11 - PK 166 AIRE DE SERVICE DE LA PIVARDIÈRE SENS PARIS-PROVINCE";"72190";"SARGE-LES-LE-MANS";"Pylône autostable"; 51.0;"Sociétés d'Autoroutes"
793324;0.07611;48.04028;"00° 04' 34.00'' Est, 48° 02' 25.00'' Nord";"72113";"LA MOTTE";"CHEM RURAL DE LA MOTTE PK 180 - SENS PROVINCE PARIS";"72550";"DEGRE";"Pylône autostable"; 45.0;"SFR"
793340;0.48194;48.05361;"00° 28' 55.00'' Est, 48° 03' 13.00'' Nord";"72090";"MAISON DIEU";"PRÈS DE LA RN 23";"72160";"CONNERRE";"Pylône autostable"; 45.0;"TDF"
793450;0.23861;48.38389;"00° 14' 19.00'' Est, 48° 23' 02.00'' Nord";"72215";"LE GRAND CHAILLOU";"R GUILLAUME TALVAS";"72600";"NEUFCHATEL-EN-SAOSNOIS";"Pylône autostable"; 40.0;"SFR"
794315;0.32889;48.33611;"00° 19' 44.00'' Est, 48° 20' 10.00'' Nord";"72326";"BEL AIR";"PRÈS D 300";"72600";"SAOSNES";"Château d'eau - réservoir"; 36.0;"Syndicat des eaux, Adduction"
794682;-0.04917;48.26944;"00° 02' 57.00'' Ouest, 48° 16' 10.00'' Nord";"72121";"LE PARC";"VOIE COMMUNALE N°521";"72130";"DOUILLET";"Pylône autostable"; 45.0;"ORANGE"
796872;-0.02250;48.02444;"00° 01' 21.00'' Ouest, 48° 01' 28.00'' Nord";"72045";"LE QUINTARD";"AIRE DE SERVICE COFIROUTE PK 187,5 - A81 (SENS PARIS-PROVINCE)";"72550";"BRAINS-SUR-GEE";"Pylône tubulaire"; 18.0;"Sociétés d'Autoroutes"
799889;0.10500;48.37861;"00° 06' 18.00'' Est, 48° 22' 43.00'' Nord";"72056";"LA FEUILLERE";"LA TARROTERIE";"72610";"CHAMPFLEUR";"Pylône autostable"; 35.0;"TDF"
803142;0.13667;47.73972;"00° 08' 12.00'' Est, 47° 44' 23.00'' Nord";"72182";"LA LOUTIÈRE";;"72510";"MANSIGNE";"Château d'eau - réservoir"; 26.0;"Syndicat des eaux, Adduction"
803679;0.60472;48.12139;"00° 36' 17.00'' Est, 48° 07' 17.00'' Nord";"72375";"LA HAIE";"A 11-PK 137.7";"72400";"VILLAINES-LA-GONAIS";"Pylône autostable"; 41.0;"Sociétés d'Autoroutes"
804770;-0.23472;48.01111;"00° 14' 05.00'' Ouest, 48° 00' 40.00'' Nord";"72278";"LE PRE DES LOGES";"VOIE POIPAILLE";"72350";"SAINT-DENIS-D'ORQUES";"Pylône autostable"; 46.0;"Sociétés d'Autoroutes"
807349;0.40639;48.16583;"00° 24' 23.00'' Est, 48° 09' 57.00'' Nord";"72048";;"LA PETITE GAUDIÈRE";"72110";"BRIOSNE-LES-SABLES";"Pylône autostable"; 45.0;"FPS TOWERS"
810655;0.23083;47.94306;"00° 13' 51.00'' Est, 47° 56' 35.00'' Nord";"72213";"L' ARCHE";"PRÈS D92 ZAC DU CORMIER";"72230";"MULSANNE";"Pylône autostable"; 30.0;"ORANGE"
812468;0.21833;48.01917;"00° 13' 06.00'' Est, 48° 01' 09.00'' Nord";"72181";;"CHEMIN DES FONTENELLES CHATEAU D'EAU";"72000";"LE MANS";"Château d'eau - réservoir"; 57.0;"Commune, communauté de commune"
812769;0.46083;47.73333;"00° 27' 39.00'' Est, 47° 44' 00.00'' Nord";"72134";"MOULIN DE LA MOTTE";"CHEM RURAL DIT DES MÉSANGERIES";"72500";"FLEE";"Pylône autostable"; 43.0;"TDF"
812771;0.28639;48.07611;"00° 17' 11.00'' Est, 48° 04' 34.00'' Nord";"72329";"LA BRUYÈRE";"11 R JEAN MOULIN";"72460";"SAVIGNE-L'EVEQUE";"Château d'eau - réservoir"; 28.0;"Commune, communauté de commune"
812775;0.41861;47.76694;"00° 25' 07.00'' Est, 47° 46' 01.00'' Nord";"72028";"LA HARDILLÈRE";"LA PETITE ESCOBUE CHEM RURAL";"72500";"BEAUMONT-PIED-DE-BOEUF";"Pylône autostable"; 41.0;"SFR"
812777;0.51667;48.13083;"00° 31' 00.00'' Est, 48° 07' 51.00'' Nord";"72363";"LA CHENILLÈRE";"VOIE COMMUNALE";"72160";"TUFFE";"Pylône autostable"; 40.4;"SFR"
812779;-0.07694;47.69278;"00° 04' 37.00'' Ouest, 47° 41' 34.00'' Nord";"72154";"LA BEUFFERIE";"6-8-10 R JULES DAUDET";"72200";"LA FLECHE";"Immeuble"; 16.0;"Société HLM"
812781;-0.07528;47.69889;"00° 04' 31.00'' Ouest, 47° 41' 56.00'' Nord";"72154";;"PL HENRI IV EGLISE ST THOMAS";"72200";"LA FLECHE";"Monument religieux"; 47.0;"Commune, communauté de commune"
812785;0.17333;48.04194;"00° 10' 24.00'' Est, 48° 02' 31.00'' Nord";"72065";;"N138 - AV DES FRÈRES RENAULT TOYSRUS";"72650";"LA CHAPELLE-SAINT-AUBIN";"Pylône autostable"; 36.0;"EDF ou GDF"
812965;0.32861;47.91194;"00° 19' 43.00'' Est, 47° 54' 43.00'' Nord";"72047";"LE POIRIER";"CHEM DU POIRIER";"72250";"BRETTE-LES-PINS";"Pylône autostable"; 34.0;"SFR"
812987;0.63944;48.01528;"00° 38' 22.00'' Est, 48° 00' 55.00'' Nord";"72333";"LA TEILLAIE";"D.72";"72390";"SEMUR-EN-VALLON";"Pylône autostable"; 45.0;"Conseil Départemental"
813013;0.66361;47.85556;"00° 39' 49.00'' Est, 47° 51' 20.00'' Nord";"72085";"LA FOURNERIE";"D.58";"72310";"COGNERS";"Pylône autostable"; 44.0;"Conseil Départemental"
813017;0.56444;47.83472;"00° 33' 52.00'' Est, 47° 50' 05.00'' Nord";"72103";"L'EGUET";"CHEM RURAL DE L'EGUET";"72150";"COURDEMANCHE";"Château d'eau - réservoir"; 37.0;"Commune, communauté de commune"
813019;0.76694;48.00389;"00° 46' 01.00'' Est, 48° 00' 14.00'' Nord";"72032";"LA MARSAISSIÈRE";"CHEM RURAL PRÈS LE BROSSIER";"72320";"BERFAY";"Pylône autostable"; 39.0;"Conseil Départemental"
813023;0.15472;47.98833;"00° 09' 17.00'' Est, 47° 59' 18.00'' Nord";"72257";"LA PIERRERIE";"VC N°3 LES COCHETIERES";"72700";"ROUILLON";"Pylône autostable"; 30.0;"ORANGE"
813025;0.58722;47.88556;"00° 35' 14.00'' Est, 47° 53' 08.00'' Nord";"72361";"LES GAULARDIERES";"L'ABBAYE - CHEM RURAL";"72440";"TRESSON";"Pylône autostable"; 49.0;"Conseil Départemental"
813027;0.26056;47.98306;"00° 15' 38.00'' Est, 47° 58' 59.00'' Nord";"72058";"LE TERTRE";"CHÂTEAU D'EAU LE TERTRE - BOIS DE CHANGÉ";"72560";"CHANGE";"Château d'eau - réservoir"; 32.0;"Syndicat des eaux, Adduction"
813031;0.18528;47.94000;"00° 11' 07.00'' Est, 47° 56' 24.00'' Nord";"72008";;"R DE NAUGUIBERT";"72230";"ARNAGE";"Pylône tubulaire"; 28.0;"ORANGE"
813037;0.46917;47.93944;"00° 28' 09.00'' Est, 47° 56' 22.00'' Nord";"72382";"LE MARAIS";"CHEM VICINAL N°8 STADE MUNICIPAL";"72440";"VOLNAY";"Pylône autostable"; 38.0;"SFR"
813039;0.19750;47.70444;"00° 11' 51.00'' Est, 47° 42' 16.00'' Nord";"72098";"LA PIQUERIE";"D.44 B";"72800";"COULONGE";"Pylône autostable"; 34.0;"ORANGE Services Fixes"
813041;0.56833;47.72000;"00° 34' 06.00'' Est, 47° 43' 12.00'' Nord";"72068";;"VC N°17 DE LA PICARDIE";"72340";"LA CHARTRE-SUR-LE-LOIR";"Pylône autostable"; 40.0;"SFR"
813043;0.03500;48.18889;"00° 02' 06.00'' Est, 48° 11' 20.00'' Nord";"72370";"LA BUTTE DES GIONS";;"72170";"VERNIE";"Pylône autostable"; 38.0;"SFR"
813045;0.54722;48.20889;"00° 32' 50.00'' Est, 48° 12' 32.00'' Nord";"72281";"LE CHAMP DE ST GEORGES";"D 59";"72110";"SAINT-GEORGES-DU-ROSAY";"Pylône autostable"; 43.0;"SFR"
813047;0.10583;48.41583;"00° 06' 21.00'' Est, 48° 24' 57.00'' Nord";"72308";;"R DE LA CARTONNIÈRE LES 3 CHÂTEAUX D'EAU";"72610";"SAINT-PATERNE";"Château d'eau - réservoir"; 43.0;"Commune, communauté de commune"
813051;-0.21694;47.87778;"00° 13' 01.00'' Ouest, 47° 52' 40.00'' Nord";"72010";"LA BRESSARDIERE";"D57";"72430";"ASNIERES-SUR-VEGRE";"Château d'eau - réservoir"; 40.0;"Syndicat des eaux, Adduction"
813055;0.19611;48.02639;"00° 11' 46.00'' Est, 48° 01' 35.00'' Nord";"72095";;"RTE DE CARNAC ZI";"72190";"COULAINES";"Pylône autostable"; 24.1;"ORANGE"
813068;0.16417;48.07389;"00° 09' 51.00'' Est, 48° 04' 26.00'' Nord";"72320";"SCIER";"RN 138";"72650";"SAINT-SATURNIN";"Pylône autostable"; 35.0;"ORANGE"
813072;0.17972;47.94944;"00° 10' 47.00'' Est, 47° 56' 58.00'' Nord";"72008";;"R ERNEST SYLVAIN BOLLÉE ZA DE LA RIVIÈRE";"72230";"ARNAGE";"Pylône autostable"; 30.0;"ORANGE"
814116;0.32306;48.01528;"00° 19' 23.00'' Est, 48° 00' 55.00'' Nord";"72054";;"46 RTE DE PARIS";"72470";"CHAMPAGNE";"Pylône haubané"; 31.0;"BOUYGUES"
819881;0.21556;48.03444;"00° 12' 56.00'' Est, 48° 02' 04.00'' Nord";"72095";;"CHEMIN DU PLESSIS ENSEMBLE SPORTIF  VAL DE MONNET";"72190";"COULAINES";"Pylône autostable"; 31.0;"CELLNEX"
821378;0.68556;48.15194;"00° 41' 08.00'' Est, 48° 09' 07.00'' Nord";"72080";"LA BOIVINIÈRE";;"72400";"CHERRE";"Pylône autostable"; 36.0;"Société Privée SA"
833800;0.28944;47.97222;"00° 17' 22.00'' Est, 47° 58' 20.00'' Nord";"72058";"LA PREELLE";;"72560";"CHANGE";"Pylône autostable"; 45.0;"TDF"
833804;0.13306;48.07111;"00° 07' 59.00'' Est, 48° 04' 16.00'' Nord";"72198";"LA CARRIE";"RD 304 STADE MUNICIPAL";"72650";"LA MILESSE";"Pylône autostable"; 39.0;"TDF"
833832;0.24611;48.02972;"00° 14' 46.00'' Est, 48° 01' 47.00'' Nord";"72328";"LA BELLE ÉTOILE";"RD 301";"72190";"SARGE-LES-LE-MANS";"Château d'eau - réservoir"; 25.0;"Syndicat des eaux, Adduction"
833860;0.12778;48.01528;"00° 07' 40.00'' Est, 48° 00' 55.00'' Nord";"72360";"PANNETIERE";;"72650";"TRANGE";"Pylône autostable"; 39.0;"FPS TOWERS"
865583;0.75750;48.15500;"00° 45' 27.00'' Est, 48° 09' 18.00'' Nord";"72105";"ST FIACRE";"A11 - PK 123/124";"72320";"COURGENARD";"Pylône autostable"; 49.0;"Sociétés d'Autoroutes"
865609;0.24639;47.91861;"00° 14' 47.00'' Est, 47° 55' 07.00'' Nord";"72213";"LES ROCHÈRES";;"72230";"MULSANNE";"Pylône autostable"; 35.0;"SFR"
868131;0.41167;47.98417;"00° 24' 42.00'' Est, 47° 59' 03.00'' Nord";"72007";"LA GOMBARDIERE";"RTE DÉPART. 52B";"72370";"ARDENAY-SUR-MERIZE";"Pylône autostable"; 27.0;"CELLNEX"
868866;0.14694;47.64556;"00° 08' 49.00'' Est, 47° 38' 44.00'' Nord";"72176";;"AV DU TALHOUET R DU STADE";"72800";"LE LUDE";"Pylône autostable"; 30.0;"FPS TOWERS"
870158;0.33139;48.01639;"00° 19' 53.00'' Est, 48° 00' 59.00'' Nord";"72054";;"CHEM DES FOUGERES Z.A. LA FORET";"72470";"CHAMPAGNE";"Pylône autostable"; 32.5;"CELLNEX"
887298;0.40667;47.70167;"00° 24' 24.00'' Est, 47° 42' 06.00'' Nord";"72173";;"LE RAHART";"72500";"LUCEAU";"Pylône autostable"; 36.0;"SDIS, secours, incendie"
899896;0.06583;47.81833;"00° 03' 57.00'' Est, 47° 49' 06.00'' Nord";"72051";"LA MONTAGNE";"LE CHAMP DU BOULAY";"72330";"CERANS-FOULLETOURTE";"Pylône autostable"; 39.3;"TDF"
901131;0.09583;48.35889;"00° 05' 45.00'' Est, 48° 21' 32.00'' Nord";"72036";;"RTE DE CHERISAY KM149 A28";"72610";"BETHON";"Pylône autostable"; 50.0;"Sociétés d'Autoroutes"
901980;0.12750;48.02139;"00° 07' 39.00'' Est, 48° 01' 17.00'' Nord";"72360";;"PEAGE LM OUEST A11 8 PR176";"72650";"TRANGE";"Bâtiment"; 6.0;"Sociétés d'Autoroutes"
902584;0.17472;48.05167;"00° 10' 29.00'' Est, 48° 03' 06.00'' Nord";"72320";"L'ANTONNIERE";"CE ANTONNIERE A11 PR171 PCO";"72650";"SAINT-SATURNIN";"Pylône autostable"; 26.0;"Sociétés d'Autoroutes"
902954;0.17389;48.05056;"00° 10' 26.00'' Est, 48° 03' 02.00'' Nord";"72320";;"PEAGE LM NORD A11 7 PR170 L ANTONIERE";"72650";"SAINT-SATURNIN";"Bâtiment"; 10.0;"Sociétés d'Autoroutes"
904985;-0.03611;47.94056;"00° 02' 10.00'' Ouest, 47° 56' 26.00'' Nord";"72075";"LA CHAMPAGNIÈRE";"CHEMIRÉ LE GAUDIN ZER PAYS DE LOIRE";"72210";"CHEMIRE-LE-GAUDIN";"Pylône autostable"; 43.0;"Sociétés d'Autoroutes"
907685;-0.25250;48.05028;"00° 15' 09.00'' Ouest, 48° 03' 01.00'' Nord";"72278";;"LES PETITES PLAUDERIES LA BELLE NOÉ";"72350";"SAINT-DENIS-D'ORQUES";"Pylône autostable"; 82.0;"Société Privée SA"
908421;-0.11750;48.18806;"00° 07' 03.00'' Ouest, 48° 11' 17.00'' Nord";"72334";"LA MOITERIE";;"72140";"SILLE-LE-GUILLAUME";"Pylône autostable"; 10.0;"Société Privée SA"
920042;0.20639;48.01278;"00° 12' 23.00'' Est, 48° 00' 46.00'' Nord";"72181";;"R DES MAILLETS 45";"72000";"LE MANS";"Immeuble"; 27.8;"Copropriété, Syndic, SCI"
928741;0.01444;47.87250;"00° 00' 52.00'' Est, 47° 52' 21.00'' Nord";"72346";"LES LANDES";;"72210";"LA SUZE-SUR-SARTHE";"Pylône autostable"; 36.0;"TDF"
928762;-0.20667;47.83889;"00° 12' 24.00'' Ouest, 47° 50' 20.00'' Nord";"72228";"LES RECOINS";;"72300";"PARCE-SUR-SARTHE";"Pylône autostable"; 18.0;"Société Privée SA"
928772;-0.25333;48.03167;"00° 15' 12.00'' Ouest, 48° 01' 54.00'' Nord";"72278";"LA PETITE BROSSE";;"72350";"SAINT-DENIS-D'ORQUES";"Pylône autostable"; 36.0;"Société Privée SA"
928792;0.32278;48.43333;"00° 19' 22.00'' Est, 48° 25' 60.00'' Nord";"72015";"LA PERDRILLÈRE";"LE CHENE ROND";"72600";"LES AULNEAUX";"Pylône autostable"; 40.0;"TDF"
937114;0.16722;47.82667;"00° 10' 02.00'' Est, 47° 49' 36.00'' Nord";"72385";"LE TAILLIS DE GAUDALON";;"72330";"YVRE-LE-POLIN";"Pylône autostable"; 32.0;"FPS TOWERS"
940354;0.18306;47.99361;"00° 10' 59.00'' Est, 47° 59' 37.00'' Nord";"72181";;"R DES SABLES D'OR";"72000";"LE MANS";"Immeuble"; 29.0;"Copropriété, Syndic, SCI"
964908;0.69278;48.14833;"00° 41' 34.00'' Est, 48° 08' 54.00'' Nord";"72093";"LA PETITE BISSONNIÈRE";"VOIE COMMUNALE 202";"72400";"CORMES";"Pylône autostable"; 30.0;"ORANGE"
968128;0.29417;48.04750;"00° 17' 39.00'' Est, 48° 02' 51.00'' Nord";"72386";;"ECHANGEUR  LE MANS EST A11 A28";"72530";"YVRE-L'EVEQUE";"Pylône autostable"; 17.0;"Sociétés d'Autoroutes"
968146;0.30000;47.84500;"00° 18' 00.00'' Est, 47° 50' 42.00'' Nord";"72124";;"LA TIERCERIE PYLONE GENDARMERIE";"72220";"ECOMMOY";"Pylône autostable"; 51.0;"Gendarmerie"
968159;0.18278;48.05278;"00° 10' 58.00'' Est, 48° 03' 10.00'' Nord";"72320";;"LES ROCHES ECHANGEUR LE MANS NORD";"72650";"SAINT-SATURNIN";"Pylône autostable"; 12.0;"Sociétés d'Autoroutes"
971890;0.19556;48.00444;"00° 11' 44.00'' Est, 48° 00' 16.00'' Nord";"72181";;"2 RUE GAMBETTA";"72000";"LE MANS";"Immeuble"; 22.0;"Société HLM"
976995;0.23528;47.97583;"00° 14' 07.00'' Est, 47° 58' 33.00'' Nord";"72181";;"14, RUE DE GRENOBLE RÉSIDENCE LES MAHONIAS";"72000";"LE MANS";"Immeuble"; 24.7;"Copropriété, Syndic, SCI"
979863;-0.37389;47.83167;"00° 22' 26.00'' Ouest, 47° 49' 54.00'' Nord";"72264";"LA CLOSERAIE DU BOIS";;"72300";"SABLE-SUR-SARTHE";"Château d'eau - réservoir"; 27.0;"Syndicat des eaux, Adduction"
989027;0.14917;48.01333;"00° 08' 57.00'' Est, 48° 00' 48.00'' Nord";"72257";;"188 RUE DE BEAUGE";"72700";"ROUILLON";"Bâtiment"; 18.0;"Société Privée SA"
993339;0.19278;47.99444;"00° 11' 34.00'' Est, 47° 59' 40.00'' Nord";"72181";;"83 BOULEVARD OYON";"72100";"LE MANS";"Bâtiment"; 30.0;"Société Privée SA"
994172;0.20806;47.94972;"00° 12' 29.00'' Est, 47° 56' 59.00'' Nord";"72181";;"CIRCUIT DES 24 HEURES DU MANS MODULE SPORTIF";"72000";"LE MANS";"Bâtiment"; 21.0;"Société Privée SA"
1003031;0.20028;48.00556;"00° 12' 01.00'' Est, 48° 00' 20.00'' Nord";"72181";;"19 B , R DE L'ETOILE";"72000";"LE MANS";"Bâtiment"; 25.0;"Société Privée SA"
1025785;0.24917;47.88139;"00° 14' 57.00'' Est, 47° 52' 53.00'' Nord";"72155";"LA CROIX TROIS BRAS";;"72220";"LAIGNE-EN-BELIN";"Château d'eau - réservoir"; 25.9;"Syndicat des eaux, Adduction"
1031491;0.26611;47.97361;"00° 15' 58.00'' Est, 47° 58' 25.00'' Nord";"72058";;"RUE DES CHÊNES";"72560";"CHANGE";"Pylône tubulaire"; 36.0;"SFR"
1032326;0.12333;48.01222;"00° 07' 24.00'' Est, 48° 00' 44.00'' Nord";"72257";"LYCÉE AGRICOLE LA GERMINIERE";;"72700";"ROUILLON";"Bâtiment"; 31.0;"Commune, communauté de commune"
1034895;-0.00750;48.12611;"00° 00' 27.00'' Ouest, 48° 07' 34.00'' Nord";"72089";;"LA GARE";"72089";"CONLIE";"Pylône autostable"; 20.0;"SNCF Réseau"
1034897;-0.06139;48.16056;"00° 03' 41.00'' Ouest, 48° 09' 38.00'' Nord";"72109";"LE CHAMP DE VOIE";;"72140";"CRISSE";"Pylône autostable"; 20.0;"SNCF Réseau"
1034899;-0.21528;48.15583;"00° 12' 55.00'' Ouest, 48° 09' 21.00'' Nord";"72255";"LA HAIE BERT";;"72140";"ROUESSE-VASSE";"Pylône autostable"; 20.0;"SNCF Réseau"
1044923;0.16000;48.05722;"00° 09' 36.00'' Est, 48° 03' 26.00'' Nord";"72320";"LES GUINAUDIÈRES";;"72650";"SAINT-SATURNIN";"Pylône autostable"; 20.0;"SNCF Réseau"
1049377;0.09972;48.09500;"00° 05' 59.00'' Est, 48° 05' 42.00'' Nord";"72066";"LA COUDRE";;"72240";"LA CHAPELLE-SAINT-FRAY";"Pylône autostable"; 30.0;"SNCF Réseau"
1049476;0.19667;48.02833;"00° 11' 48.00'' Est, 48° 01' 42.00'' Nord";"72095";;"11 RUE DU CHAMP FLEURI";"72190";"COULAINES";"Pylône tubulaire"; 25.0;"IFW-FREE"
1056279;0.12500;47.96444;"00° 07' 30.00'' Est, 47° 57' 52.00'' Nord";"72003";"LE CHAMP BERNARD";;"72700";"ALLONNES";"Pylône autostable"; 26.0;"SFR"
1101696;-0.02194;48.26611;"00° 01' 19.00'' Ouest, 48° 15' 58.00'' Nord";"72266";"LE CLOS SEC";"D 120";"72130";"SAINT-AUBIN-DE-LOCQUENAY";"Pylône autostable"; 40.0;"Titulaire programme Radio/TV"
1133560;0.62333;48.19361;"00° 37' 24.00'' Est, 48° 11' 37.00'' Nord";"72132";"LES GRANDES BRUYÈRES";"VC N° 11 ENCEINTE DU CHÂTEAU D'EAU";"72400";"LA FERTE-BERNARD";"Pylône autostable"; 37.0;"ORANGE"
1174014;-0.15361;48.17639;"00° 09' 13.00'' Ouest, 48° 10' 35.00'' Nord";"72145";"LA HOUSSARDIÈRE";"LE CHEMIN DU PRESSOIR";"72140";"LE GREZ";"Pylône autostable"; 20.0;"SNCF Réseau"
1193382;0.19861;48.00389;"00° 11' 55.00'' Est, 48° 00' 14.00'' Nord";"72181";;"RUE COURTHARDY TOUR EMERAUDE";"72000";"LE MANS";"Immeuble"; 65.0;"Société Privée SA"
1194012;0.21583;47.94444;"00° 12' 57.00'' Est, 47° 56' 40.00'' Nord";"72181";;"RUE DES COURSES ESPACE FORMATION TECHNOPARC DES 24 HEURES";"72000";"LE MANS";"Pylône tubulaire"; 49.0;"Société Privée SA"
1274032;0.12222;47.96417;"00° 07' 20.00'' Est, 47° 57' 51.00'' Nord";"72003";"LES ALOURDES";"ROUTE DE ST GEORGES DU BOIS";"72700";"ALLONNES";"Pylône autostable"; 20.0;"SNCF Réseau"
1274038;-0.20139;47.87250;"00° 12' 05.00'' Ouest, 47° 52' 21.00'' Nord";"72021";;"LA GARE";"72430";"AVOISE";"Pylône autostable"; 25.0;"SNCF Réseau"
1274044;-0.28194;47.87167;"00° 16' 55.00'' Ouest, 47° 52' 18.00'' Nord";"72151";"LA JAMBELLIÈRE";"LA GARE";"72300";"JUIGNE-SUR-SARTHE";"Pylône autostable"; 20.0;"SNCF Réseau"
1274046;0.17000;48.03833;"00° 10' 12.00'' Est, 48° 02' 18.00'' Nord";"72065";;"RUE LOUIS DELAGE";"72650";"LA CHAPELLE-SAINT-AUBIN";"Pylône autostable"; 20.0;"SNCF Réseau"
1274048;0.63944;48.18806;"00° 38' 22.00'' Est, 48° 11' 17.00'' Nord";"72132";;"2 RUE VOLTAIRE";"72400";"LA FERTE-BERNARD";"Pylône autostable"; 20.0;"SNCF Réseau"
1274050;0.18250;47.99861;"00° 10' 57.00'' Est, 47° 59' 55.00'' Nord";"72181";;"AVENUE OLIVIER HEUZE";"72000";"LE MANS";"Pylône autostable"; 25.0;"SNCF Réseau"
1274054;-0.06472;47.87028;"00° 03' 53.00'' Ouest, 47° 52' 13.00'' Nord";"72223";"LE BARDEAU";;"72340";"NOYEN-SUR-SARTHE";"Pylône autostable"; 30.0;"SNCF Réseau"
1274056;-0.37306;47.77917;"00° 22' 23.00'' Ouest, 47° 46' 45.00'' Nord";"72244";;"LA GARE";"72300";"PRECIGNE";"Pylône autostable"; 25.0;"SNCF Réseau"
1274058;0.06028;47.91000;"00° 03' 37.00'' Est, 47° 54' 36.00'' Nord";"72253";;"LA FORÊT";"72210";"ROEZE-SUR-SARTHE";"Pylône autostable"; 25.0;"SNCF Réseau"
1274060;0.56028;48.10833;"00° 33' 37.00'' Est, 48° 06' 30.00'' Nord";"72288";;"LE PATURAS CHAMP BAS";"72160";"SAINT-HILAIRE-LE-LIERRU";"Pylône autostable"; 25.0;"SNCF Réseau"
1276649;0.22194;48.00472;"00° 13' 19.00'' Est, 48° 00' 17.00'' Nord";"72181";;"181, RUE DE L'ÉVENTAIL";"72100";"LE MANS";"Château d'eau - réservoir"; 44.0;"Syndicat des eaux, Adduction"
1277512;0.17389;47.99139;"00° 10' 26.00'' Est, 47° 59' 29.00'' Nord";"72181";;"10 R DE LA BELLE GABRIELLE";"72000";"LE MANS";"Immeuble"; 24.8;"Copropriété, Syndic, SCI"
1278130;0.21667;47.99694;"00° 13' 00.00'' Est, 47° 59' 49.00'' Nord";"72181";;"158, AVENUE BOLLÉE RÉSIDENCE MONTHEARD";"72000";"LE MANS";"Immeuble"; 29.0;"Copropriété, Syndic, SCI"
1278326;0.19583;48.00083;"00° 11' 45.00'' Est, 48° 00' 03.00'' Nord";"72181";;"21 R AUVRAY";"72000";"LE MANS";"Immeuble"; 26.8;"Copropriété, Syndic, SCI"
1278417;0.37722;48.03222;"00° 22' 38.00'' Est, 48° 01' 56.00'' Nord";"72300";;"LA HARARIE";"72470";"SAINT-MARS-LA-BRIERE";"Pylône tubulaire"; 20.0;"SNCF Réseau"
1278419;0.60500;48.15278;"00° 36' 18.00'' Est, 48° 09' 10.00'' Nord";"72302";;"PASSAGE À NIVEAU PN75";"72400";"SAINT-MARTIN-DES-MONTS";"Pylône autostable"; 25.0;"SNCF Réseau"
1278431;0.28000;48.00778;"00° 16' 48.00'' Est, 48° 00' 28.00'' Nord";"72386";"LA GARE";;"72530";"YVRE-L'EVEQUE";"Pylône autostable"; 20.0;"SNCF Réseau"
1284339;-0.25194;47.83389;"00° 15' 07.00'' Ouest, 47° 50' 02.00'' Nord";"72378";"BOIS VERT";"CH D'EXPLOITATION N°4 DIT DU BOIS VERT";"72300";"VION";"Pylône autostable"; 33.0;"ORANGE"
1284828;0.18306;47.92222;"00° 10' 59.00'' Est, 47° 55' 20.00'' Nord";"72008";;"223 AVENUE NATIONALE POSTE DE TRANSFORMATION D'ARNAGE";"72230";"ARNAGE";"Bâtiment"; 30.0;"EDF ou GDF"
1289850;0.13806;48.42028;"00° 08' 17.00'' Est, 48° 25' 13.00'' Nord";"72082";"HOUSSEMAINE";"RTE LE BUISSON-C 3";"72610";"LE CHEVAIN";"Bâtiment"; 5.0;"EDF ou GDF"
1289852;-0.08778;47.69778;"00° 05' 16.00'' Ouest, 47° 41' 52.00'' Nord";"72154";;"27 AV DE VERDUN INTERSECTION AVEC AV DU GÉNÉRAL DE GAULLE)";"72200";"LA FLECHE";"Bâtiment"; 4.0;"EDF ou GDF"
1289856;0.32778;47.82694;"00° 19' 40.00'' Est, 47° 49' 37.00'' Nord";"72187";"LA MAISON BLANCHE";"LA GRANDINIERE";"72220";"MARIGNE-LAILLE";"Pylône autostable"; 38.0;"EDF ou GDF"
1301310;0.18806;47.93583;"00° 11' 17.00'' Est, 47° 56' 09.00'' Nord";"72008";"LA CROIX DE PARIS";;"72230";"ARNAGE";"Pylône autostable"; 25.0;"SNCF Réseau"
1301423;0.29806;47.84389;"00° 17' 53.00'' Est, 47° 50' 38.00'' Nord";"72124";"ARMENAUDIÈRE";"PYLÔNE ALCATEL";"72220";"ECOMMOY";"Pylône haubané"; 60.0;"Société Privée SA"
1319116;0.47139;48.05167;"00° 28' 17.00'' Est, 48° 03' 06.00'' Nord";"72090";;"ROUTE DES LANDES";"72160";"CONNERRE";"Pylône autostable"; 25.0;"SNCF Réseau"
1319118;-0.34806;47.84056;"00° 20' 53.00'' Ouest, 47° 50' 26.00'' Nord";"72264";;"LA GARE RUE DE LA PETITE VITESSE";"72300";"SABLE-SUR-SARTHE";"Pylône autostable"; 30.0;"SNCF Réseau"
1319130;0.48889;48.07472;"00° 29' 20.00'' Est, 48° 04' 29.00'' Nord";"72031";"LA GARE";;"72160";"BEILLE";"Pylône autostable"; 20.0;"SNCF Réseau"
1332633;0.35667;48.34611;"00° 21' 24.00'' Est, 48° 20' 46.00'' Nord";"72295";"LES FOURCHES";"ROND-POINT D238-D300";"72600";"SAINT-LONGIS";"Bâtiment"; 4.0;"EDF ou GDF"
1332637;-0.09167;47.70222;"00° 05' 30.00'' Ouest, 47° 42' 08.00'' Nord";"72154";"LA LALETRE";"AVENUE RHIN ET DANUBE";"72200";"LA FLECHE";"Bâtiment"; 4.0;"EDF ou GDF"
1332640;-0.35333;47.83750;"00° 21' 12.00'' Ouest, 47° 50' 15.00'' Nord";"72264";"LA FAUVELIERE";"LA FAUVELIERE";"72300";"SABLE-SUR-SARTHE";"Bâtiment"; 5.0;"EDF ou GDF"
1332642;0.16694;48.14611;"00° 10' 01.00'' Est, 48° 08' 46.00'' Nord";"72289";"ANTOIGNE";"RUE DU STADE DANTOIGNE";"72380";"SAINTE-JAMME-SUR-SARTHE";"Bâtiment"; 4.0;"EDF ou GDF"
1332647;0.13083;48.23056;"00° 07' 51.00'' Est, 48° 13' 50.00'' Nord";"72029";"SAINT-PIERRE";"21 RUE SAINT-PIERRE";"72170";"BEAUMONT-SUR-SARTHE";"Bâtiment"; 6.0;"EDF ou GDF"
1332649;0.15139;47.65139;"00° 09' 05.00'' Est, 47° 39' 05.00'' Nord";"72176";"LA VELISIARD";"RUE DES MORTES OEUVRES";"72800";"LE LUDE";"Bâtiment"; 4.0;"EDF ou GDF"
1335577;-0.26833;48.03917;"00° 16' 06.00'' Ouest, 48° 02' 21.00'' Nord";"72278";"LE ROCHER";"CR 40 DES FAUCHERIES";"72350";"SAINT-DENIS-D'ORQUES";"Pylône autostable"; 35.0;"EDF ou GDF"
1336555;0.71778;48.08167;"00° 43' 04.00'' Est, 48° 04' 54.00'' Nord";"72156";"LE CORDEAU";;"72320";"LAMNAY";"Pylône autostable"; 25.0;"SNCF Réseau"
1344879;0.17417;47.99917;"00° 10' 27.00'' Est, 47° 59' 57.00'' Nord";"72181";"LES ARDRIERS";"CHEMIN DE RONDE SAINT GEORGES";"72000";"LE MANS";"Mât"; 33.0;"EDF ou GDF"
1344881;0.18444;48.00611;"00° 11' 04.00'' Est, 48° 00' 22.00'' Nord";"72181";"SAINT PAVIN DES CHAMPS";"2 RUE AMBROISE PARE";"72000";"LE MANS";"Bâtiment"; 20.0;"EDF ou GDF"
1344888;0.14472;48.03167;"00° 08' 41.00'' Est, 48° 01' 54.00'' Nord";"72065";"LES NANCOLLIERES";"LES NANCOLLIERES";"72650";"LA CHAPELLE-SAINT-AUBIN";"Bâtiment"; 5.0;"EDF ou GDF"
1345087;0.68639;47.78111;"00° 41' 11.00'' Est, 47° 46' 52.00'' Nord";"72159";;"LES BOURNAIS";"72310";"LAVENAY";"Pylône autostable"; 14.0;"BOUYGUES"
1345824;0.58194;47.74472;"00° 34' 55.00'' Est, 47° 44' 41.00'' Nord";"72068";"LE BRAY";"LES BRAYS";"72340";"LA CHARTRE-SUR-LE-LOIR";"Bâtiment"; 5.0;"EDF ou GDF"
1345843;-0.15167;48.17444;"00° 09' 06.00'' Ouest, 48° 10' 28.00'' Nord";"72334";"ESSE";"CHEMIN DU PRESSOIR";"72140";"SILLE-LE-GUILLAUME";"Bâtiment"; 5.0;"EDF ou GDF"
1347155;0.46111;47.88139;"00° 27' 40.00'' Est, 47° 52' 53.00'' Nord";"72143";"LA GAUDINIERE";"LA GAUDINIERE";"72150";"LE GRAND-LUCE";"Bâtiment"; 6.0;"EDF ou GDF"
1347159;0.02167;48.30000;"00° 01' 18.00'' Est, 48° 17' 60.00'' Nord";"72323";"LA CROIX DE BATE";"D111";"72130";"SAINT-VICTEUR";"Bâtiment"; 4.0;"EDF ou GDF"
1347920;0.23500;48.00556;"00° 14' 06.00'' Est, 48° 00' 20.00'' Nord";"72181";"LES PERRIERES";"RUE DE DOUCE AMIE";"72000";"LE MANS";"Bâtiment"; 5.0;"EDF ou GDF"
1347922;0.20056;47.98000;"00° 12' 02.00'' Est, 47° 58' 48.00'' Nord";"72181";"PONTLIEUE";"RUE DE LA FOUCAUDIERE";"72000";"LE MANS";"Bâtiment"; 6.0;"EDF ou GDF"
1347924;0.17694;48.00222;"00° 10' 37.00'' Est, 48° 00' 08.00'' Nord";"72181";"LES ARDRIERS";"RUE DES CHEMINOTS";"72000";"LE MANS";"Bâtiment"; 6.0;"EDF ou GDF"
1347926;0.18306;47.92278;"00° 10' 59.00'' Est, 47° 55' 22.00'' Nord";"72008";"LE BOSQUET";"AVENUE NATIONALE";"72230";"ARNAGE";"Bâtiment"; 4.0;"EDF ou GDF"
1347928;-0.13361;47.99139;"00° 08' 01.00'' Ouest, 47° 59' 29.00'' Nord";"72168";"LE PETIT GUIMONDEAU";"ALLEE DE LA CHAMPAGNE-ZA DES CURES";"72540";"LOUE";"Bâtiment"; 5.0;"EDF ou GDF"
1348449;0.25611;47.82528;"00° 15' 22.00'' Est, 47° 49' 31.00'' Nord";"72124";"BEZONNAIS";"CHAMP DE LA RICHARDIÈRE";"72220";"ECOMMOY";"Bâtiment"; 5.0;"EDF ou GDF"
1351195;0.63861;48.19750;"00° 38' 19.00'' Est, 48° 11' 51.00'' Nord";"72132";"LE VEAU D ARGENT";"RUE DU PERCHE";"72400";"LA FERTE-BERNARD";"Bâtiment"; 6.0;"EDF ou GDF"
1351310;0.25194;48.03806;"00° 15' 07.00'' Est, 48° 02' 17.00'' Nord";"72328";"L'ECHANTERIE";"ROUTE DE BEAUCHÊNE";"72190";"SARGE-LES-LE-MANS";"Pylône tubulaire"; 30.5;"ORANGE"
1353308;0.41306;48.18472;"00° 24' 47.00'' Est, 48° 11' 05.00'' Nord";"72039";"LE CHARME";"BELLE ETOILE";"72110";"BONNETABLE";"Bâtiment"; 4.0;"EDF ou GDF"
1353310;0.72972;47.91833;"00° 43' 47.00'' Est, 47° 55' 06.00'' Nord";"72269";"LA BORDE NAIL";"LE BROUSSIL";"72120";"SAINT-CALAIS";"Bâtiment"; 4.0;"EDF ou GDF"
1353460;0.01472;47.87389;"00° 00' 53.00'' Est, 47° 52' 26.00'' Nord";"72346";"L 'ETOILE";"LES LANDES";"72210";"LA SUZE-SUR-SARTHE";"Bâtiment"; 3.0;"EDF ou GDF"
1353465;0.49639;48.05194;"00° 29' 47.00'' Est, 48° 03' 07.00'' Nord";"72090";"L'HERBAUDIERE";"72 RUE LEDRU ROLLIN";"72160";"CONNERRE";"Bâtiment"; 4.0;"EDF ou GDF"
1353467;0.72833;48.06750;"00° 43' 42.00'' Est, 48° 04' 03.00'' Nord";"72373";"LE GRAND JARDIN";"D1 LA DOUVALIERE";"72320";"VIBRAYE";"Bâtiment"; 5.0;"EDF ou GDF"
1353474;-0.29917;47.82111;"00° 17' 57.00'' Ouest, 47° 49' 16.00'' Nord";"72378";"LA GRANDE CHAINE";"D306";"72300";"VION";"Bâtiment"; 5.0;"EDF ou GDF"
1353828;0.41000;47.70111;"00° 24' 36.00'' Est, 47° 42' 04.00'' Nord";"72173";"LE GUE";"23 LE CHAMPS DE LA TRIPERIE D338";"72500";"LUCEAU";"Bâtiment"; 9.0;"EDF ou GDF"
1353856;0.40972;47.70083;"00° 24' 35.00'' Est, 47° 42' 03.00'' Nord";"72173";"LE GUE1";"23 LE CHAMPS DE LA TRIPERIE";"72500";"LUCEAU";"Bâtiment"; 6.0;"EDF ou GDF"
1378073;0.20389;47.99194;"00° 12' 14.00'' Est, 47° 59' 31.00'' Nord";"72181";;"RUE ALFRED DE MUSSET EN EMPRISE FERROVIAIRES";"72000";"LE MANS";"Pylône autostable"; 25.0;"SNCF Réseau"
1380376;0.56333;48.04694;"00° 33' 48.00'' Est, 48° 02' 49.00'' Nord";"72118";"GRANDE PIÈCE";;"72390";"DOLLON";"Pylône autostable"; 20.3;"SNCF Réseau"
1380378;0.81444;48.08278;"00° 48' 52.00'' Est, 48° 04' 58.00'' Nord";"72193";"LES AIRS";;"72320";"MELLERAY";"Pylône autostable"; 20.3;"SNCF Réseau"
1380384;0.63222;48.06750;"00° 37' 56.00'' Est, 48° 04' 03.00'' Nord";"72158";"LE FORGEAS";;"72390";"LAVARE";"Pylône autostable"; 35.0;"SNCF Réseau"
1381513;0.73611;47.91694;"00° 44' 10.00'' Est, 47° 55' 01.00'' Nord";"72269";"TIRAN ROUGE";"RUE FERNAND POIGNANT, 72120 ST CALAIS";"72120";"SAINT-CALAIS";"Bâtiment"; 18.0;"EDF ou GDF"
1392501;0.46806;47.87389;"00° 28' 05.00'' Est, 47° 52' 26.00'' Nord";"72143";"LE CHAMP DU MILIEU";"LE CHAMP DU MILIEU";"72150";"LE GRAND-LUCE";"Pylône autostable"; 34.0;"TDF"
1397208;0.27500;47.76028;"00° 16' 30.00'' Est, 47° 45' 37.00'' Nord";"72191";;"RUE DE LA CROIX CERISAYE EGLISE";"72360";"MAYET";"Monument religieux"; 40.4;"Commune, communauté de commune"
1404131;-0.08528;48.36444;"00° 05' 07.00'' Ouest, 48° 21' 52.00'' Nord";"72294";"LE CLOS SEC";;"72130";"SAINT-LEONARD-DES-BOIS";"Pylône autostable"; 31.0;"ORANGE"
1413866;0.43222;48.03778;"00° 25' 56.00'' Est, 48° 02' 16.00'' Nord";"72090";"LA BELLE INUTILE";"N 23";"72160";"CONNERRE";"Pylône autostable"; 33.0;"ORANGE"
1417301;-0.10528;48.01083;"00° 06' 19.00'' Ouest, 48° 00' 39.00'' Nord";"72070";"LA FINAUDIERE";;"72540";"CHASSILLE";"Pylône autostable"; 39.0;"TDF"
1418393;0.17417;47.99806;"00° 10' 27.00'' Est, 47° 59' 53.00'' Nord";"72181";;"CHEMIN DE RONDE DE ST GEORGE";"72000";"LE MANS";"Pylône tubulaire"; 25.0;"SFR"
1426743;0.21056;47.95417;"00° 12' 38.00'' Est, 47° 57' 15.00'' Nord";"72181";;"CIRCUIT BUGATTI VIEUX MUSÉE";"72100";"LE MANS";"Mât"; 12.0;"ORANGE"
1431942;0.41250;48.03417;"00° 24' 45.00'' Est, 48° 02' 03.00'' Nord";"72341";;"DOUBLE SIX D 323";"72370";"SOULITRE";"Bâtiment"; 5.0;"Société Privée SA"
1434464;0.58611;48.04722;"00° 35' 10.00'' Est, 48° 02' 50.00'' Nord";"72118";;"CHEM DE LA GARE D 85";"72390";"DOLLON";"Pylône autostable"; 33.5;"TDF"
1453129;0.21444;47.93889;"00° 12' 52.00'' Est, 47° 56' 20.00'' Nord";"72181";;"CHEMINS AUX BOEUFS";"72000";"LE MANS";"Pylône autostable"; 30.9;"SFR"
1456874;0.12972;47.96222;"00° 07' 47.00'' Est, 47° 57' 44.00'' Nord";"72003";;"ZAC DES TREMELIERES";"72700";"ALLONNES";"Pylône tubulaire"; 12.0;"CELLNEX"
1458832;0.19250;48.00083;"00° 11' 33.00'' Est, 48° 00' 03.00'' Nord";"72181";;"2 RUE DE LODI";"72000";"LE MANS";"Immeuble"; 24.8;"Copropriété, Syndic, SCI"
1459308;0.23639;48.00556;"00° 14' 11.00'' Est, 48° 00' 20.00'' Nord";"72181";"LE CLOS DU LEARD";"CHEM DE LA DOUCE AMIE";"72000";"LE MANS";"Pylône tubulaire"; 30.0;"SFR"
1461091;-0.30806;47.88000;"00° 18' 29.00'' Ouest, 47° 52' 48.00'' Nord";"72016";"LES MOIRÉS";"CHEMIN DU LIEU-DIT CHAMPS FLEURY";"72300";"AUVERS-LE-HAMON";"Pylône autostable"; 30.0;"SNCF Réseau"
1463490;0.20000;47.95917;"00° 12' 00.00'' Est, 47° 57' 33.00'' Nord";"72181";;"1 AVENUE DU PARC DES EXPOSITIONS";"72000";"LE MANS";"Pylône tubulaire"; 15.9;"IFW-FREE"
1471347;-0.36750;47.92028;"00° 22' 03.00'' Ouest, 47° 55' 13.00'' Nord";"72016";"LA VAULOYÈRE";"L'AUDURGERIE";"72300";"AUVERS-LE-HAMON";"Pylône autostable"; 30.0;"SNCF Réseau"
1475932;0.73083;47.91861;"00° 43' 51.00'' Est, 47° 55' 07.00'' Nord";"72269";;"ROUTE DE LA CARDE";"72120";"SAINT-CALAIS";"Pylône autostable"; 48.1;"ORANGE"
1476703;0.67722;48.25361;"00° 40' 38.00'' Est, 48° 15' 13.00'' Nord";"72020";"LES MAISONS NEUVES";;"72400";"AVEZE";"Pylône autostable"; 20.0;"SNCF Réseau"
1485542;0.27944;47.99111;"00° 16' 46.00'' Est, 47° 59' 28.00'' Nord";"72058";;"LA SAPINIERE DE LA GODINIERE";"72560";"CHANGE";"Pylône tubulaire"; 34.2;"FPS TOWERS"
1499217;0.02694;48.03500;"00° 01' 37.00'' Est, 48° 02' 06.00'' Nord";"72096";"LE PETIT EPERNU";;"72550";"COULANS-SUR-GEE";"Pylône autostable"; 38.0;"TDF"
1508541;0.24000;47.98111;"00° 14' 24.00'' Est, 47° 58' 52.00'' Nord";"72181";"QUARTIER DE LA CALIFORNIE";"160 RUE HENRI CHAMPION";"72000";"LE MANS";"Bâtiment"; 30.9;"Société Privée SA"
1515229;0.69750;48.08000;"00° 41' 51.00'' Est, 48° 04' 48.00'' Nord";"72158";"LE GRAND HERMITAGE";"CHEMIN RURAL N°21";"72390";"LAVARE";"Mât"; 12.0;"ORANGE"
1518220;0.21722;47.95639;"00° 13' 02.00'' Est, 47° 57' 23.00'' Nord";"72181";;"CHEMIN AUX BOEUFS";"72000";"LE MANS";"Pylône tubulaire"; 30.0;"IFW-FREE"
1519732;0.32417;47.99000;"00° 19' 27.00'' Est, 47° 59' 24.00'' Nord";"72058";"LA FOUCAUDIÈRE";"A 28 PR 95.2";"72560";"CHANGE";"Mât métallique"; 15.0;"Sociétés d'Autoroutes"
1520758;0.46917;47.98972;"00° 28' 09.00'' Est, 47° 59' 23.00'' Nord";"72046";;"CHEMIN DEPARTEMENTAL N 33";"72370";"LE BREIL-SUR-MERIZE";"Pylône autostable"; 49.3;"TDF"
1522478;0.58417;47.74444;"00° 35' 03.00'' Est, 47° 44' 40.00'' Nord";"72068";"LES BRAYS";"DECHETTERIE";"72340";"LA CHARTRE-SUR-LE-LOIR";"Pylône autostable"; 35.0;"TDF"
1536640;-0.15778;47.91361;"00° 09' 28.00'' Ouest, 47° 54' 49.00'' Nord";"72059";"PIERRE FOULON";"0";"72430";"CHANTENAY-VILLEDIEU";"Pylône autostable"; 30.0;"SNCF Réseau"
1536642;-0.27694;47.90972;"00° 16' 37.00'' Ouest, 47° 54' 35.00'' Nord";"72239";"PRÉ VINCENT";"RD 4";"72350";"POILLE-SUR-VEGRE";"Pylône autostable"; 30.0;"SNCF Réseau"
1542279;0.04500;48.04083;"00° 02' 42.00'' Est, 48° 02' 27.00'' Nord";"72249";"LA BENERIE";"L'HOMMELET";"72550";"LA QUINTE";"Pylône autostable"; 30.0;"SNCF Réseau"
1542281;0.01944;47.99639;"00° 01' 10.00'' Est, 47° 59' 47.00'' Nord";"72096";"LA CROIX MENUAU";"0";"72550";"COULANS-SUR-GEE";"Pylône autostable"; 30.0;"SNCF Réseau"
1542283;-0.09222;47.94000;"00° 05' 32.00'' Ouest, 47° 56' 24.00'' Nord";"72367";"LE CORMIER LATE";"0";"72540";"VALLON-SUR-GEE";"Pylône autostable"; 30.0;"SNCF Réseau"
1552713;0.38306;48.07500;"00° 22' 59.00'' Est, 48° 04' 30.00'' Nord";"72241";"LA COUR";"0";"72450";"MONTFORT-LE-GESNOIS";"Pylône autostable"; 30.0;"SNCF Réseau"
1552715;0.34222;48.08778;"00° 20' 32.00'' Est, 48° 05' 16.00'' Nord";"72275";"LES HAISES";"0";"72460";"SAINT-CORNEILLE";"Pylône autostable"; 30.0;"SNCF Réseau"
1552717;0.13611;48.07639;"00° 08' 10.00'' Est, 48° 04' 35.00'' Nord";"72198";"LES ROCHARDIÈRES";"0";"72650";"LA MILESSE";"Pylône autostable"; 30.0;"SNCF Réseau"
1553155;0.22444;48.10028;"00° 13' 28.00'' Est, 48° 06' 01.00'' Nord";"72150";"LE BAS GADOIS";"0";"72380";"JOUE-L'ABBE";"Pylône autostable"; 30.0;"SNCF Réseau"
1553157;0.11833;48.07361;"00° 07' 06.00'' Est, 48° 04' 25.00'' Nord";"72001";"LA HOULTIÈRE";"0";"72650";"AIGNE";"Tunnel"; 7.9;"SNCF Réseau"
1553386;0.02333;48.10083;"00° 01' 24.00'' Est, 48° 06' 03.00'' Nord";"72119";"LE GRAND CHEMIN";"PRÈS DU STADE COMMUNAL";"72240";"DOMFRONT-EN-CHAMPAGNE";"Pylône autostable"; 35.0;"ORANGE"
1553417;-0.02417;48.01917;"00° 01' 27.00'' Ouest, 48° 01' 09.00'' Nord";"72045";"LA BUTTE";"ROUTE D'AMNE";"72550";"BRAINS-SUR-GEE";"Pylône autostable"; 32.0;"ORANGE"
1582225;-0.23500;47.75167;"00° 14' 06.00'' Ouest, 47° 45' 06.00'' Nord";"72061";"LES RICHARDIÈRES";;"72300";"LA CHAPELLE-D'ALIGNE";"Pylône autostable"; 47.0;"SFR"
1583327;-0.18806;48.05222;"00° 11' 17.00'' Ouest, 48° 03' 08.00'' Nord";"72074";"VILLE NEUVE";"0 CHEM RURAL N°2";"72540";"CHEMIRE-EN-CHARNIE";"Pylône autostable"; 32.0;"SFR"
1583364;-0.35083;47.91250;"00° 21' 03.00'' Ouest, 47° 54' 45.00'' Nord";"72016";"LES MARTELLIÈRES";;"72300";"AUVERS-LE-HAMON";"Pylône autostable"; 32.0;"SFR"
1600459;0.11333;48.26806;"00° 06' 48.00'' Est, 48° 16' 05.00'' Nord";"72235";;"L'ECOTAY";"72170";"PIACE";"Pylône autostable"; 30.0;"SFR"
1600482;0.10472;48.32639;"00° 06' 17.00'' Est, 48° 19' 35.00'' Nord";"72139";"LA VIEILLE COUR";;"72610";"FYE";"Pylône autostable"; 49.0;"SFR"
1600523;-0.12861;48.33694;"00° 07' 43.00'' Ouest, 48° 20' 13.00'' Nord";"72309";"LA PETITE POTENCE";"RD 105";"72130";"SAINT-PAUL-LE-GAULTIER";"Pylône autostable"; 32.0;"SFR"
1603986;-0.21000;47.97556;"00° 12' 36.00'' Ouest, 47° 58' 32.00'' Nord";"72050";"BAS CHANTEPIE";"CHEM RURAL N° 26";"72350";"BRULON";"Pylône autostable"; 32.1;"SFR"
1604035;0.02806;47.89833;"00° 01' 41.00'' Est, 47° 53' 54.00'' Nord";"72346";;"RTE DE CHEMIRÉ";"72210";"LA SUZE-SUR-SARTHE";"Bâtiment"; 15.2;"Société Privée SA"
1605338;-0.16389;48.00694;"00° 09' 50.00'' Ouest, 48° 00' 25.00'' Nord";"72168";"LA COIRE";"PRÈS AIRE DE REPOS DES GRIPPERIES P.R. 198.500";"72540";"LOUE";"Pylône autostable"; 45.0;"SFR"
1616079;-0.09167;48.34139;"00° 05' 30.00'' Ouest, 48° 20' 29.00'' Nord";"72294";"LA MOULIÈRE";;"72130";"SAINT-LEONARD-DES-BOIS";"Pylône autostable"; 40.0;"Société Privée SA"
1617396;0.18333;47.97278;"00° 11' 00.00'' Est, 47° 58' 22.00'' Nord";"72181";;"RUE DE LA FOUCAUDIÈRE";"72000";"LE MANS";"Pylône autostable"; 15.0;"SNCF Réseau"
1619528;0.21083;47.95417;"00° 12' 39.00'' Est, 47° 57' 15.00'' Nord";"72181";;"CIRCUIT DES 24 H PRES VIEUX MUSEE";"72000";"LE MANS";"Pylône tubulaire"; 12.6;"CELLNEX"
1624539;0.02139;48.12583;"00° 01' 17.00'' Est, 48° 07' 33.00'' Nord";"72089";"LE GRAND CHAMP FOURNEAU";"CHEM RURAL DES HAUTES VALLÉES";"72240";"CONLIE";"Pylône autostable"; 36.0;"Société Privée SA"
1624554;0.11889;48.22639;"00° 07' 08.00'' Est, 48° 13' 35.00'' Nord";"72029";"LE CHAMP DU CORMIER";;"72170";"BEAUMONT-SUR-SARTHE";"Château d'eau - réservoir"; 33.0;"Syndicat des eaux, Adduction"
1628574;0.15333;48.29639;"00° 09' 12.00'' Est, 48° 17' 47.00'' Nord";"72097";"LA DIGEONNERIE";;"72130";"COULOMBIERS";"Pylône autostable"; 34.0;"BOUYGUES"
1629536;0.15361;47.81611;"00° 09' 13.00'' Est, 47° 48' 58.00'' Nord";"72385";;"ROUTE DE REQUEIL DÉCHETTERIE";"72330";"YVRE-LE-POLIN";"Pylône autostable"; 37.7;"Commune, communauté de commune"
1633715;0.26972;48.47194;"00° 16' 11.00'' Est, 48° 28' 19.00'' Nord";"72258";;"PRE DE LA LOGE";"72600";"ROULLEE";"Pylône autostable"; 39.2;"SFR"
1646023;-0.07083;47.69639;"00° 04' 15.00'' Ouest, 47° 41' 47.00'' Nord";"72154";;"BD DE MONTRÉAL  TERRAIN DE SPORT";"72200";"LA FLECHE";"Pylône autostable"; 25.0;"FPS TOWERS"
1651233;0.18833;48.15222;"00° 11' 18.00'' Est, 48° 09' 08.00'' Nord";"72205";"LES  FORGES";"54B RUE PAILLARD DUCLERE";"72380";"MONTBIZOT";"Pylône autostable"; 31.3;"FPS TOWERS"
1653702;-0.27278;48.02722;"00° 16' 22.00'' Ouest, 48° 01' 38.00'' Nord";"72278";;"1 PLACE DE L EGLISE";"72350";"SAINT-DENIS-D'ORQUES";"Monument religieux"; 36.7;"Commune, communauté de commune"
1662597;0.20750;47.98944;"00° 12' 27.00'' Est, 47° 59' 22.00'' Nord";"72181";;"105 AV JEAN JAURES";"72000";"LE MANS";"Immeuble"; 32.0;"Copropriété, Syndic, SCI"
1665359;0.73750;47.83222;"00° 44' 15.00'' Est, 47° 49' 56.00'' Nord";"72035";;"ATELIERS COMMUNAUX PIÈCES DE LA BARRIÈRE";"72310";"BESSE-SUR-BRAYE";"Pylône autostable"; 32.0;"ORANGE"
1677486;0.20722;47.95556;"00° 12' 26.00'' Est, 47° 57' 20.00'' Nord";"72181";;"CIRCUIT DES 24H INTÉRIEUR ZONE COMMISSAIRES N°2";"72000";"LE MANS";"Mât métallique"; 12.0;"ORANGE"
1682298;0.15083;47.95639;"00° 09' 03.00'' Est, 47° 57' 23.00'' Nord";"72003";"BOIS DE HARDANGÈRE";"STADE CLAUDE VOISIN";"72700";"ALLONNES";"Pylône autostable"; 38.0;"CELLNEX"
1685129;-0.32917;47.90833;"00° 19' 45.00'' Ouest, 47° 54' 30.00'' Nord";"72016";"LA MAISON NEUVE";;"72300";"AUVERS-LE-HAMON";"Pylône autostable"; 30.4;"TDF"
1688511;-0.20222;47.77583;"00° 12' 08.00'' Ouest, 47° 46' 33.00'' Nord";"72022";"LA ROUSSELIÈRE";"D306 - PRÈS ÉCHANGEUR SABLÉ - LA FLÈCHE SORTIE 10 LA BLANCHE ANDRIÈRE";"72200";"LE BAILLEUL";"Pylône autostable"; 43.0;"ORANGE"
1689272;0.13167;48.22889;"00° 07' 54.00'' Est, 48° 13' 44.00'' Nord";"72029";;"28 R ST PIERRE";"72170";"BEAUMONT-SUR-SARTHE";"Pylône autostable"; 35.0;"ORANGE Services Fixes"
1690526;0.13444;48.07556;"00° 08' 04.00'' Est, 48° 04' 32.00'' Nord";"72198";"LES ROCHARDIÈRES";"ROUTE DES ROCHARDIERES";"72650";"LA MILESSE";"Pylône autostable"; 43.4;"TDF"
1697716;0.18111;47.93611;"00° 10' 52.00'' Est, 47° 56' 10.00'' Nord";"72008";"BOULODROME";"ALL BORD DU CHER";"72230";"ARNAGE";"Pylône tubulaire"; 26.0;"CELLNEX"
1697724;0.18722;47.94111;"00° 11' 14.00'' Est, 47° 56' 28.00'' Nord";"72008";;"131 BD PIERRE LEFAUCHEUX";"72230";"ARNAGE";"Pylône tubulaire"; 31.5;"Société Privée SA"
1700250;0.36417;48.03861;"00° 21' 51.00'' Est, 48° 02' 19.00'' Nord";"72300";"LE COTEAU";"LA PIÈCE DES FONTAINES";"72470";"SAINT-MARS-LA-BRIERE";"Pylône autostable"; 36.0;"Commune, communauté de commune"
1700421;0.10250;48.07306;"00° 06' 09.00'' Est, 48° 04' 23.00'' Nord";"72001";"LA GUILLERIE";;"72650";"AIGNE";"Pylône autostable"; 31.0;"TDF"
1700661;0.22167;47.99639;"00° 13' 18.00'' Est, 47° 59' 47.00'' Nord";"72181";;"4 R BOSSUET";"72000";"LE MANS";"Bâtiment"; 30.0;"Société HLM"
1701833;0.16278;47.95972;"00° 09' 46.00'' Est, 47° 57' 35.00'' Nord";"72003";;"20 AVE DU 19 MARS 1962";"72700";"ALLONNES";"Bâtiment"; 12.0;"Etablissement de soins"
1707478;0.12250;48.15500;"00° 07' 21.00'' Est, 48° 09' 18.00'' Nord";"72290";"CLARTE";"DÉPARTEMENTALE 164 STADE MUNICIPAL";"72380";"SAINT-JEAN-D'ASSE";"Pylône tubulaire"; 33.5;"FPS TOWERS"
1708744;0.21333;47.97889;"00° 12' 48.00'' Est, 47° 58' 44.00'' Nord";"72181";;"141-143 AV GEORGES DURAND";"72000";"LE MANS";"Immeuble"; 27.8;"Copropriété, Syndic, SCI"
1709411;0.25583;48.06750;"00° 15' 21.00'' Est, 48° 04' 03.00'' Nord";"72217";;"BEAUVAIS";"72190";"NEUVILLE-SUR-SARTHE";"Pylône autostable"; 45.0;"TDF"
1728402;0.32778;47.87750;"00° 19' 40.00'' Est, 47° 52' 39.00'' Nord";"72299";"ROCHEFORT";;"72220";"SAINT-MARS-D'OUTILLE";"Pylône autostable"; 28.0;"FPS TOWERS"
1729210;-0.07639;47.81694;"00° 04' 35.00'' Ouest, 47° 49' 01.00'' Nord";"72179";"LA VRILLIÈRE";;"72270";"MALICORNE-SUR-SARTHE";"Pylône autostable"; 32.1;"SFR"
1735616;0.16083;48.31278;"00° 09' 39.00'' Est, 48° 18' 46.00'' Nord";"72254";"STE-CATHERINE";"D.55";"72610";"ROUESSE-FONTAINE";"Pylône autostable"; 32.0;"ORANGE"
1736985;0.19972;47.99694;"00° 11' 59.00'' Est, 47° 59' 49.00'' Nord";"72181";;"ALL JEAN DOLIGE RES BARY";"72000";"LE MANS";"Immeuble"; 36.6;"Copropriété, Syndic, SCI"
1738078;0.33750;48.00778;"00° 20' 15.00'' Est, 48° 00' 28.00'' Nord";"72054";"ST HUBERT LES ROCHES";"PRÈS N 157";"72470";"CHAMPAGNE";"Pylône autostable"; 36.0;"ORANGE"
1748365;0.22000;47.97333;"00° 13' 12.00'' Est, 47° 58' 24.00'' Nord";"72181";;"257 AVENUE GEORGES DURAND";"72000";"LE MANS";"Bâtiment"; 29.0;"Société Privée SA"
1748939;0.65167;47.94056;"00° 39' 06.00'' Est, 47° 56' 26.00'' Nord";"72125";"LA POTERIE";"CHÂTEAU D'EAU";"72120";"ECORPAIN";"Château d'eau - réservoir"; 46.1;"Syndicat des eaux, Adduction"
1748977;0.76000;47.92472;"00° 45' 36.00'' Est, 47° 55' 29.00'' Nord";"72269";"LA POCHERIE";"RN 157 ZI DE LA POCHERIE";"72120";"SAINT-CALAIS";"Pylône autostable"; 49.0;"SFR"
1748984;0.62611;48.19194;"00° 37' 34.00'' Est, 48° 11' 31.00'' Nord";"72132";"LA PETITE BRUYÈRE";"ZONE INDUST.";"72400";"LA FERTE-BERNARD";"Pylône autostable"; 30.4;"SFR"
1764040;0.14611;47.63083;"00° 08' 46.00'' Est, 47° 37' 51.00'' Nord";"72176";"LA LANDE DES NOELS";;"72800";"LE LUDE";"Pylône autostable"; 38.0;"ORANGE"
1774546;0.25444;47.93722;"00° 15' 16.00'' Est, 47° 56' 14.00'' Nord";"72260";;"8 RUE CLAUDE CHAPPE";"72230";"RUAUDIN";"Pylône autostable"; 41.9;"IFW-FREE"
1776746;0.15083;48.10944;"00° 09' 03.00'' Est, 48° 06' 34.00'' Nord";"72024";;"LA LUARDIÈRE";"72650";"LA BAZOGE";"Pylône autostable"; 36.9;"IFW-FREE"
1780717;0.38222;48.35750;"00° 22' 56.00'' Est, 48° 21' 27.00'' Nord";"72180";"BELLE VAISSELLE";"7 RUE PETITE BOURCE";"72600";"MAMERS";"Pylône autostable"; 30.0;"SFR"
1790086;0.21556;48.03500;"00° 12' 56.00'' Est, 48° 02' 06.00'' Nord";"72095";;"RTE DES STADES CHE DES GRANDS PLESSIS";"72190";"COULAINES";"Pylône tubulaire"; 35.0;"IFW-FREE"
1793511;0.34972;47.70917;"00° 20' 59.00'' Est, 47° 42' 33.00'' Nord";"72160";"LA GLACE";;"72500";"LAVERNAT";"Pylône autostable"; 41.0;"SFR"
1796828;0.60667;47.95667;"00° 36' 24.00'' Est, 47° 57' 24.00'' Nord";"72042";"LA GUIMANDIÈRE";;"72440";"BOULOIRE";"Pylône autostable"; 38.0;"ORANGE Services Fixes"
1809510;0.02250;47.76889;"00° 01' 21.00'' Est, 47° 46' 08.00'' Nord";"72291";"LES GUIMINIÈRES";"VC N°2 DES AVENAGES";"72510";"SAINT-JEAN-DE-LA-MOTTE";"Pylône autostable"; 37.4;"ORANGE"
1815677;0.41194;47.69917;"00° 24' 43.00'' Est, 47° 41' 57.00'' Nord";"72071";;"13 AV DU MANS CENTRAL TÉLÉPHONIQUE";"72500";"CHATEAU-DU-LOIR";"Pylône autostable"; 38.0;"ORANGE Services Fixes"
1825010;0.37167;48.02861;"00° 22' 18.00'' Est, 48° 01' 43.00'' Nord";"72300";;"PL DE L'ÉGLISE";"72470";"SAINT-MARS-LA-BRIERE";"Monument religieux"; 36.5;"Commune, communauté de commune"
1828130;0.69750;48.08028;"00° 41' 51.00'' Est, 48° 04' 49.00'' Nord";"72158";"LE GRAND HERMITAGE";"CHEMIN RURAL N°21";"72390";"LAVARE";"Pylône autostable"; 30.0;"ORANGE"
1828694;0.06222;48.05972;"00° 03' 44.00'' Est, 48° 03' 35.00'' Nord";"72113";"LES VENELLES";;"72550";"DEGRE";"Pylône autostable"; 30.4;"TDF"
1828739;-0.00778;47.98167;"00° 00' 28.00'' Ouest, 47° 58' 54.00'' Nord";"72339";"MONCEAUX";;"72210";"SOULIGNE-FLACE";"Pylône autostable"; 30.4;"TDF"
1828751;-0.04111;47.96667;"00° 02' 28.00'' Ouest, 47° 58' 00.00'' Nord";"72107";"LA BIGOTIÈRE";"D 22 LGV-BPL";"72540";"CRANNES-EN-CHAMPAGNE";"Pylône autostable"; 32.0;"TDF"
1829765;0.04583;48.04417;"00° 02' 45.00'' Est, 48° 02' 39.00'' Nord";"72249";"TEILLEAU";;"72550";"LA QUINTE";"Pylône autostable"; 30.4;"TDF"
1830292;-0.28972;47.91444;"00° 17' 23.00'' Ouest, 47° 54' 52.00'' Nord";"72239";"LE PATIS BRÛLÉ";;"72350";"POILLE-SUR-VEGRE";"Pylône autostable"; 40.4;"TDF"
1830363;-0.22972;47.90972;"00° 13' 47.00'' Ouest, 47° 54' 35.00'' Nord";"72136";"LA MERCERIE";;"72350";"FONTENAY-SUR-VEGRE";"Pylône autostable"; 30.4;"TDF"
1830368;-0.30944;47.89028;"00° 18' 34.00'' Ouest, 47° 53' 25.00'' Nord";"72016";"VAILLE";;"72300";"AUVERS-LE-HAMON";"Pylône autostable"; 41.0;"TDF"
1830372;0.27361;48.09917;"00° 16' 25.00'' Est, 48° 05' 57.00'' Nord";"72329";"GUEDRAY";;"72460";"SAVIGNE-L'EVEQUE";"Pylône autostable"; 30.5;"TDF"
1830376;0.31917;48.09556;"00° 19' 09.00'' Est, 48° 05' 44.00'' Nord";"72329";"LES ARCHES";"D 301";"72460";"SAVIGNE-L'EVEQUE";"Pylône autostable"; 30.5;"TDF"
1830380;-0.19167;47.91361;"00° 11' 30.00'' Ouest, 47° 54' 49.00'' Nord";"72059";"L'ETINIÈRE";;"72430";"CHANTENAY-VILLEDIEU";"Pylône autostable"; 30.4;"TDF"
1862540;0.17000;48.08500;"00° 10' 12.00'' Est, 48° 05' 06.00'' Nord";"72024";"LE  CHÊNE ROND";"CHAMP DU DOUET";"72650";"LA BAZOGE";"Pylône autostable"; 35.0;"TDF"
1862595;0.42722;48.06389;"00° 25' 38.00'' Est, 48° 03' 50.00'' Nord";"72165";"LES BESLIÈRES";"CHEMIN DES JOUAZIÈRES";"72450";"LOMBRON";"Pylône autostable"; 30.5;"TDF"
1867485;0.77222;48.08111;"00° 46' 20.00'' Est, 48° 04' 52.00'' Nord";"72193";"LE VIVIER";"D 302";"72320";"MELLERAY";"Mât"; 12.0;"ORANGE Services Fixes"
1869631;0.48361;48.16667;"00° 29' 01.00'' Est, 48° 09' 60.00'' Nord";"72277";"LES MAISONS NEUVES";"3 PRÉ DES FOURREAUX";"72110";"SAINT-DENIS-DES-COUDRAIS";"Pylône autostable"; 30.0;"SFR"
1869773;0.57750;47.96833;"00° 34' 39.00'' Est, 47° 58' 06.00'' Nord";"72042";"LA POUVARDIÈRE";"PRÈS DE LA DÉPARTEMENTALE 357";"72440";"BOULOIRE";"Pylône autostable"; 50.0;"SFR"
1872157;-0.13111;48.07417;"00° 07' 52.00'' Ouest, 48° 04' 27.00'' Nord";"72321";;"LE HAUT FREU";"72240";"SAINT-SYMPHORIEN";"Mât métallique"; 24.0;"DDE"
1872491;-0.22583;47.84083;"00° 13' 33.00'' Ouest, 47° 50' 27.00'' Nord";"72228";"LA PILLIÈRE";"ROUTE DE SABLÉ D 309 CHATEAU D'EAU";"72300";"PARCE-SUR-SARTHE";"Château d'eau - réservoir"; 45.0;"Syndicat des eaux, Adduction"
1874482;0.53722;48.09972;"00° 32' 14.00'' Est, 48° 05' 59.00'' Nord";"72363";"LA GUISARDIÈRE";"PK 143 - ACCÈS DE SERVICE N°519 - SENS PROVINCE";"72160";"TUFFE";"Pylône autostable"; 48.0;"SFR"
1875058;0.52472;47.71333;"00° 31' 29.00'' Est, 47° 42' 48.00'' Nord";"72183";"RUE DE SEZIN";"CHEMIN DE SEZIN";"72340";"MARCON";"Pylône autostable"; 36.9;"IFW-FREE"
1875813;0.39778;48.07278;"00° 23' 52.00'' Est, 48° 04' 22.00'' Nord";"72165";"LE VIEIL HETRE";;"72450";"LOMBRON";"Pylône autostable"; 42.5;"TDF"
1875861;0.45778;48.02556;"00° 27' 28.00'' Est, 48° 01' 32.00'' Nord";"72341";"MONTIFAUT";"CHEMIN RURAL 18";"72370";"SOULITRE";"Château d'eau - réservoir"; 52.4;"Syndicat des eaux, Adduction"
1876599;-0.11944;48.24139;"00° 07' 10.00'' Ouest, 48° 14' 29.00'' Nord";"72211";;"LA BUTTE VOYERE CHATEAU D'EAU";"72140";"MONT-SAINT-JEAN";"Château d'eau - réservoir"; 21.0;"Commune, communauté de commune"
1876601;0.20472;48.36083;"00° 12' 17.00'' Est, 48° 21' 39.00'' Nord";"72164";"LES SAINFOINS";"CHATEAU D EAU DE POISVIGNY";"72610";"LIVET-EN-SAOSNOIS";"Château d'eau - réservoir"; 26.0;"Commune, communauté de commune"
1876605;0.52667;48.17111;"00° 31' 36.00'' Est, 48° 10' 16.00'' Nord";"72040";;"PLACE DE L'EGLISE CHATEAU D EAU";"72400";"LA BOSSE";"Château d'eau - réservoir"; 48.0;"Commune, communauté de commune"
1876987;0.58333;48.03250;"00° 35' 00.00'' Est, 48° 01' 57.00'' Nord";"72118";"LE FREU";"CHATEAU D'EAU SUR LA D 85";"72390";"DOLLON";"Château d'eau - réservoir"; 39.6;"Commune, communauté de commune"
1876992;0.73389;47.91222;"00° 44' 02.00'' Est, 47° 54' 44.00'' Nord";"72269";"LE LUSSEAU";"R DE LA SOURCE";"72120";"SAINT-CALAIS";"Château d'eau - réservoir"; 53.0;"Commune, communauté de commune"
1877538;0.21694;48.09861;"00° 13' 01.00'' Est, 48° 05' 55.00'' Nord";"72150";"LES BAS GADOIS";;"72380";"JOUE-L'ABBE";"Pylône autostable"; 30.0;"TDF"
1878542;-0.37056;47.92000;"00° 22' 14.00'' Ouest, 47° 55' 12.00'' Nord";"72016";"L'AUDUGERIE";;"72300";"AUVERS-LE-HAMON";"Pylône autostable"; 32.8;"TDF"
1879372;-0.07583;47.94500;"00° 04' 33.00'' Ouest, 47° 56' 42.00'' Nord";"72367";"LA PIEMORDIERE";"D69";"72540";"VALLON-SUR-GEE";"Pylône autostable"; 32.5;"TDF"
1886432;0.35556;48.08306;"00° 21' 20.00'' Est, 48° 04' 59.00'' Nord";"72275";"LA CORMERIE";;"72460";"SAINT-CORNEILLE";"Pylône autostable"; 32.7;"TDF"
1886451;0.46028;47.87028;"00° 27' 37.00'' Est, 47° 52' 13.00'' Nord";"72143";"LA PRAIRIE";"LES SAINTONNIÈRES";"72150";"LE GRAND-LUCE";"Pylône autostable"; 47.8;"SFR"
1891266;0.03750;48.02083;"00° 02' 15.00'' Est, 48° 01' 15.00'' Nord";"72096";"LA BROCHARDIÈRE";;"72550";"COULANS-SUR-GEE";"Pylône autostable"; 30.4;"TDF"
1894901;-0.18778;48.05222;"00° 11' 16.00'' Ouest, 48° 03' 08.00'' Nord";"72074";"VILLE NEUVE";"CHEMIN RURAL N°2";"72540";"CHEMIRE-EN-CHARNIE";"Pylône autostable"; 36.9;"IFW-FREE"
1899083;0.44389;48.05833;"00° 26' 38.00'' Est, 48° 03' 30.00'' Nord";"72165";;"CHEMIN DE BARROIS ROUTE DE CONNERRÉ - D119";"72450";"LOMBRON";"Pylône autostable"; 42.5;"TDF"
1899662;-0.15889;47.91417;"00° 09' 32.00'' Ouest, 47° 54' 51.00'' Nord";"72059";"PIERRE FOULON";"LES FRÊNES";"72430";"CHANTENAY-VILLEDIEU";"Pylône autostable"; 32.5;"TDF"
1899669;-0.11556;47.92583;"00° 06' 56.00'' Ouest, 47° 55' 33.00'' Nord";"72059";"LES VIGNES GATES";;"72430";"CHANTENAY-VILLEDIEU";"Pylône autostable"; 40.0;"TDF"
1906422;0.18111;47.96694;"00° 10' 52.00'' Est, 47° 58' 01.00'' Nord";"72181";;"10 RUE J M JACQUARD - BUREAU";"72000";"LE MANS";"Bâtiment"; 32.0;"DDE"
1906424;0.18222;47.96694;"00° 10' 56.00'' Est, 47° 58' 01.00'' Nord";"72181";;"10 RUE J M JACQUARD - ATELIER";"72000";"LE MANS";"Bâtiment"; 15.0;"DDE"
1906426;0.18417;47.96694;"00° 11' 03.00'' Est, 47° 58' 01.00'' Nord";"72181";;"43 AVENUE PIERRE PIFFAULT";"72000";"LE MANS";"Bâtiment"; 15.0;"DDE"
1906428;0.21667;47.99722;"00° 13' 00.00'' Est, 47° 59' 50.00'' Nord";"72181";;"160 AVENUE BOLLEE";"72000";"LE MANS";"Immeuble"; 22.0;"DDE"
1912599;0.11250;48.26861;"00° 06' 45.00'' Est, 48° 16' 07.00'' Nord";"72235";"L'ECOTAY";;"72170";"PIACE";"Pylône autostable"; 31.8;"IFW-FREE"
1916202;0.16361;48.05333;"00° 09' 49.00'' Est, 48° 03' 12.00'' Nord";"72320";;"ZAC  DES GRS ROUGES";"72650";"SAINT-SATURNIN";"Pylône tubulaire"; 32.5;"Société Privée SA"
1916601;-0.12833;48.33833;"00° 07' 42.00'' Ouest, 48° 20' 18.00'' Nord";"72309";"LA PETITE POTENCE";"SAINT TOUTAIN RD 105";"72130";"SAINT-PAUL-LE-GAULTIER";"Pylône autostable"; 31.8;"IFW-FREE"
1935239;0.01528;47.99278;"00° 00' 55.00'' Est, 47° 59' 34.00'' Nord";"72096";"LES NOUIS";"PRÉS D88";"72550";"COULANS-SUR-GEE";"Pylône autostable"; 43.0;"TDF"
1936382;-0.07500;47.89944;"00° 04' 30.00'' Ouest, 47° 53' 58.00'' Nord";"72237";"LA POITEVINIÈRE";;"72430";"PIRMIL";"Pylône autostable"; 48.0;"SFR"
1938058;-0.14556;47.74333;"00° 08' 44.00'' Ouest, 47° 44' 36.00'' Nord";"72110";;"LA RATIERE";"72200";"CROSMIERES";"Pylône autostable"; 36.9;"IFW-FREE"
1941689;-0.37111;47.76528;"00° 22' 16.00'' Ouest, 47° 45' 55.00'' Nord";"72244";"LE PATIS";;"72300";"PRECIGNE";"Pylône autostable"; 30.0;"ORANGE"
1941691;0.10083;47.95083;"00° 06' 03.00'' Est, 47° 57' 03.00'' Nord";"72127";"L'OUEST";;"72700";"ETIVAL-LES-LE-MANS";"Pylône autostable"; 30.0;"ORANGE"
1944879;-0.30111;47.83306;"00° 18' 04.00'' Ouest, 47° 49' 59.00'' Nord";"72336";;"4 RUE DE LA DENISIÈRE";"72300";"SOLESMES";"Pylône autostable"; 35.4;"ORANGE"
1946949;-0.09611;47.89389;"00° 05' 46.00'' Ouest, 47° 53' 38.00'' Nord";"72223";"LA PILLIERE";"VC N° 134 ET 135";"72430";"NOYEN-SUR-SARTHE";"Pylône autostable"; 36.9;"IFW-FREE"
1949078;0.48361;48.16639;"00° 29' 01.00'' Est, 48° 09' 59.00'' Nord";"72277";"LES MAISONS NEUVES";"3 PRE DES FOURREAUX";"72110";"SAINT-DENIS-DES-COUDRAIS";"Pylône autostable"; 31.9;"IFW-FREE"
1952605;0.13694;47.73972;"00° 08' 13.00'' Est, 47° 44' 23.00'' Nord";"72182";"LA LOUTIERE";;"72510";"MANSIGNE";"Pylône autostable"; 36.9;"IFW-FREE"
1954195;0.13389;47.91306;"00° 08' 02.00'' Est, 47° 54' 47.00'' Nord";"72133";;"LA PIECE DE SPAY";"72210";"FILLE";"Pylône autostable"; 36.9;"IFW-FREE"
1954334;0.20500;48.36083;"00° 12' 18.00'' Est, 48° 21' 39.00'' Nord";"72164";"LES SAINFOINS";;"72610";"LIVET-EN-SAOSNOIS";"Pylône autostable"; 37.0;"Conseil Départemental"
1954336;-0.13722;47.93611;"00° 08' 14.00'' Ouest, 47° 56' 10.00'' Nord";"72312";"LES MARTINIERES";"LA PETITE MARTINIERE";"72430";"SAINT-PIERRE-DES-BOIS";"Pylône autostable"; 37.0;"Conseil Départemental"
1955938;0.20556;47.97222;"00° 12' 20.00'' Est, 47° 58' 20.00'' Nord";"72181";;"307 AV FÉLIX GENESLAY";"72000";"LE MANS";"Immeuble"; 24.0;"Copropriété, Syndic, SCI"
1957336;0.01389;48.02806;"00° 00' 50.00'' Est, 48° 01' 41.00'' Nord";"72096";"LONGUERAIE";;"72550";"COULANS-SUR-GEE";"Pylône autostable"; 32.0;"SFR"
1957341;0.37472;48.14278;"00° 22' 29.00'' Est, 48° 08' 34.00'' Nord";"72359";"LA FRINGUERIE";;"72110";"TORCE-EN-VALLEE";"Pylône autostable"; 31.0;"SFR"
1959326;0.23000;48.00056;"00° 13' 48.00'' Est, 48° 00' 02.00'' Nord";"72181";;"4 R FRANÇOIS DE MALHERBE";"72000";"LE MANS";"Immeuble"; 24.0;"Copropriété, Syndic, SCI"
1959340;0.14361;47.94417;"00° 08' 37.00'' Est, 47° 56' 39.00'' Nord";"72003";"ZA LE MONNE";"R DU CHATELET";"72700";"ALLONNES";"Bâtiment"; 12.0;"Société Privée SA"
1959676;0.31389;47.81556;"00° 18' 50.00'' Est, 47° 48' 56.00'' Nord";"72124";"LA FOUCAUDIERE";"CHEM RURAL N°94";"72220";"ECOMMOY";"Pylône autostable"; 32.0;"SFR"
1962075;0.40667;48.30917;"00° 24' 24.00'' Est, 48° 18' 33.00'' Nord";"72316";;"RUE DES CHANVRIERS D109";"72600";"SAINT-REMY-DES-MONTS";"Pylône autostable"; 32.5;"TDF"
1963727;0.28944;48.36056;"00° 17' 22.00'' Est, 48° 21' 38.00'' Nord";"72372";"LA PETITE RUELLERIE";"CHEMIN RURAL N 12 D202";"72600";"VEZOT";"Pylône autostable"; 37.0;"Conseil Départemental"
1963729;0.45694;47.96333;"00° 27' 25.00'' Est, 47° 57' 48.00'' Nord";"72382";"LE CARREFOUR";;"72440";"VOLNAY";"Pylône autostable"; 37.0;"Conseil Départemental"
1964471;0.21278;48.00278;"00° 12' 46.00'' Est, 48° 00' 10.00'' Nord";"72181";;"3 RUE HENRI BERGSON";"72000";"LE MANS";"Bâtiment"; 41.0;"Société Privée SA"
1964858;0.06389;48.31139;"00° 03' 50.00'' Est, 48° 18' 41.00'' Nord";"72139";"HAUT ECLAIR";"D108";"72610";"FYE";"Pylône autostable"; 36.9;"IFW-FREE"
1966925;0.21250;48.11917;"00° 12' 45.00'' Est, 48° 07' 09.00'' Nord";"72147";"LA CORBINIÈRE";"CHEM COMMUNAL N°1";"72380";"LA GUIERCHE";"Pylône autostable"; 33.0;"SFR"
1966933;0.13389;47.91167;"00° 08' 02.00'' Est, 47° 54' 42.00'' Nord";"72133";;"LA PIÈCE DE SPAY CHEM RURAL N° 8";"72210";"FILLE";"Pylône autostable"; 30.0;"SFR"
