Numéro du support;Longitude;Latitude;"Position";"Insee";"Lieu dit";"Adresse";"Code postal";"Commune";"Nature du support";Hauteur en m;"Propriétaire"
18778;2.00833;48.77444;"02° 00' 30.00'' Est, 48° 46' 28.00'' Nord";"78621";;"7 R TEISSERENC-DE BORT B.P.202";"78190";"TRAPPES";"Dalle en béton"; 4.0;"Météo"
18804;1.75833;48.95167;"01° 45' 30.00'' Est, 48° 57' 06.00'' Nord";"78291";"FRESNEL";"21 R DE BEAUREGARD";"78930";"GUERVILLE";"Pylône haubané"; 23.0;"Titulaire programme Radio/TV"
40209;2.14639;48.79167;"02° 08' 47.00'' Est, 48° 47' 30.00'' Nord";"78646";"PORCHEFONTAINE";"3 , R DU PONT COLBERT";"78000";"VERSAILLES";"Immeuble"; 27.0;"Copropriété, Syndic, SCI"
40357;1.95806;48.72417;"01° 57' 29.00'' Est, 48° 43' 27.00'' Nord";"78334";;"ÉGLISE DE GIROUARD";"78320";"LEVIS-SAINT-NOM";"Monument religieux"; 24.0;"Commune, communauté de commune"
40467;2.19639;48.78111;"02° 11' 47.00'' Est, 48° 46' 52.00'' Nord";"78640";;"24 PL LOUVOIS";"78140";"VELIZY-VILLACOUBLAY";"Immeuble"; 33.0;"Société Privée SA"
46722;1.77222;48.97056;"01° 46' 20.00'' Est, 48° 58' 14.00'' Nord";"78501";;"63, 65 R DE LA GRANDE REMISE DES VOYERS";"78440";"PORCHEVILLE";"Pylône autostable"; 62.0;"EDF GDF"
85879;2.09333;48.91139;"02° 05' 36.00'' Est, 48° 54' 41.00'' Nord";"78551";;"A 14  ST GERMAIN";"78100";"SAINT-GERMAIN-EN-LAYE";"Tunnel"; 8.0;"DDE"
85959;1.76500;48.80583;"01° 45' 54.00'' Est, 48° 48' 21.00'' Nord";"78513";;"50 R NATIONALE";"78940";"LA QUEUE-LES-YVELINES";"Monument religieux"; 30.0;"Commune, communauté de commune"
86053;2.14528;48.94861;"02° 08' 43.00'' Est, 48° 56' 55.00'' Nord";"78358";;"R DE LA MUETTE  EGLISE ST NICOLAS";"78600";"MAISONS-LAFFITTE";"Monument religieux"; 50.0;"Commune, communauté de commune"
86129;1.83389;48.51056;"01° 50' 02.00'' Est, 48° 30' 38.00'' Nord";"78003";"ARRAS";"R WENDELSHEIM  COMPLEXE SPORTIF TOM VANTHEEMSCHE";"78660";"ABLIS";"Pylône autostable"; 35.0;"Commune, communauté de commune"
105000;1.64917;48.68583;"01° 38' 57.00'' Est, 48° 41' 09.00'' Nord";"78077";"LE MOULIN À VENT";"CHÂTEAU D'EAU";"78125";"LA BOISSIERE-ECOLE";"Château d'eau - réservoir"; 30.0;"Syndicat des eaux, Adduction"
105024;1.72250;48.75028;"01° 43' 21.00'' Est, 48° 45' 01.00'' Nord";"78264";;"RTE DU GRAND CHOISEL TR DE GUET";"78490";"GAMBAISEUIL";"Pylône autostable"; 34.0;"Etat, Ministère"
105046;1.58778;48.69778;"01° 35' 16.00'' Est, 48° 41' 52.00'' Nord";"78606";"LA BUTTE DU TARTRE";;"78113";"LE TARTRE-GAUDRAN";"Mât"; 40.0;"ORANGE"
105054;1.52556;49.04556;"01° 31' 32.00'' Est, 49° 02' 44.00'' Nord";"78503";;"5 RTE DU CHÊNE";"78270";"PORT-VILLEZ";"Château d'eau - réservoir"; 28.0;"Particulier"
105094;2.08722;48.84500;"02° 05' 14.00'' Est, 48° 50' 42.00'' Nord";"78043";;"INTERSECTION A13 (PR 13)ET D7 - DESSUS BAU - PROVINCE-PARIS";"78870";"BAILLY";"Ouvrage d'art (pont, viaduc)"; 7.0;"DDE"
105142;2.04139;48.79472;"02° 02' 29.00'' Est, 48° 47' 41.00'' Nord";"78073";"PONT PR6. A12";"SENS PARIS PROVINCE";"78390";"BOIS-D'ARCY";"Ouvrage d'art (pont, viaduc)"; 9.0;"DDE"
105148;1.98028;48.82694;"01° 58' 49.00'' Est, 48° 49' 37.00'' Nord";"78165";;"R JEAN JAURES";"78340";"LES CLAYES-SOUS-BOIS";"Immeuble"; 22.0;"Société Privée SA"
112126;1.90528;48.97056;"01° 54' 19.00'' Est, 48° 58' 14.00'' Nord";"78090";"LES SABLONS";;"78410";"BOUAFLE";"Pylône autostable"; 18.0;"Sociétés d'Autoroutes"
112132;1.68056;48.98333;"01° 40' 50.00'' Est, 48° 59' 00.00'' Nord";"78118";"PÉAGE";"SANS OBJET";"78200";"BUCHELAY";"Pylône autostable";;
112136;1.54778;49.02111;"01° 32' 52.00'' Est, 49° 01' 16.00'' Nord";"78668";"AIRE DE REPOS";"AUTOROUTE DE NORMANDIE";"78270";"LA VILLENEUVE-EN-CHEVRIE";"Pylône autostable"; 14.0;"Sociétés d'Autoroutes"
112138;1.48278;49.02639;"01° 28' 58.00'' Est, 49° 01' 35.00'' Nord";"78147";"P.S. CD 52";;"78270";"CHAUFOUR-LES-BONNIERES";"Pylône autostable"; 20.0;"Sociétés d'Autoroutes"
119618;1.76778;48.85778;"01° 46' 04.00'' Est, 48° 51' 28.00'' Nord";"78681";;"CHÂTEAU DE VILLIERS LE MAHIEU";"78770";"VILLIERS-LE-MAHIEU";"Bâtiment"; 8.0;
120388;2.04667;48.79500;"02° 02' 48.00'' Est, 48° 47' 42.00'' Nord";"78423";;"AV AMPERE L'ETANG DE BOIS D'ARCY";"78180";"MONTIGNY-LE-BRETONNEUX";"Pylône autostable"; 33.0;"Commune, communauté de commune"
157595;2.06472;48.75667;"02° 03' 53.00'' Est, 48° 45' 24.00'' Nord";"78356";;"1 R PABLO PICASSO";"78114";"MAGNY-LES-HAMEAUX";"Support non décrit"; 12.0;
170960;1.55083;49.06167;"01° 33' 03.00'' Est, 49° 03' 42.00'' Nord";"78337";;"11 R DE LA MAIRIE";"78270";"LIMETZ-VILLEZ";"Support non décrit"; 12.0;
200366;1.84028;48.64556;"01° 50' 25.00'' Est, 48° 38' 44.00'' Nord";"78517";;"19 RUE DU MUGUET";"78120";"RAMBOUILLET";"Bâtiment"; 30.0;"Commune, communauté de commune"
200374;2.19778;48.93389;"02° 11' 52.00'' Est, 48° 56' 02.00'' Nord";"78311";;"56 R AMBROISE CROIZAT";"78800";"HOUILLES";"Support non décrit"; 30.0;
200382;2.12222;48.82306;"02° 07' 20.00'' Est, 48° 49' 23.00'' Nord";"78158";;"PARLY 2";"78150";"LE CHESNAY";"Support non décrit"; 10.0;
200386;2.13028;48.79694;"02° 07' 49.00'' Est, 48° 47' 49.00'' Nord";"78646";;"17 R E.CHARTON";"78000";"VERSAILLES";"Support non décrit"; 195.0;
200390;2.15750;48.90222;"02° 09' 27.00'' Est, 48° 54' 08.00'' Nord";"78146";;"R AUGUSTE RENOIR";"78400";"CHATOU";"Support non décrit"; 10.0;
200402;2.03667;48.77278;"02° 02' 12.00'' Est, 48° 46' 22.00'' Nord";"78423";;"1 AV JOSEPH KESSEL";"78180";"MONTIGNY-LE-BRETONNEUX";"Support non décrit"; 20.0;
200578;1.85250;49.04556;"01° 51' 09.00'' Est, 49° 02' 44.00'' Nord";"78317";;"CHATEAU DE JAMBVILLE";"78440";"JAMBVILLE";"Monument historique"; 20.0;"Conseil Général"
215336;2.09611;49.00111;"02° 05' 46.00'' Est, 49° 00' 04.00'' Nord";"78172";;"RST CONFLANS CHASSE PK 023.525";"78700";"CONFLANS-SAINTE-HONORINE";"Mât"; 22.0;"SNCF Réseau"
215338;2.07528;49.00306;"02° 04' 31.00'' Est, 49° 00' 11.00'' Nord";"78382";;"RST CONFLANS PISCINE PK 026.120";"78780";"MAURECOURT";"Mât"; 15.0;"SNCF Réseau"
215340;2.03667;48.97500;"02° 02' 12.00'' Est, 48° 58' 30.00'' Nord";"78138";;"RST ANDRESY PK 029.390";"78570";"CHANTELOUP-LES-VIGNES";"Mât"; 15.0;"SNCF Réseau"
215342;2.02861;48.96972;"02° 01' 43.00'' Est, 48° 58' 11.00'' Nord";"78138";;"RST CHANTELOUP LES VIGNES PK 031.095";"78570";"CHANTELOUP-LES-VIGNES";"Mât"; 10.0;"SNCF Réseau"
215346;1.83333;48.99222;"01° 50' 00.00'' Est, 48° 59' 32.00'' Nord";"78327";;"RST JUZIERS PK 046.597";"78820";"JUZIERS";"Mât"; 15.0;"SNCF Réseau"
215350;1.74500;48.98417;"01° 44' 42.00'' Est, 48° 59' 03.00'' Nord";"78335";;"RST LIMAY GRAND VAL PK 053.400";"78520";"LIMAY";"Mât"; 10.0;"SNCF Réseau"
215354;2.08083;48.95889;"02° 04' 51.00'' Est, 48° 57' 32.00'' Nord";"78551";;"RST ACHERES POLYGONE PK 022.500";"78100";"SAINT-GERMAIN-EN-LAYE";"Mât"; 15.0;"SNCF Réseau"
215358;2.17167;48.92111;"02° 10' 18.00'' Est, 48° 55' 16.00'' Nord";"78124";;"RST HOUILLES PK 012.580";"78420";"CARRIERES-SUR-SEINE";"Mât"; 15.0;"SNCF Réseau"
215362;2.14722;48.93639;"02° 08' 50.00'' Est, 48° 56' 11.00'' Nord";"78586";;"RST SARTROUVILLE PK 015.260";"78500";"SARTROUVILLE";"Mât"; 15.0;"SNCF Réseau"
215366;2.07806;48.95611;"02° 04' 41.00'' Est, 48° 57' 22.00'' Nord";"78551";;"RST ACHERES GRAND CORMIER PK 021.250";"78100";"SAINT-GERMAIN-EN-LAYE";"Mât"; 12.0;"SNCF Réseau"
215370;2.06278;48.95000;"02° 03' 46.00'' Est, 48° 57' 00.00'' Nord";"78005";;"RST POISSY BIF CEINTURE PK 023.010";"78260";"ACHERES";"Mât"; 22.0;"SNCF Réseau"
215374;1.98806;48.93917;"01° 59' 17.00'' Est, 48° 56' 21.00'' Nord";"78672";;"RST VILLENNES SUR SEINE PK 029.620";"78670";"VILLENNES-SUR-SEINE";"Mât"; 22.0;"SNCF Réseau"
215378;1.96111;48.98861;"01° 57' 40.00'' Est, 48° 59' 19.00'' Nord";"78642";;"RST VERNOUILLET PK 035.495";"78480";"VERNEUIL-SUR-SEINE";"Mât"; 11.0;"SNCF Réseau"
215382;1.85111;48.97611;"01° 51' 04.00'' Est, 48° 58' 34.00'' Nord";"78029";;"RST FLINS SUR SEINE RNUR PK 044.230";"78410";"AUBERGENVILLE";"Mât"; 22.0;"SNCF Réseau"
215386;1.83333;48.97250;"01° 50' 00.00'' Est, 48° 58' 21.00'' Nord";"78217";;"RST AUBERGENVILLE PK 045.710";"78680";"EPONE";"Mât"; 22.0;"SNCF Réseau"
215390;1.69194;48.98778;"01° 41' 31.00'' Est, 48° 59' 16.00'' Nord";"78118";;"RST MANTES PRS GR 5 PK 057.000";"78200";"BUCHELAY";"Mât"; 23.0;"SNCF Réseau"
215394;1.67111;48.99389;"01° 40' 16.00'' Est, 48° 59' 38.00'' Nord";"78118";;"RST MANTES PIQUETTE PK 059.010";"78200";"BUCHELAY";"Mât"; 5.0;"SNCF Réseau"
215398;1.63167;48.99583;"01° 37' 54.00'' Est, 48° 59' 45.00'' Nord";"78531";;"RST ROSNY SUR SEINE PK 062.560";"78710";"ROSNY-SUR-SEINE";"Mât"; 22.0;"SNCF Réseau"
215402;1.59306;49.03528;"01° 35' 35.00'' Est, 49° 02' 07.00'' Nord";"78255";;"RST BONNIERES PK 067.990";"78840";"FRENEUSE";"Mât"; 6.0;"SNCF Réseau"
215405;1.52444;49.06056;"01° 31' 28.00'' Est, 49° 03' 38.00'' Nord";"78503";;"RST PORT VILLEZ PK 075.020";"78270";"PORT-VILLEZ";"Mât"; 22.0;"SNCF Réseau"
215408;2.04111;48.80667;"02° 02' 28.00'' Est, 48° 48' 24.00'' Nord";"78242";;"RST FONTENAY LE FLEURY PK 024.250";"78330";"FONTENAY-LE-FLEURY";"Mât"; 10.0;"SNCF Réseau"
215412;1.99444;48.82222;"01° 59' 40.00'' Est, 48° 49' 20.00'' Nord";"78165";;"RST VILLEPREUX PK 028.220";"78340";"LES CLAYES-SOUS-BOIS";"Mât"; 22.0;"SNCF Réseau"
215416;1.76472;48.81028;"01° 45' 53.00'' Est, 48° 48' 37.00'' Nord";"78265";;"RST GARANCIERES PK 048.180";"78890";"GARANCIERES";"Mât"; 22.0;"SNCF Réseau"
215420;1.71889;48.82306;"01° 43' 08.00'' Est, 48° 49' 23.00'' Nord";"78053";;"RST BEHOUST PK 051.800";"78910";"BEHOUST";"Mât"; 24.0;"SNCF Réseau"
215424;1.62528;48.80139;"01° 37' 31.00'' Est, 48° 48' 05.00'' Nord";"78381";;"RST MAULETTE PN 26 PK 060.200";"78550";"MAULETTE";"Mât"; 22.0;"SNCF Réseau"
215428;1.94389;48.83111;"01° 56' 38.00'' Est, 48° 49' 52.00'' Nord";"78490";;"RST PLAISIR-GRIGNON PK 032.150";"78370";"PLAISIR";"Mât"; 10.0;"SNCF Réseau"
215432;1.86833;48.85444;"01° 52' 06.00'' Est, 48° 51' 16.00'' Nord";"78062";;"RST BEYNES PK 037.800";"78650";"BEYNES";"Mât"; 23.0;"SNCF Réseau"
215434;1.85750;48.90889;"01° 51' 27.00'' Est, 48° 54' 32.00'' Nord";"78380";;"RST MAULE PK 044.400";"78580";"MAULE";"Mât"; 15.0;"SNCF Réseau"
215438;1.84056;48.93806;"01° 50' 26.00'' Est, 48° 56' 17.00'' Nord";"78451";;"RST NEZEL PK 047.900";"78410";"NEZEL";"Mât"; 10.0;"SNCF Réseau"
215442;2.14750;48.79611;"02° 08' 51.00'' Est, 48° 47' 46.00'' Nord";"78646";;"RST PORCHEFONTAINE PK 015.800";"78000";"VERSAILLES";"Mât"; 22.0;"SNCF Réseau"
215446;2.11583;48.79250;"02° 06' 57.00'' Est, 48° 47' 33.00'' Nord";"78646";;"RST VERSAILLES SATORY PK 018.150";"78000";"VERSAILLES";"Mât"; 22.0;"SNCF Réseau"
215448;2.07278;48.79861;"02° 04' 22.00'' Est, 48° 47' 55.00'' Nord";"78545";;"RST ST CYR L'ECOLE PK 021.400";"78210";"SAINT-CYR-L'ECOLE";"Mât"; 22.0;"SNCF Réseau"
215452;2.02861;48.78056;"02° 01' 43.00'' Est, 48° 46' 50.00'' Nord";"78423";;"RST ST QUENTIN EN YVELINES PK 025.220";"78180";"MONTIGNY-LE-BRETONNEUX";"Mât"; 15.0;"SNCF Réseau"
215454;1.97083;48.76167;"01° 58' 15.00'' Est, 48° 45' 42.00'' Nord";"78208";;"RST TRAPPES TRIAGE PK 030.120";"78990";"ELANCOURT";"Mât"; 22.0;"SNCF Réseau"
215456;1.90889;48.73389;"01° 54' 32.00'' Est, 48° 44' 02.00'' Nord";"78334";;"RST COIGNIERES PK 035.800";"78320";"LEVIS-SAINT-NOM";"Mât"; 22.0;"SNCF Réseau"
215460;1.86194;48.70139;"01° 51' 43.00'' Est, 48° 42' 05.00'' Nord";"78030";;"RST LE PERRAY PK 040.790";"78610";"AUFFARGIS";"Mât"; 18.0;"SNCF Réseau"
215462;1.83583;48.64556;"01° 50' 09.00'' Est, 48° 38' 44.00'' Nord";"78517";;"RST RAMBOUILLET PK 047.320";"78120";"RAMBOUILLET";"Mât"; 22.0;"SNCF Réseau"
215464;1.74694;48.62139;"01° 44' 49.00'' Est, 48° 37' 17.00'' Nord";"78557";;"RST LE ROSSAY PK 054.750";"78125";"SAINT-HILARION";"Mât"; 15.0;"SNCF Réseau"
215466;1.96278;48.56917;"01° 57' 46.00'' Est, 48° 34' 09.00'' Nord";"78349";;"RST ST ARNOULT PRS 13 PK 044.612";"78730";"LONGVILLIERS";"Mât"; 22.0;"SNCF Réseau"
215470;1.91528;48.53500;"01° 54' 55.00'' Est, 48° 32' 06.00'' Nord";"78564";;"RST LES HAUTS BOUTS PK 049.600";"78660";"SAINT-MARTIN-DE-BRETHENCOURT";"Mât"; 15.0;"SNCF Réseau"
215474;1.88722;48.49000;"01° 53' 14.00'' Est, 48° 29' 24.00'' Nord";"78071";;"RST ROINVILLE LE GAILLARD CAI 54 PK 054.991";"78660";"BOINVILLE-LE-GAILLARD";"Mât"; 15.0;"SNCF Réseau"
215478;2.17528;48.81222;"02° 10' 31.00'' Est, 48° 48' 44.00'' Nord";"78686";;"RST CHAVILLE RIVE DROITE PK 018.600";"78220";"VIROFLAY";"Mât"; 28.0;"SNCF Réseau"
215482;2.14278;48.80667;"02° 08' 34.00'' Est, 48° 48' 24.00'' Nord";"78646";;"RST MONTREUIL RIVE DROITE PK 021.200";"78000";"VERSAILLES";"Mât"; 26.0;"SNCF Réseau"
215486;2.13028;48.80944;"02° 07' 49.00'' Est, 48° 48' 34.00'' Nord";"78646";;"RST VERSAILLES RIVE DROITE PK 022.250";"78000";"VERSAILLES";"Mât"; 22.0;"SNCF Réseau"
215490;2.13750;48.86444;"02° 08' 15.00'' Est, 48° 51' 52.00'' Nord";"78092";;"RST VAUCRESSON PK 019.750";"78380";"BOUGIVAL";"Mât"; 22.0;"SNCF Réseau"
215494;2.13111;48.84972;"02° 07' 52.00'' Est, 48° 50' 59.00'' Nord";"78126";;"RST BOUGIVAL PK 021.700";"78170";"LA CELLE-SAINT-CLOUD";"Mât"; 22.0;"SNCF Réseau"
215498;2.11500;48.86417;"02° 06' 54.00'' Est, 48° 51' 51.00'' Nord";"78350";;"RST LOUVECIENNES PK 024.150";"78430";"LOUVECIENNES";"Mât"; 5.0;"SNCF Réseau"
215502;2.07528;48.87250;"02° 04' 31.00'' Est, 48° 52' 21.00'' Nord";"78224";;"RST MARLY LE ROI PK 026.590";"78620";"L'ETANG-LA-VILLE";"Mât"; 22.0;"SNCF Réseau"
215506;2.06361;48.86722;"02° 03' 49.00'' Est, 48° 52' 02.00'' Nord";"78224";;"RST ETANG LA VILLE PK 027.595";"78620";"L'ETANG-LA-VILLE";"Mât"; 22.0;"SNCF Réseau"
215510;2.17250;48.80056;"02° 10' 21.00'' Est, 48° 48' 02.00'' Nord";"78686";;"RST VIROFLAY RG PK 014.354";"78220";"VIROFLAY";"Mât"; 12.0;"SNCF Réseau"
215514;2.12972;48.79972;"02° 07' 47.00'' Est, 48° 47' 59.00'' Nord";"78646";;"RST VERSAILLES CHATEAU PK 017.445";"78000";"VERSAILLES";"Mât"; 6.0;"SNCF Réseau"
215518;2.19583;48.93917;"02° 11' 45.00'' Est, 48° 56' 21.00'' Nord";"78586";;"RST SARTROUVILLE GC PK 035.720";"78500";"SARTROUVILLE";"Mât"; 7.0;"SNCF Réseau"
215522;2.16444;48.76361;"02° 09' 52.00'' Est, 48° 45' 49.00'' Nord";"78322";;"RST JOUY EN JOSAS PK 115.200";"78350";"JOUY-EN-JOSAS";"Mât"; 10.0;"SNCF Réseau"
215526;2.15639;48.78250;"02° 09' 23.00'' Est, 48° 46' 57.00'' Nord";"78322";;"RST PETIT JOUY PK 118.000";"78350";"JOUY-EN-JOSAS";"Mât"; 15.0;"SNCF Réseau"
239522;2.08389;48.74306;"02° 05' 02.00'' Est, 48° 44' 35.00'' Nord";"78356";"MAISON FORESTIERES DES MINES";"PARC D'ACTIVITE MAGNY PRES DE LA RD 36";"78114";"MAGNY-LES-HAMEAUX";"Immeuble"; 18.0;
249711;2.03139;48.94278;"02° 01' 53.00'' Est, 48° 56' 34.00'' Nord";"78123";;"226 R ERNEST JOLLY";"78955";"CARRIERES-SOUS-POISSY";"Immeuble"; 33.0;"Société HLM"
268074;1.70167;48.98861;"01° 42' 06.00'' Est, 48° 59' 19.00'' Nord";"78362";;"31 R JEAN JOUEN";"78711";"MANTES-LA-VILLE";"Immeuble"; 32.0;"Société HLM"
268078;1.89639;48.72611;"01° 53' 47.00'' Est, 48° 43' 34.00'' Nord";"78220";"MAUREGARD";"15 R GEORGES POMPIDOU";"78690";"LES ESSARTS-LE-ROI";"Pylône autostable"; 11.0;"ORANGE"
271120;1.68056;48.98222;"01° 40' 50.00'' Est, 48° 58' 56.00'' Nord";"78118";;"R JEAN LOUIS SCIALLOUX STADE MUNICIPAL";"78200";"BUCHELAY";"Pylône tubulaire"; 25.0;"ORANGE"
272445;2.02722;48.62278;"02° 01' 38.00'' Est, 48° 37' 22.00'' Nord";"78087";;"CHEM DU REPOSOIR";"78830";"BONNELLES";"Pylône autostable"; 18.0;
279978;2.15028;48.79139;"02° 09' 01.00'' Est, 48° 47' 29.00'' Nord";"78646";;"145 R YVES LE COZ";"78000";"VERSAILLES";"Bâtiment"; 6.0;
281186;2.19722;48.92139;"02° 11' 50.00'' Est, 48° 55' 17.00'' Nord";"78311";;"41 R ERNEST RENAND";"78800";"HOUILLES";"Bâtiment"; 13.0;"ORANGE"
287328;1.98361;48.98361;"01° 59' 01.00'' Est, 48° 59' 01.00'' Nord";"78642";;"R DU ROUILLARD";"78480";"VERNEUIL-SUR-SEINE";"Pylône autostable"; 30.0;"SNCF Réseau"
288890;2.06417;48.78306;"02° 03' 51.00'' Est, 48° 46' 59.00'' Nord";"78297";;"1 R ANTOINE LAVOISIER  BAT PHARMACIA LA SAUR";"78280";"GUYANCOURT";"Immeuble"; 15.0;
294848;2.13139;48.82583;"02° 07' 53.00'' Est, 48° 49' 33.00'' Nord";"78158";;"14 R DU DR AUDIGIER";"78150";"LE CHESNAY";"Bâtiment"; 15.0;
295570;1.55056;49.06528;"01° 33' 02.00'' Est, 49° 03' 55.00'' Nord";"78337";;"24 R DE L'EAU USINE ISOBOX";"78270";"LIMETZ-VILLEZ";"Bâtiment"; 23.5;"Société Privée SA"
299076;1.76222;48.98889;"01° 45' 44.00'' Est, 48° 59' 20.00'' Nord";"78501";;"RUE DE ROUEN SANOFI";"78440";"PORCHEVILLE";"Bâtiment"; 18.0;"Société Privée SA"
299175;1.88278;48.72056;"01° 52' 58.00'' Est, 48° 43' 14.00'' Nord";"78220";;"R DE LA TASSE RN10";"78690";"LES ESSARTS-LE-ROI";"Pylône autostable"; 30.0;"ORANGE"
305346;2.16778;48.94028;"02° 10' 04.00'' Est, 48° 56' 25.00'' Nord";"78586";;"2-4, R JEAN MERMOZ";"78500";"SARTROUVILLE";"Immeuble"; 16.0;"Copropriété, Syndic, SCI"
305789;2.12861;48.80167;"02° 07' 43.00'' Est, 48° 48' 06.00'' Nord";"78646";;"2, AV DE PARIS";"78000";"VERSAILLES";"Immeuble"; 16.0;"Société Privée SA"
308805;1.72167;48.83056;"01° 43' 18.00'' Est, 48° 49' 50.00'' Nord";"78053";;"1, PL DE L'EGLISE";"78910";"BEHOUST";"Monument religieux"; 22.6;"Commune, communauté de commune"
311180;2.07056;48.77139;"02° 04' 14.00'' Est, 48° 46' 17.00'' Nord";"78297";;"PL DE LA MAIRIE";"78280";"GUYANCOURT";"Immeuble"; 11.0;"Particulier"
311182;1.98417;48.97583;"01° 59' 03.00'' Est, 48° 58' 33.00'' Nord";"78643";;"9 R PAUL DOUMER";"78540";"VERNOUILLET";"Mât"; 13.0;"Commune, communauté de commune"
311276;2.21444;48.77944;"02° 12' 52.00'' Est, 48° 46' 46.00'' Nord";"78640";;"24 AV DE L'EUROPE EUROPA H";"78140";"VELIZY-VILLACOUBLAY";"Immeuble"; 23.0;
312429;1.97528;48.76250;"01° 58' 31.00'' Est, 48° 45' 45.00'' Nord";"78208";;"65B AV GEORGE POLITZER HÔTEL PREMIÈRE CLASSE";"78990";"ELANCOURT";"Pylône tubulaire"; 20.0;"ORANGE"
312446;2.15000;48.84944;"02° 08' 60.00'' Est, 48° 50' 58.00'' Nord";"78126";;"PL BERTHET UNITE DE VENTILATION";"78170";"LA CELLE-SAINT-CLOUD";"Bâtiment"; 9.0;"Sociétés d'Autoroutes"
316742;2.01972;48.92000;"02° 01' 11.00'' Est, 48° 55' 12.00'' Nord";"78498";;"33  R DU CHAMP GAILLARD";"78300";"POISSY";"Bâtiment"; 30.0;"Société HLM"
329685;2.01056;48.68194;"02° 00' 38.00'' Est, 48° 40' 55.00'' Nord";"78162";"LA FERTE";;"78460";"CHOISEL";"Pylône autostable"; 15.0;"ORANGE"
330082;1.81417;48.99444;"01° 48' 51.00'' Est, 48° 59' 40.00'' Nord";"78267";;"R DES GROUX";"78440";"GARGENVILLE";"Pylône autostable"; 15.0;"ORANGE"
333402;2.17944;48.93722;"02° 10' 46.00'' Est, 48° 56' 14.00'' Nord";"78586";;"43 R DE TOCQUEVILLE FOYER DE L'UNION";"78500";"SARTROUVILLE";"Bâtiment"; 20.0;"Commune, communauté de commune"
333561;2.14222;48.80528;"02° 08' 32.00'' Est, 48° 48' 19.00'' Nord";"78646";;"6 R DE MONTREUIL";"78000";"VERSAILLES";"Immeuble"; 18.5;"Particulier"
334374;2.12611;48.89500;"02° 07' 34.00'' Est, 48° 53' 42.00'' Nord";"78650";;"101 B  BD  CARNOT";"78110";"LE VESINET";"Pylône autostable"; 13.0;"ORANGE"
335087;2.14361;48.90083;"02° 08' 37.00'' Est, 48° 54' 03.00'' Nord";"78146";;"190,  R DES LANDES RÉSIDENCE LES SABLINETTES";"78400";"CHATOU";"Immeuble"; 30.0;"Copropriété, Syndic, SCI"
335693;2.08306;48.99083;"02° 04' 59.00'' Est, 48° 59' 27.00'' Nord";"78172";;"9 AV DU PONT";"78700";"CONFLANS-SAINTE-HONORINE";"Bâtiment"; 20.0;
336549;1.59833;48.79361;"01° 35' 54.00'' Est, 48° 47' 37.00'' Nord";"78310";;"42 R DE PARIS HOP LOCAL DE HOUDAN";"78550";"HOUDAN";"Bâtiment"; 15.0;
343255;2.21556;48.78333;"02° 12' 56.00'' Est, 48° 46' 60.00'' Nord";"78640";;"AV MORANE SAULNIER";"78140";"VELIZY-VILLACOUBLAY";"Immeuble"; 31.0;"Copropriété, Syndic, SCI"
345176;2.05833;48.78528;"02° 03' 30.00'' Est, 48° 47' 07.00'' Nord";"78297";;"3 ROND POINT DES SAULES  IMM LA RENAISSANCE";"78280";"GUYANCOURT";"Immeuble"; 19.2;"Copropriété, Syndic, SCI"
345885;1.63083;49.00083;"01° 37' 51.00'' Est, 49° 00' 03.00'' Nord";"78531";;"2 R LEBAUDY";"78710";"ROSNY-SUR-SEINE";"Bâtiment"; 12.0;"Particulier"
348249;1.99056;48.79944;"01° 59' 26.00'' Est, 48° 47' 58.00'' Nord";"78165";"LE PUITS AU LOUP";"ECHANGER RN12 SORTIE ELANCOURT";"78340";"LES CLAYES-SOUS-BOIS";"Pylône autostable"; 32.0;"DDE"
348967;2.21917;48.77917;"02° 13' 09.00'' Est, 48° 46' 45.00'' Nord";"78640";;"AV DE L EUROPE";"78140";"VELIZY-VILLACOUBLAY";"Bâtiment"; 20.0;
349577;2.17250;48.91278;"02° 10' 21.00'' Est, 48° 54' 46.00'' Nord";"78124";;"ENTRE LA ROUTE ST GERMAIN ET R DES VIGNES BLANCHES TUNNEL A14";"78420";"CARRIERES-SUR-SEINE";"Tunnel"; 8.0;"Etat, Ministère"
350365;2.07611;48.97222;"02° 04' 34.00'' Est, 48° 58' 20.00'' Nord";"78005";;"207, AVE CHARLES DE GAULLE ZAC DU MAGASIN - QUARTIER DE LA GARE BÂTIMENT 1";"78260";"ACHERES";"Bâtiment"; 9.4;"Société Privée SA"
350369;2.14750;48.77083;"02° 08' 51.00'' Est, 48° 46' 15.00'' Nord";"78322";;"100 R CHARLES DE GAULLE";"78350";"JOUY-EN-JOSAS";"Bâtiment"; 13.2;"Copropriété, Syndic, SCI"
352005;2.13611;48.85417;"02° 08' 10.00'' Est, 48° 51' 15.00'' Nord";"78126";;"106 AV JEAN MOULIN";"78170";"LA CELLE-SAINT-CLOUD";"Bâtiment"; 21.0;"Société Privée SA"
358173;1.89556;48.98889;"01° 53' 44.00'' Est, 48° 59' 20.00'' Nord";"78440";;"109 R JEAN MERMOZ FOYER SONACOTRA";"78130";"LES MUREAUX";"Bâtiment"; 17.0;"Copropriété, Syndic, SCI"
365559;2.13639;48.89417;"02° 08' 11.00'' Est, 48° 53' 39.00'' Nord";"78650";;"60 BD CARNOT";"78110";"LE VESINET";"Bâtiment"; 18.0;
365561;2.06250;48.74389;"02° 03' 45.00'' Est, 48° 44' 38.00'' Nord";"78356";;"2 R ERNEST CHAUSSON";"78114";"MAGNY-LES-HAMEAUX";"Bâtiment"; 17.0;
365563;1.85500;48.96000;"01° 51' 18.00'' Est, 48° 57' 36.00'' Nord";"78029";;"R JOUILLERAT";"78410";"AUBERGENVILLE";"Bâtiment"; 2.0;
367360;1.97111;48.79806;"01° 58' 16.00'' Est, 48° 47' 53.00'' Nord";"78208";;"1 BD JEAN MOULIN LA CLEF DE ST PIERRE";"78990";"ELANCOURT";"Immeuble"; 23.0;
377082;2.16472;48.89417;"02° 09' 53.00'' Est, 48° 53' 39.00'' Nord";"78146";"ECLUSES/ILE DE CHATOU";;"78400";"CHATOU";"Bâtiment"; 8.0;"Voies navigables de France"
377762;2.13028;48.87000;"02° 07' 49.00'' Est, 48° 52' 12.00'' Nord";"78092";"ECLUSES";"17 ILE DE LA LOGE";"78380";"BOUGIVAL";"Bâtiment"; 5.5;"Voies navigables de France"
377774;2.06167;48.97750;"02° 03' 42.00'' Est, 48° 58' 39.00'' Nord";"78015";"ECLUSES/ILE PEYGRAND";;"78570";"ANDRESY";"Bâtiment"; 8.0;"Voies navigables de France"
377788;1.61694;49.02861;"01° 37' 01.00'' Est, 49° 01' 43.00'' Nord";"78391";"ECLUSE";;"78270";"MERICOURT";"Bâtiment"; 12.0;"Voies navigables de France"
394199;1.60972;49.02250;"01° 36' 35.00'' Est, 49° 01' 21.00'' Nord";"78528";;"5, ROUTE DE LA CORNICHE";"78270";"ROLLEBOISE";"Bâtiment"; 17.0;"Copropriété, Syndic, SCI"
434808;1.75750;48.98306;"01° 45' 27.00'' Est, 48° 58' 59.00'' Nord";"78335";;"AVE DU VAL Z.I DE LIMAY-PORCHEVILLE";"78520";"LIMAY";"Pylône autostable"; 28.0;"ORANGE"
435203;1.90028;48.91583;"01° 54' 01.00'' Est, 48° 54' 57.00'' Nord";"78010";;"LE CHEM DE MAULE PRÈS D45";"78580";"LES ALLUETS-LE-ROI";"Pylône haubané"; 81.0;"TDF"
435210;1.99472;48.82278;"01° 59' 41.00'' Est, 48° 49' 22.00'' Nord";"78165";;"8 ALL DE LA GARE RES LA SABLIÈRE";"78340";"LES CLAYES-SOUS-BOIS";"Bâtiment"; 19.0;"Copropriété, Syndic, SCI"
435366;1.73500;48.57778;"01° 44' 06.00'' Est, 48° 34' 40.00'' Nord";"78209";"LE BOIS DES PLANTS";"CHEM RURAL 1";"78125";"EMANCE";"Pylône tubulaire"; 38.0;"SFR"
435922;1.84889;48.69667;"01° 50' 56.00'' Est, 48° 41' 48.00'' Nord";"78486";;"14 R DE HOUDAN";"78610";"LE PERRAY-EN-YVELINES";"Pylône autostable"; 50.0;"SFR"
436667;2.14500;48.83500;"02° 08' 42.00'' Est, 48° 50' 06.00'' Nord";"78158";"LES HUBIES";"FORET DE FAUSSE REPOSE CHATEAU D'EAU";"78150";"LE CHESNAY";"Château d'eau - réservoir"; 49.6;"Syndicat des eaux, Adduction"
436673;2.18056;48.93806;"02° 10' 50.00'' Est, 48° 56' 17.00'' Nord";"78586";;"113 R GABRIEL PERI";"78500";"SARTROUVILLE";"Immeuble"; 20.7;"Commune, communauté de commune"
437034;2.01500;48.93972;"02° 00' 54.00'' Est, 48° 56' 23.00'' Nord";"78123";;"340 R DES ÉCOLES";"78955";"CARRIERES-SOUS-POISSY";"Immeuble"; 20.5;"Commune, communauté de commune"
437363;1.87139;48.94111;"01° 52' 17.00'' Est, 48° 56' 28.00'' Nord";"78049";;"CARREFOUR DE LA HAUTE BORNE";"78580";"BAZEMONT";"pylône arbre"; 37.0;"FPS TOWERS"
437447;1.78361;48.76861;"01° 47' 01.00'' Est, 48° 46' 07.00'' Nord";"78289";"LA PATURE DE GROSROUVRE";"RD 138 RELAI HERTZIEN DE HOUDAN";"78490";"GROSROUVRE";"Pylône autostable"; 52.0;"Autres"
437711;1.76944;48.62556;"01° 46' 10.00'' Est, 48° 37' 32.00'' Nord";"78269";;"CHEM DE LA GAUDE À LA MONNERIE";"78125";"GAZERAN";"Pylône autostable"; 35.0;"SFR"
437760;1.91833;48.50667;"01° 55' 06.00'' Est, 48° 30' 24.00'' Nord";"78564";"BOIS DES BOULEAUX";"LA VIEILLE TOUR RUINE D116";"78660";"SAINT-MARTIN-DE-BRETHENCOURT";"Château d'eau - réservoir"; 33.0;"Commune, communauté de commune"
437961;2.05611;48.85056;"02° 03' 22.00'' Est, 48° 51' 02.00'' Nord";"78455";;"1 R JEAN BRUYÈRE";"78590";"NOISY-LE-ROI";"Immeuble"; 19.1;"Commune, communauté de commune"
438503;1.96639;48.96861;"01° 57' 59.00'' Est, 48° 58' 07.00'' Nord";"78643";"LES PERRONS";;"78540";"VERNOUILLET";"pylône arbre"; 30.0;"FPS TOWERS"
438547;1.84472;48.99222;"01° 50' 41.00'' Est, 48° 59' 32.00'' Nord";"78327";;"AV DE LA GARE GARE SNCF";"78820";"JUZIERS";"Pylône autostable"; 21.0;"BOUYGUES"
438816;2.13028;48.94583;"02° 07' 49.00'' Est, 48° 56' 45.00'' Nord";"78358";;"54 R DU TIR";"78600";"MAISONS-LAFFITTE";"Château d'eau - réservoir"; 42.0;"Commune, communauté de commune"
438819;1.87278;48.84500;"01° 52' 22.00'' Est, 48° 50' 42.00'' Nord";"78062";"VALLÉE DE L'ÂNE";"CHEM DE FLEUBERT";"78650";"BEYNES";"Pylône autostable"; 29.0;"SFR"
439424;1.94306;48.56639;"01° 56' 35.00'' Est, 48° 33' 59.00'' Nord";"78537";"VALLÉE BOULON";"VC DE ST-ARNOULT";"78730";"SAINT-ARNOULT-EN-YVELINES";"Château d'eau - réservoir"; 48.0;"Association"
439613;1.68056;48.99361;"01° 40' 50.00'' Est, 48° 59' 37.00'' Nord";"78361";;"R DES CLOSEAUX";"78200";"MANTES-LA-JOLIE";"Pylône autostable"; 50.0;"ORANGE"
439887;1.69139;48.97333;"01° 41' 29.00'' Est, 48° 58' 24.00'' Nord";"78354";;"R DE LA MARNIERE ZI DE MONTGAZONS";"78200";"MAGNANVILLE";"Immeuble"; 20.0;"Société HLM"
439909;1.62500;48.99361;"01° 37' 30.00'' Est, 48° 59' 37.00'' Nord";"78531";;"CHEM RURAL DES HAUTES PERRUCHES";"78710";"ROSNY-SUR-SEINE";"Pylône autostable"; 31.0;"ORANGE"
440167;2.06056;48.68778;"02° 03' 38.00'' Est, 48° 41' 16.00'' Nord";"78575";;"ROUTE DE LIMOURS DOMAINE DE ST PAUL";"78470";"SAINT-REMY-LES-CHEVREUSE";"Bâtiment"; 55.0;"Particulier"
440208;1.81472;48.80361;"01° 48' 53.00'' Est, 48° 48' 13.00'' Nord";"78389";"LA FOSSETTE";"RTE DE LA BARDELLE  SILO MÉRÉ";"78490";"MERE";"Silo"; 30.2;"Société Privée SA"
440548;1.86167;48.88222;"01° 51' 42.00'' Est, 48° 52' 56.00'' Nord";"78415";;"R DU BOUT DE LA MARRE RUELLE DE L'EGLISE";"78124";"MONTAINVILLE";"Monument religieux"; 34.0;"Commune, communauté de commune"
440799;2.10056;48.83778;"02° 06' 02.00'' Est, 48° 50' 16.00'' Nord";"78524";;"DOMAINE DE VOLUCEAU CENTRE DE RECHERCHE INRIA";"78150";"ROCQUENCOURT";"Bâtiment"; 13.0;"Etat, Ministère"
441582;1.78611;48.86639;"01° 47' 10.00'' Est, 48° 51' 59.00'' Nord";"78616";;"39 R DE LA PORTE ST MARTIN";"78770";"THOIRY";"Pylône autostable"; 33.0;"FPS TOWERS"
442104;1.84194;48.65861;"01° 50' 31.00'' Est, 48° 39' 31.00'' Nord";"78517";;"R LOUIS GOUSSON PRES DE LA RN 10 ETANG DU MOULINET";"78120";"RAMBOUILLET";"Pylône autostable"; 54.0;"TDF"
442411;2.09306;48.86667;"02° 05' 35.00'' Est, 48° 52' 00.00'' Nord";"78372";;"PL VICTORIEN SARDOU";"78160";"MARLY-LE-ROI";"Monument religieux"; 15.0;"Particulier"
442524;2.08889;49.01361;"02° 05' 20.00'' Est, 49° 00' 49.00'' Nord";"78172";;"R DES AMBASSADEURS PRES INTERSEC N 184 ET RD 55A IMM.DE BUREAUX";"78700";"CONFLANS-SAINTE-HONORINE";"Immeuble"; 31.0;"Société Privée SA"
443355;1.81917;48.85444;"01° 49' 09.00'' Est, 48° 51' 16.00'' Nord";"78364";;"R DES CHÂTAIGNIERS CHÂTEAU DE MARCQ";"78770";"MARCQ";"Château d'eau - réservoir"; 47.0;"Commune, communauté de commune"
444971;2.07889;48.81444;"02° 04' 44.00'' Est, 48° 48' 52.00'' Nord";"78545";;"148,  R DU DR VAILLANT";"78210";"SAINT-CYR-L'ECOLE";"Immeuble"; 22.0;"Copropriété, Syndic, SCI"
446132;1.68806;48.96667;"01° 41' 17.00'' Est, 48° 58' 00.00'' Nord";"78354";;"R GRAVIERS STADE FIRMIND RIFFAUD";"78200";"MAGNANVILLE";"Pylône autostable"; 28.0;"ORANGE"
446139;1.91417;48.99444;"01° 54' 51.00'' Est, 48° 59' 40.00'' Nord";"78440";;"23 R PAUL RAOUL";"78130";"LES MUREAUX";"Immeuble"; 37.7;"BOUYGUES"
448276;1.90361;48.81833;"01° 54' 13.00'' Est, 48° 49' 06.00'' Nord";"78442";;"R DU STADE  STADE DE FOOTBALL";"78640";"NEAUPHLE-LE-CHATEAU";"Pylône autostable"; 27.0;"FPS TOWERS"
450314;1.70333;48.79944;"01° 42' 12.00'' Est, 48° 47' 58.00'' Nord";"78263";"LES QUATRE PILIERS";"RN 12 CHÂT.D'EAU DE GAMBAIS / HOUDAN";"78950";"GAMBAIS";"Château d'eau - réservoir"; 58.0;"Syndicat des eaux, Adduction"
450467;2.07972;48.77250;"02° 04' 47.00'' Est, 48° 46' 21.00'' Nord";"78297";"PONT DU ROUTOIR";"10 , ALLÉE DE VERSAILLES RÉSIDENCE LE CADRE DE VIE";"78280";"GUYANCOURT";"Immeuble"; 24.6;"Copropriété, Syndic, SCI"
450498;2.12500;48.82639;"02° 07' 30.00'' Est, 48° 49' 35.00'' Nord";"78158";"QUARTIER PARLY 2";"9 , R POTIER";"78150";"LE CHESNAY";"Immeuble"; 26.5;"Commune, communauté de commune"
450502;1.59806;48.79861;"01° 35' 53.00'' Est, 48° 47' 55.00'' Nord";"78310";"SAINT MATHIEU";"Z.I ST MATHIEU";"78550";"HOUDAN";"Pylône autostable"; 36.0;"SFR"
450921;1.69306;48.92361;"01° 41' 35.00'' Est, 48° 55' 25.00'' Nord";"78677";;"2 CHEM DE GUERVILLE";"78930";"VILLETTE";"Pylône tubulaire"; 15.0;"FPS TOWERS"
451343;1.89778;49.00250;"01° 53' 52.00'' Est, 49° 00' 09.00'' Nord";"78299";;"37 BD MICHELET SILO";"78250";"HARDRICOURT";"Silo"; 42.0;"Société Privée SA"
451755;1.66528;48.89111;"01° 39' 55.00'' Est, 48° 53' 28.00'' Nord";"78185";"DEVANT LES PORTES DE COURGENT";"R DU CHÂTEAU D'EAU CHEM RURAL N°13";"78790";"COURGENT";"Château d'eau - réservoir"; 44.0;"Commune, communauté de commune"
451795;2.05944;48.78889;"02° 03' 34.00'' Est, 48° 47' 20.00'' Nord";"78297";;"RTE DE ST CYR";"78280";"GUYANCOURT";"Pylône autostable"; 19.0;"SFR"
452024;1.71000;49.01694;"01° 42' 36.00'' Est, 49° 01' 01.00'' Nord";"78239";;"R DE BEL-AIR  CHÂTEAU D'EAU";"78520";"FOLLAINVILLE-DENNEMONT";"Château d'eau - réservoir"; 56.0;"Syndicat des eaux, Adduction"
452029;2.09000;48.86528;"02° 05' 24.00'' Est, 48° 51' 55.00'' Nord";"78372";"LES DÉLICES";"1 PLACE VICTORIEN SARDOU AXA ASSURANCES BÂTIMENT C";"78160";"MARLY-LE-ROI";"Immeuble"; 33.0;"Société Privée SA"
452226;1.94278;48.63361;"01° 56' 34.00'' Est, 48° 38' 01.00'' Nord";"78125";"LA VILLENEUVE";"PRÈS D.72";"78720";"LA CELLE-LES-BORDES";"Château d'eau - réservoir"; 41.0;"Commune, communauté de commune"
453351;1.84972;48.90444;"01° 50' 59.00'' Est, 48° 54' 16.00'' Nord";"78380";"ST JACQUES";"CHEM RURAL N°44 DES LONGUES RAIES";"78580";"MAULE";"Pylône autostable"; 40.0;"TDF"
455723;2.15167;48.76917;"02° 09' 06.00'' Est, 48° 46' 09.00'' Nord";"78322";;"54 R CHARLES DE GAULLE MUSÉE DE LA TOILE DE JOUY";"78350";"JOUY-EN-JOSAS";"Bâtiment"; 19.0;"Commune, communauté de commune"
457741;2.01500;48.84333;"02° 00' 54.00'' Est, 48° 50' 36.00'' Nord";"78674";;"R DES GRAND'MAISONS";"78450";"VILLEPREUX";"Pylône autostable"; 20.0;"SFR"
457800;1.83833;48.73583;"01° 50' 18.00'' Est, 48° 44' 09.00'' Nord";"78108";"LES PLAINVAUX";"CHEM RURAL N° 6 DE LA MARE COLIN";"78610";"LES BREVIAIRES";"Pylône autostable"; 26.0;"ORANGE"
458065;2.16306;48.93028;"02° 09' 47.00'' Est, 48° 55' 49.00'' Nord";"78586";;"14  AV DE TOBROUK";"78500";"SARTROUVILLE";"Immeuble"; 15.7;"Société HLM"
458088;1.82861;48.62778;"01° 49' 43.00'' Est, 48° 37' 40.00'' Nord";"78517";;"10 R D ORPHIN CC BEL AIR CARREFOUR";"78120";"RAMBOUILLET";"Bâtiment"; 10.0;"Société Privée SA"
458122;2.04333;48.97278;"02° 02' 36.00'' Est, 48° 58' 22.00'' Nord";"78015";;"R SALVADOR ALLENDE ZA LES GAUDINES PROCHE DE RD 55";"78570";"ANDRESY";"Pylône autostable"; 38.0;"BOUYGUES"
458152;1.51306;49.07444;"01° 30' 47.00'' Est, 49° 04' 28.00'' Nord";"78503";;"CHEM DU PONCEAU - LE GRAND VAL SILO DESAFFECTE";"78270";"PORT-VILLEZ";"Silo"; 26.0;"Société Privée SA"
459743;2.16861;48.78389;"02° 10' 07.00'' Est, 48° 47' 02.00'' Nord";"78640";;"2B - 4 ET 6  R DE LA DIVISION LECLERC RÉS MOZART - IMM N°4 ET 6";"78140";"VELIZY-VILLACOUBLAY";"Immeuble"; 32.0;"Copropriété, Syndic, SCI"
460412;2.12472;48.78833;"02° 07' 29.00'' Est, 48° 47' 18.00'' Nord";"78646";;"RÉSÉRVOIR DE SATORY QUARTIER DU GÉNÉRAL JAYAT";"78000";"VERSAILLES";"Château d'eau - réservoir"; 40.0;"Syndicat des eaux, Adduction"
460443;1.72833;48.94500;"01° 43' 42.00'' Est, 48° 56' 42.00'' Nord";"78291";"LE MURGET DES MARGUERITES";"CHEM RURAL N° 21";"78930";"GUERVILLE";"Pylône autostable"; 25.5;"FPS TOWERS"
460700;1.69944;48.99500;"01° 41' 58.00'' Est, 48° 59' 42.00'' Nord";"78361";;"111 R DE LA LIBERTÉ";"78200";"MANTES-LA-JOLIE";"Château d'eau - réservoir"; 29.0;"Société Privée SA"
460852;1.91917;48.55583;"01° 55' 09.00'' Est, 48° 33' 21.00'' Nord";"78499";"LA TERRE DU MESNIL";"CHATEAU DOMANIALE DU BREAU CHEM RURAL DE PONTHEVRARD A ST ARNOULT";"78730";"PONTHEVRARD";"Château d'eau - réservoir"; 65.0;"Syndicat des eaux, Adduction"
461720;2.08444;48.88944;"02° 05' 04.00'' Est, 48° 53' 22.00'' Nord";"78551";;"N13 AU SUD PROCHE R ROBERT FRAPPESAUCE";"78100";"SAINT-GERMAIN-EN-LAYE";"Pylône autostable"; 44.0;"TDF"
461724;1.71778;48.98972;"01° 43' 04.00'' Est, 48° 59' 23.00'' Nord";"78361";;"3 R CADOTTE R NATIONALE";"78200";"MANTES-LA-JOLIE";"Bâtiment"; 23.0;"Société Privée SA"
461731;2.15333;48.78639;"02° 09' 12.00'' Est, 48° 47' 11.00'' Nord";"78646";;"PONT COLBERT  A86  BOIS DE SATORY";"78000";"VERSAILLES";"Pylône autostable"; 38.0;"DDE"
462000;1.98250;48.77472;"01° 58' 57.00'' Est, 48° 46' 29.00'' Nord";"78621";;"10 B , SQ WALLON";"78190";"TRAPPES";"Immeuble"; 33.3;"Société HLM"
463109;1.80333;48.96278;"01° 48' 12.00'' Est, 48° 57' 46.00'' Nord";"78402";"LA VALLÉE";"RUE GEORGES DESCHAMPS";"78970";"MEZIERES-SUR-SEINE";"Pylône autostable"; 27.0;"FPS TOWERS"
463604;2.03278;48.69750;"02° 01' 58.00'' Est, 48° 41' 51.00'' Nord";"78160";"LES CHARBONNIERS";"RTE DE CHOISEL PROCHE STATION POMPAGE";"78460";"CHEVREUSE";"Pylône tubulaire"; 32.0;"Commune, communauté de commune"
463666;1.89556;48.96306;"01° 53' 44.00'' Est, 48° 57' 47.00'' Nord";"78090";;"RUE DU CHATEAU D'EAU";"78410";"BOUAFLE";"Château d'eau - réservoir"; 24.0;"Commune, communauté de commune"
463678;1.90583;49.02194;"01° 54' 21.00'' Est, 49° 01' 19.00'' Nord";"78261";"ERMITAGE DU CLOS VIGNY";"CHEM DE MEULAN À MAGNY EN VEXIN";"78250";"GAILLON-SUR-MONTCIENT";"Pylône autostable"; 21.0;"FPS TOWERS"
464216;1.86222;48.97028;"01° 51' 44.00'' Est, 48° 58' 13.00'' Nord";"78238";;"LES CHEVRIS INTERSECT A 13 ET RD 14 SENS PARIS PROVINCE";"78410";"FLINS-SUR-SEINE";"Pylône autostable"; 30.0;"FPS TOWERS"
464517;1.96722;48.76250;"01° 58' 02.00'' Est, 48° 45' 45.00'' Nord";"78208";;"LA GRANDE VILLEDIEU RD58 / BRETELLE N10";"78990";"ELANCOURT";"Pylône autostable"; 32.0;"SNCF Réseau"
464627;2.04806;48.92472;"02° 02' 53.00'' Est, 48° 55' 29.00'' Nord";"78498";"CITÉ MABILLE";"48-52 AV FERNAND LEFEBVE";"78300";"POISSY";"Immeuble"; 44.0;"Société HLM"
465109;1.85722;48.99556;"01° 51' 26.00'' Est, 48° 59' 44.00'' Nord";"78327";;"CHEM DES CLOS RENARDS";"78820";"JUZIERS";"Pylône autostable"; 20.0;"SFR"
465234;1.97000;48.85944;"01° 58' 12.00'' Est, 48° 51' 34.00'' Nord";"78152";"LE PETIT AULNAY";"R DE DAVRON";"78450";"CHAVENAY";"Pylône autostable"; 12.0;"FPS TOWERS"
465314;1.98500;48.97611;"01° 59' 06.00'' Est, 48° 58' 34.00'' Nord";"78643";;"74 A ALL DES RÉSÉDAS IMM DE LA RÉSIDENCE LE PARC";"78540";"VERNOUILLET";"Immeuble"; 44.1;"Société Privée SA"
465422;1.86861;48.66889;"01° 52' 07.00'' Est, 48° 40' 08.00'' Nord";"78655";"LA PATTE D'OIE";"IMP DE CLERAMBAULT";"78125";"VIEILLE-EGLISE-EN-YVELINES";"Pylône autostable"; 39.5;"FPS TOWERS"
465428;1.60667;49.03889;"01° 36' 24.00'' Est, 49° 02' 20.00'' Nord";"78255";"LA CROIX DU MOULIN";;"78840";"FRENEUSE";"Pylône tubulaire"; 27.0;"FPS TOWERS"
465955;1.91333;48.79833;"01° 54' 48.00'' Est, 48° 47' 54.00'' Nord";"78321";;"R DE CHATEAU VILAIN - N 12 - TUN DE PONTCHARTRAIN";"78760";"JOUARS-PONTCHARTRAIN";"Tunnel"; 5.8;"DDE"
465998;1.80472;48.98361;"01° 48' 17.00'' Est, 48° 59' 01.00'' Nord";"78267";;"R DU MONTOIR  RTE BREUIL";"78440";"GARGENVILLE";"Château d'eau - réservoir"; 45.0;"Commune, communauté de commune"
466815;2.08861;48.83611;"02° 05' 19.00'' Est, 48° 50' 10.00'' Nord";"78043";;"PMV SIRIUS - A12 PK 1.4 - SENS PROVINCE-PARIS";"78870";"BAILLY";"Ouvrage d'art (pont, viaduc)"; 9.0;"DDE"
466885;1.97556;48.82778;"01° 58' 32.00'' Est, 48° 49' 40.00'' Nord";"78165";;"16, R DES DAMES ZI DES DAMES";"78340";"LES CLAYES-SOUS-BOIS";"Pylône autostable"; 22.0;"ORANGE"
466937;2.12111;48.94056;"02° 07' 16.00'' Est, 48° 56' 26.00'' Nord";"78396";;"R DES GRANDS CHAMPS";"78600";"LE MESNIL-LE-ROI";"Château d'eau - réservoir"; 31.0;"Société HLM"
467036;1.56750;49.03444;"01° 34' 03.00'' Est, 49° 02' 04.00'' Nord";"78089";"BOIS CAHUE";"ZI - RN 13";"78270";"BONNIERES-SUR-SEINE";"Château d'eau - réservoir"; 54.8;"Copropriété, Syndic, SCI"
467109;2.00139;48.73361;"02° 00' 05.00'' Est, 48° 44' 01.00'' Nord";"78561";"LA BROSSE";"SENTE RURALE N°2 DE LA VALLÉE DE MISÈRE";"78470";"SAINT-LAMBERT";"Pylône autostable"; 36.0;"ORANGE"
467158;2.04583;48.78722;"02° 02' 45.00'' Est, 48° 47' 14.00'' Nord";"78423";;"AV DE LA GARE IMM. INTERNATIONAL";"78180";"MONTIGNY-LE-BRETONNEUX";"Immeuble"; 38.5;"Copropriété, Syndic, SCI"
467551;1.74639;48.66361;"01° 44' 47.00'' Est, 48° 39' 49.00'' Nord";"78497";"LA GROSSE HAIE";"CHEM DES CORNIERS";"78125";"POIGNY-LA-FORET";"Tour hertzienne"; 83.0;"ORANGE Services Fixes"
468633;2.00556;48.64167;"02° 00' 20.00'' Est, 48° 38' 30.00'' Nord";"78120";;"R DU CLOS CLÉMENT CHÂTEAU D'EAU";"78830";"BULLION";"Château d'eau - réservoir"; 39.9;"Commune, communauté de commune"
468658;1.90056;48.83778;"01° 54' 02.00'' Est, 48° 50' 16.00'' Nord";"78550";;"R DE LA VALLÉE D'YART ROND POINT";"78640";"SAINT-GERMAIN-DE-LA-GRANGE";"Pylône autostable"; 27.5;"SFR"
469096;2.08278;48.77333;"02° 04' 58.00'' Est, 48° 46' 24.00'' Nord";"78297";;"47 RTE DE DAMPIERRE";"78280";"GUYANCOURT";"Immeuble"; 23.0;"Société HLM"
469502;2.13639;48.79694;"02° 08' 11.00'' Est, 48° 47' 49.00'' Nord";"78646";;"7 R DES CHANTIERS";"78000";"VERSAILLES";"Immeuble"; 27.0;"Société Privée SA"
469607;2.18972;48.92722;"02° 11' 23.00'' Est, 48° 55' 38.00'' Nord";"78311";;"19 B R BLAISE PASCAL";"78800";"HOUILLES";"Immeuble"; 23.0;"Société HLM"
469766;1.84722;48.97306;"01° 50' 50.00'' Est, 48° 58' 23.00'' Nord";"78029";"ELISABETHVILLE";"BD DE LA RÉPUBLIQUE CHATEAU D'EAU";"78410";"AUBERGENVILLE";"Château d'eau - réservoir"; 41.0;"Syndicat des eaux, Adduction"
469782;2.05556;48.70583;"02° 03' 20.00'' Est, 48° 42' 21.00'' Nord";"78160";;"R FABRE D'EGLANTINE";"78460";"CHEVREUSE";"Pylône autostable"; 28.0;"ORANGE"
469800;2.10028;48.79667;"02° 06' 01.00'' Est, 48° 47' 48.00'' Nord";"78646";;"1 R LUCIEN SERGENT GARE DES MATELOTS GARE SNCF";"78000";"VERSAILLES";"Pylône autostable"; 29.0;"SNCF Réseau"
469970;1.76000;49.02639;"01° 45' 36.00'' Est, 49° 01' 35.00'' Nord";"78246";;"V COMMUNALE N°3 STADE DE FOOTBALL";"78440";"FONTENAY-SAINT-PERE";"Pylône autostable"; 22.0;"FPS TOWERS"
471957;1.76722;48.56889;"01° 46' 02.00'' Est, 48° 34' 08.00'' Nord";"78470";"HAUTE MAISON";"R DU CHÂTEAU D'EAU";"78125";"ORPHIN";"Château d'eau - réservoir"; 34.0;"Syndicat des eaux, Adduction"
472961;1.86833;48.83139;"01° 52' 06.00'' Est, 48° 49' 53.00'' Nord";"78443";"LE PAVILLON";"CHEM DU PETIT NOYER";"78640";"NEAUPHLE-LE-VIEUX";"pylône arbre"; 27.0;"Particulier"
473420;1.97167;48.78861;"01° 58' 18.00'' Est, 48° 47' 19.00'' Nord";"78208";"BUTTE DE LA REVANCHE";"ZI DES BRUYÈRES D 912";"78990";"ELANCOURT";"Pylône autostable"; 56.0;"TDF"
474246;1.91583;48.97667;"01° 54' 57.00'' Est, 48° 58' 36.00'' Nord";"78440";;"11 ALL GEORGES BIZET";"78130";"LES MUREAUX";"Immeuble"; 45.4;"Société HLM"
475297;1.54306;48.94278;"01° 32' 35.00'' Est, 48° 56' 34.00'' Nord";"78107";;"18 AV NOEL DUCHESNE";"78980";"BREVAL";"Silo"; 27.8;"Société Privée SA"
476568;1.96639;48.75833;"01° 57' 59.00'' Est, 48° 45' 30.00'' Nord";"78644";;"1 RÉS. DU BOIS DE L ETANG";"78320";"LA VERRIERE";"Immeuble"; 45.0;"Société HLM"
477651;1.81028;48.96472;"01° 48' 37.00'' Est, 48° 57' 53.00'' Nord";"78217";;"ZI LES ARDILLES ETS MANTOVANI FRÈRES";"78680";"EPONE";"Pylône autostable"; 40.0;"SFR"
478623;2.20139;48.94500;"02° 12' 05.00'' Est, 48° 56' 42.00'' Nord";"78586";;"1 R MAURICE AUDIN";"78500";"SARTROUVILLE";"Immeuble"; 61.0;"Société HLM"
480664;2.05556;48.69861;"02° 03' 20.00'' Est, 48° 41' 55.00'' Nord";"78160";"BOIS DE VESSERY";"CHEM RURAL NO 22";"78460";"CHEVREUSE";"Pylône autostable"; 43.0;"TDF"
481273;2.04389;48.79194;"02° 02' 38.00'' Est, 48° 47' 31.00'' Nord";"78423";;"4 SQ NEWTON LE PAS DU LAC";"78180";"MONTIGNY-LE-BRETONNEUX";"Immeuble"; 30.0;"ORANGE Services Fixes"
481494;2.13722;48.80389;"02° 08' 14.00'' Est, 48° 48' 14.00'' Nord";"78646";;"52 , T AV DE ST CLOUD CLINIQUE AUMONT";"78000";"VERSAILLES";"Immeuble"; 19.0;"Etablissement de soins"
482251;2.04611;48.78139;"02° 02' 46.00'' Est, 48° 46' 53.00'' Nord";"78297";;"43 BD  VAUBAN IMM EDISON";"78280";"GUYANCOURT";"Immeuble"; 35.0;"Copropriété, Syndic, SCI"
482255;1.91556;48.85444;"01° 54' 56.00'' Est, 48° 51' 16.00'' Nord";"78615";"LES FONTENELLES";"CHEM RURAL N° 39";"78850";"THIVERVAL-GRIGNON";"Pylône autostable"; 24.0;"ORANGE"
482505;2.08194;48.90972;"02° 04' 55.00'' Est, 48° 54' 35.00'' Nord";"78551";;"RTE DE LA MARE DE POISSY  TUNNEL A.14 - POINT N";"78100";"SAINT-GERMAIN-EN-LAYE";"Tunnel"; 10.0;"DDE"
483246;1.71083;48.97778;"01° 42' 39.00'' Est, 48° 58' 40.00'' Nord";"78362";;"98 R MAURICE BERTEAUX A13 TUNNEL DE MANTES LA VILLE";"78711";"MANTES-LA-VILLE";"Tunnel"; 6.6;"Société Privée SA"
483343;2.01389;48.88361;"02° 00' 50.00'' Est, 48° 53' 01.00'' Nord";"78233";;"A13 SENS PROVINCE-PARIS PR20.5 FORÊT DE MARLY";"78810";"FEUCHEROLLES";"Ouvrage de signalisation (portique routier, panneau routier, panneau publicitaire)"; 7.0;"DDE"
483465;2.07333;48.84861;"02° 04' 24.00'' Est, 48° 50' 55.00'' Nord";"78043";;"A.13 - PK 14,6 - SENS ROUEN/PARIS PMV SIRIUS";"78870";"BAILLY";"Ouvrage de signalisation (portique routier, panneau routier, panneau publicitaire)"; 9.9;"DDE"
483525;2.09361;48.84222;"02° 05' 37.00'' Est, 48° 50' 32.00'' Nord";"78043";"A13/TRIANGLE DE ROCQUENCOURT";"CEI RELAIS DE L'A";"78870";"BAILLY";"Pylône tubulaire"; 30.0;"ORANGE"
485154;2.07778;48.91528;"02° 04' 40.00'' Est, 48° 54' 55.00'' Nord";"78551";"CAMP DES LOGES";"R DU PRÉSIDENT KENNEDY";"78100";"SAINT-GERMAIN-EN-LAYE";"Pylône tubulaire"; 66.0;"TDF"
486253;2.10972;48.84000;"02° 06' 35.00'' Est, 48° 50' 24.00'' Nord";"78524";;"RTE DE VERSAILLES CHEM DU TROU D'ENFER CENTRE TECHNIQUE DIRIF";"78150";"ROCQUENCOURT";"Pylône autostable"; 41.0;"SFR"
492824;2.04611;48.80806;"02° 02' 46.00'' Est, 48° 48' 29.00'' Nord";"78242";;"35, 37 AV DE LA REPUBLIQUE";"78330";"FONTENAY-LE-FLEURY";"Bâtiment"; 12.0;"Société Privée SA"
492931;1.74667;48.79944;"01° 44' 48.00'' Est, 48° 47' 58.00'' Nord";"78513";"BOIS DE LA COUARDE";"R DE LA COUARDE - N.12 SENS PARIS/DREUX";"78940";"LA QUEUE-LES-YVELINES";"Ouvrage d'art (pont, viaduc)"; 6.0;"DDE"
493550;1.91361;48.99333;"01° 54' 49.00'' Est, 48° 59' 36.00'' Nord";"78440";;"27 R PAUL RAOULT";"78130";"LES MUREAUX";"Immeuble"; 40.0;"Société Privée SA"
494654;1.98083;48.78444;"01° 58' 51.00'' Est, 48° 47' 04.00'' Nord";"78621";;"6 SQ ALBERT CAMUS";"78190";"TRAPPES";"Immeuble"; 32.0;"Société HLM"
501074;2.15056;48.78167;"02° 09' 02.00'' Est, 48° 46' 54.00'' Nord";"78322";;"GOLF DE LA BOULIE RACING CLUB DE FRANCE";"78350";"JOUY-EN-JOSAS";"Bâtiment"; 15.0;"Particulier"
507471;2.02389;48.91917;"02° 01' 26.00'' Est, 48° 55' 09.00'' Nord";"78498";;"10 R DU CHAMP GAILLARD - HOP";"78300";"POISSY";"Immeuble"; 30.0;"Particulier"
507473;2.08444;48.89861;"02° 05' 04.00'' Est, 48° 53' 55.00'' Nord";"78551";;"20 R ARMAGIS - HOP";"78105";"SAINT-GERMAIN-EN-LAYE";"Local technique"; 15.0;"Particulier"
507483;1.85722;48.75444;"01° 51' 26.00'' Est, 48° 45' 16.00'' Nord";"78576";;"R DES PATIS";"78690";"SAINT-REMY-L'HONORE";"Pylône autostable"; 40.0;"RTE"
508208;1.59361;49.02528;"01° 35' 37.00'' Est, 49° 01' 31.00'' Nord";"78255";"LES COUTUMES";"DOMAINE DU GALICET";"78840";"FRENEUSE";"Pylône autostable"; 30.0;"ORANGE"
509034;1.97889;48.80333;"01° 58' 44.00'' Est, 48° 48' 12.00'' Nord";"78490";;"3 R ELSA TRIOLET ZI DES GÂTINES";"78370";"PLAISIR";"Bâtiment"; 24.3;"Société Privée SA"
509560;2.10389;48.84278;"02° 06' 14.00'' Est, 48° 50' 34.00'' Nord";"78350";;"68 RTE DE VERSAILLES";"78430";"LOUVECIENNES";"Pylône autostable"; 36.0;"Société Privée SA"
510791;2.09778;48.71306;"02° 05' 52.00'' Est, 48° 42' 47.00'' Nord";"78575";;"CHEM AIGREFOIN";"78470";"SAINT-REMY-LES-CHEVREUSE";"Pylône autostable"; 47.0;"RTE"
510835;2.10889;48.85861;"02° 06' 32.00'' Est, 48° 51' 31.00'' Nord";"78350";;"PARC DE LA PELOUSE";"78430";"LOUVECIENNES";"pylône arbre"; 35.0;"ORANGE"
510842;1.69917;48.84444;"01° 41' 57.00'' Est, 48° 50' 40.00'' Nord";"78465";"LA FONTAINE DES CARREAUX";"R DE L'AUNAY";"78910";"ORGERUS";"Pylône autostable"; 37.0;"FPS TOWERS"
511029;1.88778;49.01000;"01° 53' 16.00'' Est, 49° 00' 36.00'' Nord";"78299";"CLOS MALINES";"R DE LA CHESNAYE";"78250";"HARDRICOURT";"Pylône autostable"; 32.0;"ORANGE"
511289;1.93944;48.76889;"01° 56' 22.00'' Est, 48° 46' 08.00'' Nord";"78383";;"R DE PICARDIE CTRE NAUTIQUE";"78310";"MAUREPAS";"Pylône autostable"; 32.0;"ORANGE"
511292;1.91500;48.75861;"01° 54' 54.00'' Est, 48° 45' 31.00'' Nord";"78383";;"4 R DU COMMERCE DECHETTERIE MUNICIPALE";"78310";"MAUREPAS";"Pylône tubulaire"; 28.0;"SFR"
511294;1.93472;48.76528;"01° 56' 05.00'' Est, 48° 45' 55.00'' Nord";"78383";;"1-3 SQ DU MAINE";"78310";"MAUREPAS";"Immeuble"; 31.0;"Copropriété, Syndic, SCI"
512191;2.13639;48.84861;"02° 08' 11.00'' Est, 48° 50' 55.00'' Nord";"78126";;"8 AV CHARLES DE GAULLE";"78170";"LA CELLE-SAINT-CLOUD";"Immeuble"; 34.0;"Commune, communauté de commune"
512326;2.01083;48.79722;"02° 00' 39.00'' Est, 48° 47' 50.00'' Nord";"78423";"LA BUTTE DU MOULIN";"ZA DE BOIS D'ARCY BRETELLE D'ACCES N12";"78180";"MONTIGNY-LE-BRETONNEUX";"Pylône tubulaire"; 28.0;"SFR"
512722;1.74389;48.96833;"01° 44' 38.00'' Est, 48° 58' 06.00'' Nord";"78291";"HALTE DE GUERVILLE";"AIRE DE REPOS";"78930";"GUERVILLE";"Pylône autostable"; 45.0;"Sociétés d'Autoroutes"
512784;1.97833;48.56611;"01° 58' 42.00'' Est, 48° 33' 58.00'' Nord";"78349";"REMISE DES BOULEAUX";"PRÈS A.10 - PK 20.330 - SENS PARIS-PROVINCE ECH DE DOURDAN";"78730";"LONGVILLIERS";"Pylône autostable"; 33.0;"SFR"
513357;1.82389;48.64667;"01° 49' 26.00'' Est, 48° 38' 48.00'' Nord";"78517";;"PL JEANNE D'ARC EGLISE ST LUBIN";"78120";"RAMBOUILLET";"Monument religieux"; 56.0;"Commune, communauté de commune"
513601;1.65000;48.77806;"01° 38' 60.00'' Est, 48° 46' 41.00'' Nord";"78263";"LA GROSSE HAIE";"R C 4";"78950";"GAMBAIS";"Pylône tubulaire"; 25.0;"SFR"
514361;1.68056;48.67389;"01° 40' 50.00'' Est, 48° 40' 26.00'' Nord";"78077";"LA BUTTE RONDE";"CHEM DE L'ABIME - DOMAINE DE LA BUTTE RONDE";"78125";"LA BOISSIERE-ECOLE";"Bâtiment"; 10.0;"Société Privée SA"
514487;1.66528;49.06472;"01° 39' 55.00'' Est, 49° 03' 53.00'' Nord";"78410";"LES HAUTES MONETTES";"R DE LA BALLONIÈRE - D.124";"78840";"MOISSON";"Château d'eau - réservoir"; 26.8;"Commune, communauté de commune"
518510;1.82889;48.63361;"01° 49' 44.00'' Est, 48° 38' 01.00'' Nord";"78517";;"1 AV DU MARECHAL JUIN";"78120";"RAMBOUILLET";"Immeuble"; 25.5;"Copropriété, Syndic, SCI"
518544;1.92250;48.61611;"01° 55' 21.00'' Est, 48° 36' 58.00'' Nord";"78164";"CENTRE TECHNIQUE NATIONAL DE F";"CHEM DES BRUYERES";"78120";"CLAIREFONTAINE-EN-YVELINES";"Pylône autostable"; 28.8;"BOUYGUES"
518562;1.60333;49.00500;"01° 36' 12.00'' Est, 49° 00' 18.00'' Nord";"78531";"LE CLOS BROCHARD";"R DE LA VALLÉE DES PRÉS";"78710";"ROSNY-SUR-SEINE";"Pylône autostable"; 42.8;"Sociétés d'Autoroutes"
518734;1.74722;48.96306;"01° 44' 50.00'' Est, 48° 57' 47.00'' Nord";"78291";"LA PLAGNE";"R DE BELLEVUE";"78930";"GUERVILLE";"Pylône autostable"; 37.0;"Towercast"
519458;2.12139;49.01222;"02° 07' 17.00'' Est, 49° 00' 44.00'' Nord";"78172";"LA JUSTICE";"R DU BOIS D'AULNE  STADE CLAUDE FICHOT";"78700";"CONFLANS-SAINTE-HONORINE";"Pylône autostable"; 32.2;"FPS TOWERS"
521645;1.96806;48.66556;"01° 58' 05.00'' Est, 48° 39' 56.00'' Nord";"78128";"LA DOUAIRIERE";"RTE DÉPART. 72";"78720";"CERNAY-LA-VILLE";"Château d'eau - réservoir"; 72.0;"Syndicat des eaux, Adduction"
521696;1.99778;48.82833;"01° 59' 52.00'' Est, 48° 49' 42.00'' Nord";"78674";;"50 AV DE ST ONGE PL ST VINCENT DE PAUL";"78450";"VILLEPREUX";"Bâtiment"; 28.5;"Société HLM"
521801;1.90944;48.80000;"01° 54' 34.00'' Est, 48° 47' 60.00'' Nord";"78321";"DOMAINE DE LA FUTAIE";"CHEM DE LA VALL CRESPIN - CHATEAU D'EAU";"78760";"JOUARS-PONTCHARTRAIN";"Château d'eau - réservoir"; 39.0;"Commune, communauté de commune"
523074;2.16028;48.90028;"02° 09' 37.00'' Est, 48° 54' 01.00'' Nord";"78146";;"58, BD JEAN JAURÈS";"78400";"CHATOU";"Immeuble"; 30.0;"Société HLM"
524118;1.85778;48.85944;"01° 51' 28.00'' Est, 48° 51' 34.00'' Nord";"78062";"LES CAILLOUX";"R DE LA COUPERIE-PRES DE LA D119";"78650";"BEYNES";"Pylône autostable"; 37.6;"TDF"
524127;1.74278;48.99944;"01° 44' 34.00'' Est, 48° 59' 58.00'' Nord";"78335";;"1-2-3 ALLÉE D'ALEMBERT";"78520";"LIMAY";"Immeuble"; 15.0;"Société HLM"
524134;1.92417;48.98111;"01° 55' 27.00'' Est, 48° 58' 52.00'' Nord";"78440";;"R ALBERT THOMAS CHÂTEAU D'EAU DES MUREAUX";"78130";"LES MUREAUX";"Château d'eau - réservoir"; 36.0;"Commune, communauté de commune"
524176;1.96667;48.78056;"01° 58' 00.00'' Est, 48° 46' 50.00'' Nord";"78208";;"34 ROUTE DE TRAPPES CENTRE TECHNIQUE MUNICIPAL";"78990";"ELANCOURT";"Bâtiment"; 27.0;"Commune, communauté de commune"
524414;1.67861;48.98306;"01° 40' 43.00'' Est, 48° 58' 59.00'' Nord";"78118";"LA VOIE DE MANTES";"R JEAN-LOUIS SCIALLOUX COMPLEXE SPORTIF";"78200";"BUCHELAY";"Pylône autostable"; 25.0;"BOUYGUES"
524594;1.90639;48.98278;"01° 54' 23.00'' Est, 48° 58' 58.00'' Nord";"78440";"BOIS DES REMISES";"R PIERRE BÉRÉGOVOY";"78130";"LES MUREAUX";"Château d'eau - réservoir"; 53.0;"Commune, communauté de commune"
525128;2.03917;48.76722;"02° 02' 21.00'' Est, 48° 46' 02.00'' Nord";"78423";;"53 BD DESCARTES";"78180";"MONTIGNY-LE-BRETONNEUX";"Immeuble"; 20.0;"Société HLM"
525761;1.60500;48.95333;"01° 36' 18.00'' Est, 48° 57' 12.00'' Nord";"78385";;"6 VOIE COMMUNALE";"78200";"MENERVILLE";"Château d'eau - réservoir"; 42.5;"Syndicat des eaux, Adduction"
526265;2.09361;48.77556;"02° 05' 37.00'' Est, 48° 46' 32.00'' Nord";"78297";"LA MINIÈRE";"RTE DE DAMPIERRE - SENTE DU BREUIL";"78280";"GUYANCOURT";"Pylône tubulaire"; 34.0;"ORANGE"
526364;1.64639;48.82889;"01° 38' 47.00'' Est, 48° 49' 44.00'' Nord";"78520";"LE CHENE À THOMAS";"CHEM DE LA BUTTE ROUGE";"78550";"RICHEBOURG";"Pylône autostable"; 35.0;"SFR"
526776;1.61083;49.02556;"01° 36' 39.00'' Est, 49° 01' 32.00'' Nord";"78255";"BOIS PREVOST";"CORNICHE DE ROLLEBOISE";"78840";"FRENEUSE";"Pylône tubulaire"; 31.5;"TDF"
526782;1.71167;48.99028;"01° 42' 42.00'' Est, 48° 59' 25.00'' Nord";"78361";;"48 AV REPUBLIQUE";"78200";"MANTES-LA-JOLIE";"Immeuble"; 25.6;"Copropriété, Syndic, SCI"
526876;1.89417;48.82500;"01° 53' 39.00'' Est, 48° 49' 30.00'' Nord";"78683";"LE HAUT DES SABLONS";"CHEM DES FORCERIES CR 12";"78640";"VILLIERS-SAINT-FREDERIC";"Pylône autostable"; 32.0;"SFR"
526899;1.95194;48.74722;"01° 57' 07.00'' Est, 48° 44' 50.00'' Nord";"78644";;"AV DE MONTFORT CHÂTEAU D'EAU";"78320";"LA VERRIERE";"Château d'eau - réservoir"; 45.3;"Syndicat des eaux, Adduction"
526911;2.06750;48.79750;"02° 04' 03.00'' Est, 48° 47' 51.00'' Nord";"78545";;"17-21 R ANDRÉ CORDIER VILLA DE L'EPI D'OR";"78210";"SAINT-CYR-L'ECOLE";"Immeuble"; 19.0;"Société HLM"
527217;1.94889;48.78222;"01° 56' 56.00'' Est, 48° 46' 56.00'' Nord";"78208";;"CHEM DE LA COUDRIETTE STADE PAUL NICOLAS";"78990";"ELANCOURT";"Pylône autostable"; 21.0;"Commune, communauté de commune"
527294;1.99167;48.77861;"01° 59' 30.00'' Est, 48° 46' 43.00'' Nord";"78621";;"3 SQ MAURICE THOREZ";"78190";"TRAPPES";"Immeuble"; 44.6;"Société HLM"
530240;1.60444;48.78889;"01° 36' 16.00'' Est, 48° 47' 20.00'' Nord";"78310";;"IMP DU STADE STADE MUNICIPAL DE HOUDAN";"78550";"HOUDAN";"Pylône autostable"; 22.0;"Commune, communauté de commune"
530543;2.05056;48.75778;"02° 03' 02.00'' Est, 48° 45' 28.00'' Nord";"78688";;"2 R AUX FLEURS";"78960";"VOISINS-LE-BRETONNEUX";"Monument religieux"; 26.0;"Commune, communauté de commune"
530550;2.15389;48.89000;"02° 09' 14.00'' Est, 48° 53' 24.00'' Nord";"78146";;"53/63 AV DU MARÉCHAL FOCH";"78400";"CHATOU";"Immeuble"; 31.0;"Copropriété, Syndic, SCI"
530634;1.94944;48.80167;"01° 56' 58.00'' Est, 48° 48' 06.00'' Nord";"78490";;"N.12 - ECH SORTIE Z.A. DE STE-APOLLINE";"78370";"PLAISIR";"Pylône autostable"; 25.0;"SFR"
530775;1.71667;48.96667;"01° 43' 00.00'' Est, 48° 58' 00.00'' Nord";"78362";;"21 R ROBERT DESNOS";"78711";"MANTES-LA-VILLE";"Immeuble"; 18.2;"Société HLM"
531373;1.82306;48.64861;"01° 49' 23.00'' Est, 48° 38' 55.00'' Nord";"78517";;"1 R PASTEUR 52 R GAMBETTA";"78120";"RAMBOUILLET";"Pylône tubulaire"; 35.0;"Gendarmerie"
531651;1.98528;48.70472;"01° 59' 07.00'' Est, 48° 42' 17.00'' Nord";"78193";;"15  GRANDE RUE";"78720";"DAMPIERRE-EN-YVELINES";"Monument religieux"; 28.0;"Commune, communauté de commune"
532167;2.04500;48.74361;"02° 02' 42.00'' Est, 48° 44' 37.00'' Nord";"78356";;"7 R JEANNE ET PAUL WEISS - BROUESSY BROUESSY";"78114";"MAGNY-LES-HAMEAUX";"Pylône autostable"; 37.3;"ORANGE"
532385;1.91667;48.76194;"01° 54' 60.00'' Est, 48° 45' 43.00'' Nord";"78383";;"327 AV GUTENBERG - AUCHAN";"78310";"MAUREPAS";"Bâtiment"; 13.0;"Société Privée SA"
532540;2.09750;48.99806;"02° 05' 51.00'' Est, 48° 59' 53.00'' Nord";"78172";;"R AUGUSTE ROMAGNE";"78700";"CONFLANS-SAINTE-HONORINE";"Immeuble"; 25.0;"Société HLM"
532596;2.16583;48.80333;"02° 09' 57.00'' Est, 48° 48' 12.00'' Nord";"78686";;"2 R DE L'ABBE DALLOZ";"78220";"VIROFLAY";"Immeuble"; 30.0;"Société HLM"
532703;2.06889;48.89528;"02° 04' 08.00'' Est, 48° 53' 43.00'' Nord";"78551";;"10 R FRANCOIS COUPERIN";"78100";"SAINT-GERMAIN-EN-LAYE";"Immeuble"; 46.5;"Société HLM"
532728;2.08444;48.72750;"02° 05' 04.00'' Est, 48° 43' 39.00'' Nord";"78356";"STADE JACQUES ANQUETIL";"R DES ECOLES";"78114";"MAGNY-LES-HAMEAUX";"Pylône tubulaire"; 26.5;"BOUYGUES"
532763;2.00611;48.97389;"02° 00' 22.00'' Est, 48° 58' 26.00'' Nord";"78624";;"31B R PAUL DOUMER RÉSIDENCE LES RÉGATES";"78510";"TRIEL-SUR-SEINE";"Immeuble"; 21.0;"Société HLM"
532838;1.72250;48.98389;"01° 43' 21.00'' Est, 48° 59' 02.00'' Nord";"78361";;"19 R DU COTEAU";"78200";"MANTES-LA-JOLIE";"Immeuble"; 27.2;"Société HLM"
533413;2.06611;48.79806;"02° 03' 58.00'' Est, 48° 47' 53.00'' Nord";"78545";;"53, 57 AV PIERRE CURIE  IMM LE GOLESTAN";"78210";"SAINT-CYR-L'ECOLE";"Immeuble"; 18.0;"Société Privée SA"
533654;1.76139;49.02611;"01° 45' 41.00'' Est, 49° 01' 34.00'' Nord";"78246";;"LE CLOS HUET";"78440";"FONTENAY-SAINT-PERE";"Pylône tubulaire"; 21.8;"Commune, communauté de commune"
534687;2.00972;48.94861;"02° 00' 35.00'' Est, 48° 56' 55.00'' Nord";"78624";"LES BOUVERIES";"CHEM DES GRAVIERS AUX MOINES";"78510";"TRIEL-SUR-SEINE";"Pylône autostable"; 27.1;"Société Privée SA"
535077;1.76000;48.99028;"01° 45' 36.00'' Est, 48° 59' 25.00'' Nord";"78335";;"4, R FERNAND FOREST ZI DE LIMAY / PORCHEVILLE";"78520";"LIMAY";"Pylône autostable"; 52.3;"SFR"
535469;2.08944;48.99278;"02° 05' 22.00'' Est, 48° 59' 34.00'' Nord";"78172";;"1 R DES NONNAINS";"78700";"CONFLANS-SAINTE-HONORINE";"Immeuble"; 22.3;"Société HLM"
535978;2.14639;48.87917;"02° 08' 47.00'' Est, 48° 52' 45.00'' Nord";"78190";;"PL DE L'EGLISE";"78290";"CROISSY-SUR-SEINE";"Monument religieux"; 44.0;"Commune, communauté de commune"
536461;1.48361;49.02056;"01° 29' 01.00'' Est, 49° 01' 14.00'' Nord";"78147";"LA FOSSE CORNE";"ROUTE DE BLARU D 52";"78270";"CHAUFOUR-LES-BONNIERES";"Château d'eau - réservoir"; 42.0;"Syndicat des eaux, Adduction"
536847;2.14139;48.89611;"02° 08' 29.00'' Est, 48° 53' 46.00'' Nord";"78650";;"R DES RESERVOIRS CHÂTEAU D'EAU";"78110";"LE VESINET";"Château d'eau - réservoir"; 47.0;"Syndicat des eaux, Adduction"
537868;2.15639;48.79528;"02° 09' 23.00'' Est, 48° 47' 43.00'' Nord";"78646";;"93 R YVES LE COZ PORCHEFONTAINE";"78000";"VERSAILLES";"Bâtiment"; 27.0;"Copropriété, Syndic, SCI"
537895;2.15111;48.79944;"02° 09' 04.00'' Est, 48° 47' 58.00'' Nord";"78646";;"2 R ST CHARLES";"78000";"VERSAILLES";"Immeuble"; 32.8;"Société HLM"
537920;1.71361;48.97806;"01° 42' 49.00'' Est, 48° 58' 41.00'' Nord";"78362";;"ROUTE DE HOUDAN";"78711";"MANTES-LA-VILLE";"Bâtiment"; 18.0;"Commune, communauté de commune"
538353;2.14611;48.86000;"02° 08' 46.00'' Est, 48° 51' 36.00'' Nord";"78126";;"CHÂTEAU D'EAU DE LA CELLE ST CLOUD CHEM DE FROID CUL";"78170";"LA CELLE-SAINT-CLOUD";"Château d'eau - réservoir"; 23.0;"Syndicat des eaux, Adduction"
538407;2.08389;48.89917;"02° 05' 02.00'' Est, 48° 53' 57.00'' Nord";"78551";;"111-113  , R LÉON DESOYER";"78100";"SAINT-GERMAIN-EN-LAYE";"Château d'eau - réservoir"; 55.0;"Commune, communauté de commune"
539145;1.95444;48.76944;"01° 57' 16.00'' Est, 48° 46' 10.00'' Nord";"78208";;"2-3 ALLÉE DES  PAQUERETTES";"78990";"ELANCOURT";"Immeuble"; 32.0;"Société HLM"
540185;2.13528;48.81139;"02° 08' 07.00'' Est, 48° 48' 41.00'' Nord";"78646";;"58 R DU MARECHAL FOCH";"78000";"VERSAILLES";"Immeuble"; 30.5;"Copropriété, Syndic, SCI"
541366;2.15139;48.80806;"02° 09' 05.00'' Est, 48° 48' 29.00'' Nord";"78646";;"9 R ANTOINE RICHARD";"78000";"VERSAILLES";"Immeuble"; 24.0;"Société HLM"
541547;2.09444;48.95583;"02° 05' 40.00'' Est, 48° 57' 21.00'' Nord";"78551";"ACHÈRES GARE GRAND CORMIER";"GARE D'ACHERES FORET DE ST GERMAIN-N184";"78100";"SAINT-GERMAIN-EN-LAYE";"Pylône autostable"; 47.9;"SFR"
544017;1.55833;49.02639;"01° 33' 30.00'' Est, 49° 01' 35.00'' Nord";"78089";;"ROUTE DE VILLENEUVE EN CHEVERIE GR 26";"78270";"BONNIERES-SUR-SEINE";"Pylône autostable"; 37.0;"SFR"
544123;2.18667;48.80056;"02° 11' 12.00'' Est, 48° 48' 02.00'' Nord";"78686";;"20, R DE JOUY";"78220";"VIROFLAY";"Immeuble"; 26.0;"Société Privée SA"
544136;2.17444;48.93500;"02° 10' 28.00'' Est, 48° 56' 06.00'' Nord";"78586";;"77 R HENRI BRISSON";"78500";"SARTROUVILLE";"Bâtiment"; 18.7;"Copropriété, Syndic, SCI"
545310;2.18639;48.93861;"02° 11' 11.00'' Est, 48° 56' 19.00'' Nord";"78586";;"97 R GUY MOQUET";"78500";"SARTROUVILLE";"Immeuble"; 12.6;"Copropriété, Syndic, SCI"
545336;1.80333;48.77694;"01° 48' 12.00'' Est, 48° 46' 37.00'' Nord";"78420";;"R ST LAURENT PARC ST LAURENT";"78490";"MONTFORT-L'AMAURY";"pylône arbre"; 26.0;"BOUYGUES"
545399;2.09639;48.87417;"02° 05' 47.00'' Est, 48° 52' 27.00'' Nord";"78372";;"21-23 R DU CLOS COURCHE";"78160";"MARLY-LE-ROI";"Immeuble"; 29.0;"ORANGE Services Fixes"
545403;2.08556;48.87333;"02° 05' 08.00'' Est, 48° 52' 24.00'' Nord";"78372";;"2 R DES POTERIES";"78160";"MARLY-LE-ROI";"Immeuble"; 17.0;"Société Privée SA"
545405;2.08917;48.87639;"02° 05' 21.00'' Est, 48° 52' 35.00'' Nord";"78372";;"39 , CHEM DES MAIGRETS RÉSIDENCE LES MAIGRET";"78160";"MARLY-LE-ROI";"Immeuble"; 24.0;"Société HLM"
545407;2.09556;48.87222;"02° 05' 44.00'' Est, 48° 52' 20.00'' Nord";"78372";;"5 R DE FONTENELLE";"78160";"MARLY-LE-ROI";"Immeuble"; 23.0;"Société HLM"
545412;2.03556;48.86639;"02° 02' 08.00'' Est, 48° 51' 59.00'' Nord";"78571";"RTE DE ST GERMAIN";"ANGLE NORD/EST CROISEMENT D98 ET A13";"78860";"SAINT-NOM-LA-BRETECHE";"Pylône autostable"; 44.0;"DDE"
545418;2.08167;48.87444;"02° 04' 54.00'' Est, 48° 52' 28.00'' Nord";"78372";;"11 R DES POTERIES";"78160";"MARLY-LE-ROI";"Immeuble"; 20.0;"Société HLM"
545761;2.02917;48.78167;"02° 01' 45.00'' Est, 48° 46' 54.00'' Nord";"78423";"LES QUATRES PAVÉS DU ROY";"RN.10 CHÂTEAU D'EAU 1";"78180";"MONTIGNY-LE-BRETONNEUX";"Château d'eau - réservoir"; 60.0;"Société Privée SA"
545862;2.05111;48.80389;"02° 03' 04.00'' Est, 48° 48' 14.00'' Nord";"78545";;"14-16 R GERARD  PHILIPPE";"78210";"SAINT-CYR-L'ECOLE";"Bâtiment"; 19.4;"Société HLM"
545990;2.05167;48.78917;"02° 03' 06.00'' Est, 48° 47' 21.00'' Nord";"78297";;"3 AV DU CENTRE IMM LES QUADRANTS";"78280";"GUYANCOURT";"Immeuble"; 41.0;"Particulier"
546396;1.94917;48.76833;"01° 56' 57.00'' Est, 48° 46' 06.00'' Nord";"78208";;"1 PL MENDÈS FRANCE CTRE ADMINISTRATIF DES SEPT MARES";"78990";"ELANCOURT";"Immeuble"; 31.4;"Commune, communauté de commune"
548746;1.81556;49.04222;"01° 48' 56.00'' Est, 49° 02' 32.00'' Nord";"78329";"LES BUISSONS AUX PRETRES";;"78440";"LAINVILLE-EN-VEXIN";"Pylône autostable"; 33.0;"FPS TOWERS"
551081;2.02167;48.92083;"02° 01' 18.00'' Est, 48° 55' 15.00'' Nord";"78498";;"113 R DE VILLIERS";"78300";"POISSY";"Immeuble"; 42.5;"Commune, communauté de commune"
551612;2.03722;48.80444;"02° 02' 14.00'' Est, 48° 48' 16.00'' Nord";"78073";"LA CHAPELLE ST JEAN";"70 R RAYMOND FALAIZE/53 R DE LA PAIX PL. DU 14 JUILLET";"78390";"BOIS-D'ARCY";"Château d'eau - réservoir"; 41.0;"Syndicat des eaux, Adduction"
551754;1.87806;48.66778;"01° 52' 41.00'' Est, 48° 40' 04.00'' Nord";"78655";;"LE CLOS DES ALOUETTES";"78125";"VIEILLE-EGLISE-EN-YVELINES";"Pylône autostable"; 30.0;"ORANGE"
551774;2.03778;48.95000;"02° 02' 16.00'' Est, 48° 57' 00.00'' Nord";"78123";"L'ARPENT DU PRIEUR";"AV DE L'HAUTIL";"78955";"CARRIERES-SOUS-POISSY";"Château d'eau - réservoir"; 36.1;"Syndicat des eaux, Adduction"
551788;2.02694;48.77944;"02° 01' 37.00'' Est, 48° 46' 46.00'' Nord";"78423";;"CHATEAU D'EAU DES 4 PAVES";"78180";"MONTIGNY-LE-BRETONNEUX";"Château d'eau - réservoir"; 70.0;"Syndicat des eaux, Adduction"
553278;2.12722;48.83694;"02° 07' 38.00'' Est, 48° 50' 13.00'' Nord";"78126";;"A13 SENS PARIS-PROVINCE BRETELLE APRÈS LE PONT N321/D307 PRES  QUARTIER  PETIT  BEAUREGARD";"78170";"LA CELLE-SAINT-CLOUD";"Ouvrage de signalisation (portique routier, panneau routier, panneau publicitaire)"; 7.0;"Etat, Ministère"
554616;2.06222;48.99861;"02° 03' 44.00'' Est, 48° 59' 55.00'' Nord";"78382";;"R DE PONTOISE/LUCIEN JULIA";"78780";"MAURECOURT";"Immeuble"; 21.0;"Société HLM"
555190;2.17139;48.76028;"02° 10' 17.00'' Est, 48° 45' 37.00'' Nord";"78322";;"1 R DE LA LIBÉRATION ENCEINTE DES HEC";"78350";"JOUY-EN-JOSAS";"Pylône autostable"; 38.0;"TDF"
555194;2.17639;48.79583;"02° 10' 35.00'' Est, 48° 47' 45.00'' Nord";"78686";;"AV DE VÉLIZY NOUVEAU CIMETIÈRE";"78220";"VIROFLAY";"Pylône autostable"; 46.0;"TDF"
555517;2.16944;48.78361;"02° 10' 10.00'' Est, 48° 47' 01.00'' Nord";"78640";;"7 R DE LA DIVISION LECLERC";"78140";"VELIZY-VILLACOUBLAY";"Immeuble"; 34.0;"Copropriété, Syndic, SCI"
555555;1.94250;48.75722;"01° 56' 33.00'' Est, 48° 45' 26.00'' Nord";"78644";;"4, R LOUIS NORMAND LA VERRIERE (N10) B";"78320";"LA VERRIERE";"Pylône autostable"; 27.0;"SFR"
557651;1.98500;48.82528;"01° 59' 06.00'' Est, 48° 49' 31.00'' Nord";"78165";;"1 R EMILE BAUDOT IMM HLM TOIT & JOIE";"78340";"LES CLAYES-SOUS-BOIS";"Immeuble"; 23.0;"Société HLM"
557726;1.94861;48.82861;"01° 56' 55.00'' Est, 48° 49' 43.00'' Nord";"78490";;"22 , R DES EBISOIRES LES PETITS PRÉS";"78370";"PLAISIR";"Immeuble"; 40.7;"Copropriété, Syndic, SCI"
557775;2.18528;48.92833;"02° 11' 07.00'' Est, 48° 55' 42.00'' Nord";"78311";;"45 R CAMILLE PELLETAN";"78800";"HOUILLES";"Immeuble"; 21.0;"Copropriété, Syndic, SCI"
557808;2.15528;48.81194;"02° 09' 19.00'' Est, 48° 48' 43.00'' Nord";"78646";;"2 ALLÉE HECTOR BERLIOZ HLM VERSAILLES HABITAT";"78000";"VERSAILLES";"Immeuble"; 34.1;"Société HLM"
558513;2.19333;48.94111;"02° 11' 36.00'' Est, 48° 56' 28.00'' Nord";"78586";;"1 R ST EXUPERY";"78500";"SARTROUVILLE";"Immeuble"; 26.0;"Société Privée SA"
558546;2.05583;48.79250;"02° 03' 21.00'' Est, 48° 47' 33.00'' Nord";"78297";"ETANG DU BOIS ROBERT";"N.286 PRÈS VOIE FERRÉE POSTE ÉLECTRIQUE DES SAULES PYLONE RTE HE29";"78280";"GUYANCOURT";"Pylône autostable"; 49.0;"RTE"
558934;1.71111;48.98861;"01° 42' 40.00'' Est, 48° 59' 19.00'' Nord";"78361";;"PL HENRI DUNANT MEGA CGR";"78200";"MANTES-LA-JOLIE";"Immeuble"; 13.0;"Société Privée SA"
559202;2.11222;48.75056;"02° 06' 44.00'' Est, 48° 45' 02.00'' Nord";"78620";;"AEROGARE AERODROME";"78117";"TOUSSUS-LE-NOBLE";"Bâtiment"; 8.0;"Particulier"
559221;2.03556;48.78028;"02° 02' 08.00'' Est, 48° 46' 49.00'' Nord";"78423";;"13 ALL DES ÉPINES";"78180";"MONTIGNY-LE-BRETONNEUX";"Immeuble"; 31.0;"Société HLM"
559391;2.13139;48.85917;"02° 07' 53.00'' Est, 48° 51' 33.00'' Nord";"78092";;"6 R DU MURGET";"78380";"BOUGIVAL";"Bâtiment"; 21.0;"Copropriété, Syndic, SCI"
560480;1.81722;49.01250;"01° 49' 02.00'' Est, 49° 00' 45.00'' Nord";"78113";;"ROUTE DE BREUIL EN VEXIN D130";"78440";"BRUEIL-EN-VEXIN";"Bâtiment"; 3.0;"Particulier"
560672;2.11111;49.00333;"02° 06' 40.00'' Est, 49° 00' 12.00'' Nord";"78172";;"17 R DE LA RÉSIDENCE DES CLOS RÉSIDENCE DES CLOS";"78700";"CONFLANS-SAINTE-HONORINE";"Immeuble"; 22.0;"Société HLM"
566588;2.09028;48.74056;"02° 05' 25.00'' Est, 48° 44' 26.00'' Nord";"78143";;"5 PL DES 10 TOISES";"78117";"CHATEAUFORT";"Immeuble"; 16.0;"Particulier"
567174;2.00083;48.77667;"02° 00' 03.00'' Est, 48° 46' 36.00'' Nord";"78621";;"20/22 R JEAN JAURÈS RES DE LA MAIRIE";"78190";"TRAPPES";"Bâtiment"; 24.6;"Copropriété, Syndic, SCI"
568548;2.16806;48.94750;"02° 10' 05.00'' Est, 48° 56' 51.00'' Nord";"78586";;"104 QUAI DE SEINE  4 R DE SEINE";"78500";"SARTROUVILLE";"Immeuble"; 23.0;"Société HLM"
570415;2.11944;48.76667;"02° 07' 10.00'' Est, 48° 45' 60.00'' Nord";"78117";;"80, R HÉLÈNE BOUCHER ZI CENTRE BP 65";"78530";"BUC";"Bâtiment"; 26.1;"Copropriété, Syndic, SCI"
572161;2.01444;48.77250;"02° 00' 52.00'' Est, 48° 46' 21.00'' Nord";"78423";;"10 RTE DE TRAPPES CSE DES SAPEURS POMPIERS";"78180";"MONTIGNY-LE-BRETONNEUX";"Immeuble"; 38.5;"Etat, Ministère"
573197;2.12306;48.79444;"02° 07' 23.00'' Est, 48° 47' 40.00'' Nord";"78646";;"11 R ALBERT SAMARIN";"78000";"VERSAILLES";"Immeuble"; 19.0;"Copropriété, Syndic, SCI"
575200;2.04722;48.90583;"02° 02' 50.00'' Est, 48° 54' 21.00'' Nord";"78133";;"8 R DU CLOS DE LA FAMILLE SHURGARD";"78240";"CHAMBOURCY";"Bâtiment"; 12.7;"Société Privée SA"
575584;2.06167;48.96472;"02° 03' 42.00'' Est, 48° 57' 53.00'' Nord";"78005";"LA FOSSE BIDAN";"10 R DES COMMUNES (PROCHE D30)";"78260";"ACHERES";"Pylône tubulaire"; 22.0;"ORANGE"
575757;1.79500;48.54861;"01° 47' 42.00'' Est, 48° 32' 55.00'' Nord";"78506";"LA CROIX ROUGE";;"78660";"PRUNAY-EN-YVELINES";"Dalle en béton"; 0.0;"ANFR"
577284;1.95083;48.52667;"01° 57' 03.00'' Est, 48° 31' 36.00'' Nord";"78569";;"RD 116 TERRAIN DE TENNIS";"78730";"SAINTE-MESME";"Pylône tubulaire"; 39.9;"SFR"
577363;1.92417;48.74917;"01° 55' 27.00'' Est, 48° 44' 57.00'' Nord";"78168";;"1 R DE PRÉVENDERIE";"78310";"COIGNIERES";"Bâtiment"; 20.0;"Particulier"
579484;1.93139;48.75583;"01° 55' 53.00'' Est, 48° 45' 21.00'' Nord";"78168";;"BD  DES ARPENTS";"78310";"COIGNIERES";"Bâtiment"; 12.0;"Société Privée SA"
580950;2.18056;48.94333;"02° 10' 50.00'' Est, 48° 56' 36.00'' Nord";"78586";;"73 B  , BD  DE BEZONS IMM DE LA SEIMAROISE RÉSIDENCE DE LA CROIX MALLARD";"78500";"SARTROUVILLE";"Immeuble"; 32.0;"Société HLM"
583191;2.16111;48.91444;"02° 09' 40.00'' Est, 48° 54' 52.00'' Nord";"78124";;"BARRIÈRE DE PÉAGE DE CARRIÈRES S/ SEINE A14 POINT H PK 12040";"78420";"CARRIERES-SUR-SEINE";"Pylône autostable"; 38.0;"Sociétés d'Autoroutes"
584004;1.74278;49.00389;"01° 44' 34.00'' Est, 49° 00' 14.00'' Nord";"78335";;"1- 2 ALLÉE DU BEL AIR RÉSIDENCE LA SOURCE";"78520";"LIMAY";"Immeuble"; 23.0;"Société Privée SA"
584131;1.75778;49.03889;"01° 45' 28.00'' Est, 49° 02' 20.00'' Nord";"78246";"BUTTE MARISIS";"BOIS DE MARAINVILLE RÉSERVOIR";"78440";"FONTENAY-SAINT-PERE";"Pylône haubané"; 40.0;"Syndicat des eaux, Adduction"
585320;1.83639;48.94417;"01° 50' 11.00'' Est, 48° 56' 39.00'' Nord";"78451";;"IMP DE L EGLISE";"78410";"NEZEL";"Monument religieux"; 24.0;"BOUYGUES"
586011;1.77278;48.70306;"01° 46' 22.00'' Est, 48° 42' 11.00'' Nord";"78497";"LE DÉBUCHÉ";"RTE FORESTIÈRE DE LA BILLETTE CARREFOUR DU DÉBUCHÉ";"78125";"POIGNY-LA-FORET";"Pylône autostable"; 50.0;"SFR"
586265;2.18583;48.78417;"02° 11' 09.00'' Est, 48° 47' 03.00'' Nord";"78640";;"21-25 R ROLLAND GARROS SA HLM 3F";"78140";"VELIZY-VILLACOUBLAY";"Immeuble"; 28.0;"Société HLM"
587787;1.67972;48.98306;"01° 40' 47.00'' Est, 48° 58' 59.00'' Nord";"78118";;"RTE DE MANTES COMPLEXE SPORTIF COMMUNAL";"78200";"BUCHELAY";"Pylône autostable"; 25.0;"SFR"
589413;1.87861;48.57611;"01° 52' 43.00'' Est, 48° 34' 34.00'' Nord";"78601";;"PL DE L' EGLISE EGLISE ST-GEORGES";"78120";"SONCHAMP";"Monument religieux"; 42.0;"Commune, communauté de commune"
589432;1.97806;48.70583;"01° 58' 41.00'' Est, 48° 42' 21.00'' Nord";"78193";;"C.R. N°5 - R DE LA BUTTE À TONNERRE ANCIEN CHÂTEAU D'EAU";"78720";"DAMPIERRE-EN-YVELINES";"Pylône autostable"; 35.0;"ORANGE"
589809;2.02444;48.76722;"02° 01' 28.00'' Est, 48° 46' 02.00'' Nord";"78423";;"R DES SIRÈNES";"78180";"MONTIGNY-LE-BRETONNEUX";"Pylône autostable"; 25.0;"SFR"
591984;2.06056;48.87111;"02° 03' 38.00'' Est, 48° 52' 16.00'' Nord";"78224";"LES SABLES DE LA BROSSE";"CHEM DE LA BROSSE";"78620";"L'ETANG-LA-VILLE";"Pylône autostable"; 30.0;"ORANGE"
593553;1.63028;48.73778;"01° 37' 49.00'' Est, 48° 44' 16.00'' Nord";"78171";"LE BREUIL";"LA BUTTE DU PINSON D147";"78113";"CONDE-SUR-VESGRE";"Pylône autostable"; 27.0;"ORANGE"
593714;2.09083;48.73444;"02° 05' 27.00'' Est, 48° 44' 04.00'' Nord";"78143";;"PL DE L'ÉGLISE EGLISE DE CHÂTEAUFORT";"78117";"CHATEAUFORT";"Monument religieux"; 25.0;"Commune, communauté de commune"
594845;1.71583;48.95472;"01° 42' 57.00'' Est, 48° 57' 17.00'' Nord";"78104";"LES CARRIERES";;"78930";"BREUIL-BOIS-ROBERT";"Pylône autostable"; 55.0;"TDF"
594859;2.06889;48.89583;"02° 04' 08.00'' Est, 48° 53' 45.00'' Nord";"78551";;"1 R J. BAPTISTE LULLI";"78100";"SAINT-GERMAIN-EN-LAYE";"Immeuble"; 38.0;"Société HLM"
595555;2.05556;48.76722;"02° 03' 20.00'' Est, 48° 46' 02.00'' Nord";"78297";;"1, 2, 3 R GALILEE";"78280";"GUYANCOURT";"Bâtiment"; 22.5;"Société Privée SA"
595961;2.03806;48.73083;"02° 02' 17.00'' Est, 48° 43' 51.00'' Nord";"78406";"ROUTE DE ROMAINVILLE";"RÉSERVOIR";"78470";"MILON-LA-CHAPELLE";"Pylône haubané"; 25.0;"ORANGE"
596263;2.04361;48.77111;"02° 02' 37.00'' Est, 48° 46' 16.00'' Nord";"78423";;"106 AV DESCARTES";"78180";"MONTIGNY-LE-BRETONNEUX";"Immeuble"; 18.5;"Société HLM"
596877;2.06222;48.95694;"02° 03' 44.00'' Est, 48° 57' 25.00'' Nord";"78005";;"1 ALL ANDRE CHENIER IMM DE LA CITÉ DES PLANTES D'ENNEMONT";"78260";"ACHERES";"Immeuble"; 49.0;"Société HLM"
597229;2.13083;48.91417;"02° 07' 51.00'' Est, 48° 54' 51.00'' Nord";"78418";;"CHEM DE CORMEILLES";"78360";"MONTESSON";"Pylône tubulaire"; 30.0;"FPS TOWERS"
599283;1.86944;48.81472;"01° 52' 10.00'' Est, 48° 48' 53.00'' Nord";"78683";;"1 RTE DE SEPTEUIL";"78640";"VILLIERS-SAINT-FREDERIC";"Bâtiment"; 15.0;"Conseil Régional"
601178;2.14500;48.83472;"02° 08' 42.00'' Est, 48° 50' 05.00'' Nord";"78158";"LES HUBIES";"6 RTE DE LA CHASSE ROYALE";"78150";"LE CHESNAY";"Château d'eau - réservoir"; 75.0;"Syndicat des eaux, Adduction"
601800;2.04444;48.93167;"02° 02' 40.00'' Est, 48° 55' 54.00'' Nord";"78498";;"1, R PAUL CODOS";"78300";"POISSY";"Immeuble"; 46.5;"Société HLM"
601815;1.91306;48.99361;"01° 54' 47.00'' Est, 48° 59' 37.00'' Nord";"78440";;"24,AV PAUL RAOULT";"78130";"LES MUREAUX";"Immeuble"; 35.0;"Société HLM"
602287;1.89472;48.77778;"01° 53' 41.00'' Est, 48° 46' 40.00'' Nord";"78321";"LES MOUSSEAUX";"R DE LA DAUBERIE ROUTE DE MAUREPAS";"78760";"JOUARS-PONTCHARTRAIN";"Pylône tubulaire"; 30.0;"ORANGE"
602314;1.92917;48.79778;"01° 55' 45.00'' Est, 48° 47' 52.00'' Nord";"78490";"CARREFOUR DE LA GRANDE CROIX";"ECH N12/D134 CENTRE AUTOROUTIER";"78370";"PLAISIR";"Pylône tubulaire"; 38.0;"ORANGE"
602742;2.05639;48.90611;"02° 03' 23.00'' Est, 48° 54' 22.00'' Nord";"78551";"RTE DE LA REINE";"FORET ST GERMAIN TUNNEL A14";"78100";"SAINT-GERMAIN-EN-LAYE";"Tunnel"; 7.4;"Sociétés d'Autoroutes"
604166;2.03806;48.92278;"02° 02' 17.00'' Est, 48° 55' 22.00'' Nord";"78498";;"R DE LA TOURNELLE SQ BUSSY";"78300";"POISSY";"Château d'eau - réservoir"; 30.0;"Société Privée SA"
604679;1.95250;48.93972;"01° 57' 09.00'' Est, 48° 56' 23.00'' Nord";"78431";;"AIRE SUD DE MORAINVILLIERS AUTOROUTE A13 SENS PROVINCE-PARIS";"78630";"MORAINVILLIERS";"Pylône autostable"; 45.0;"Sociétés d'Autoroutes"
614506;2.03278;48.92167;"02° 01' 58.00'' Est, 48° 55' 18.00'' Nord";"78498";;"22-26 R RONSARD";"78300";"POISSY";"Immeuble"; 20.4;"Commune, communauté de commune"
614810;1.82611;48.62417;"01° 49' 34.00'' Est, 48° 37' 27.00'' Nord";"78517";;"19 R GUSTAVE EIFFEL ZI";"78120";"RAMBOUILLET";"Pylône autostable"; 50.0;"SFR"
614862;2.00472;48.90222;"02° 00' 17.00'' Est, 48° 54' 08.00'' Nord";"78007";"BOIS DE PONCY";"TERRAIN COMMUNAL INTERSECTION A13/RD30";"78240";"AIGREMONT";"Pylône autostable"; 28.0;"ORANGE"
615301;1.91361;48.53028;"01° 54' 49.00'' Est, 48° 31' 49.00'' Nord";"78564";"LA MARE CLAIRE";"A10/E05";"78660";"SAINT-MARTIN-DE-BRETHENCOURT";"Pylône tubulaire"; 29.0;"ORANGE"
615344;1.89583;48.49750;"01° 53' 45.00'' Est, 48° 29' 51.00'' Nord";"78071";"LE MOULIN DU BRÉAU";"IMP DES ROSES D.116";"78660";"BOINVILLE-LE-GAILLARD";"Pylône autostable"; 30.0;"ORANGE"
617402;2.09833;48.88722;"02° 05' 54.00'' Est, 48° 53' 14.00'' Nord";"78481";;"13 , ALLÉE DE NORMANDIE";"78230";"LE PECQ";"Immeuble"; 33.0;"Société HLM"
618808;2.00167;48.92389;"02° 00' 06.00'' Est, 48° 55' 26.00'' Nord";"78466";;"CHEM FAUVEAU SITE TECHNIQUE S.A.P.N.";"78630";"ORGEVAL";"Pylône tubulaire"; 25.0;"SFR"
619485;2.00333;48.76750;"02° 00' 12.00'' Est, 48° 46' 03.00'' Nord";"78621";;"1 B  AV ALBERT EINSTEIN ZAC DENIS PAPIN";"78190";"TRAPPES";"Pylône tubulaire"; 52.0;"SFR"
622013;1.93194;48.55250;"01° 55' 55.00'' Est, 48° 33' 09.00'' Nord";"78537";;"GARE DE PÉAGE - A10 ROUTE DE DENISY";"78730";"SAINT-ARNOULT-EN-YVELINES";"Pylône autostable"; 70.0;"Sociétés d'Autoroutes"
623191;2.08917;48.89750;"02° 05' 21.00'' Est, 48° 53' 51.00'' Nord";"78551";;"37 R DE POLOGNE";"78100";"SAINT-GERMAIN-EN-LAYE";"Immeuble"; 17.2;"Particulier"
625327;1.58583;48.97639;"01° 35' 09.00'' Est, 48° 58' 35.00'' Nord";"78082";"LA BELLE CÔTE";"46 GRANDE RUE CHEM RURAL DU CLOS DE NONAN D114";"78200";"BOISSY-MAUVOISIN";"Pylône autostable"; 20.0;"ORANGE"
625337;1.67444;48.96528;"01° 40' 28.00'' Est, 48° 57' 55.00'' Nord";"78354";"LE ROUGEASSIER";"7 CHEM DE ROSNY CENTRE EQUESTRE GR 26";"78200";"MAGNANVILLE";"Pylône autostable"; 21.0;"ORANGE"
625349;1.61583;48.93417;"01° 36' 57.00'' Est, 48° 56' 03.00'' Nord";"78608";"LES BROSSETS";"ROUTE DE TERTRE";"78980";"LE TERTRE-SAINT-DENIS";"Pylône tubulaire"; 30.0;"ORANGE"
627860;2.15444;48.90639;"02° 09' 16.00'' Est, 48° 54' 23.00'' Nord";"78418";;"10 CHEM DES CHAMPS ROGER";"78360";"MONTESSON";"Immeuble"; 20.7;"Société HLM"
632199;1.91861;48.94194;"01° 55' 07.00'' Est, 48° 56' 31.00'' Nord";"78206";"LES CHATAIGNIERS";"LA CROIX DE ROMAINVILLE RTE DES ALLUETS";"78920";"ECQUEVILLY";"Pylône autostable"; 27.5;"ORANGE Services Fixes"
632300;1.79778;48.71639;"01° 47' 52.00'' Est, 48° 42' 59.00'' Nord";"78108";"LA FOLIE";"LA R NEUVE STATION D'ÉPURATION";"78610";"LES BREVIAIRES";"Pylône autostable"; 35.0;"ORANGE"
637838;2.16500;48.80000;"02° 09' 54.00'' Est, 48° 47' 60.00'' Nord";"78686";;"R RAPHAEL CORBY";"78220";"VIROFLAY";"Immeuble"; 14.8;"SNCF Réseau"
645674;1.80694;48.66417;"01° 48' 25.00'' Est, 48° 39' 51.00'' Nord";"78517";"LA GRILLE AUX LAPINS";"VIEILLES BERGERIE - D.936 PYLÔNE D'OBSERVATION ONF GRAND PARC";"78120";"RAMBOUILLET";"Pylône autostable"; 41.0;"Etat, Ministère"
646221;1.84389;48.64306;"01° 50' 38.00'' Est, 48° 38' 35.00'' Nord";"78517";;"11 R DE LA GIRODERIE";"78120";"RAMBOUILLET";"Pylône autostable"; 40.0;"ORANGE"
648499;1.73417;48.88611;"01° 44' 03.00'' Est, 48° 53' 10.00'' Nord";"78300";"AU-DESSUS DU GROS ORME";"BORDURE  D 11 CHEM DE MILHEROU";"78790";"HARGEVILLE";"Pylône tubulaire"; 39.0;"SFR"
648503;1.78194;48.90889;"01° 46' 55.00'' Est, 48° 54' 32.00'' Nord";"78325";"LE NOYER GALANT";"ROUTE D'HARGEVILLE";"78580";"JUMEAUVILLE";"Pylône tubulaire"; 33.0;"ORANGE"
648508;2.14806;48.86000;"02° 08' 53.00'' Est, 48° 51' 36.00'' Nord";"78126";;"18, AV DE LA JONCHÈRE CC ELYSÉE 2";"78170";"LA CELLE-SAINT-CLOUD";"Immeuble"; 24.0;"Copropriété, Syndic, SCI"
652062;1.81722;49.01250;"01° 49' 02.00'' Est, 49° 00' 45.00'' Nord";"78113";"LE GROS CHÊNE";"LES BRIÈRES STATION HERTZIENNE C.D 130";"78440";"BRUEIL-EN-VEXIN";"Tour hertzienne"; 56.0;"TDF"
658980;2.15667;48.86917;"02° 09' 24.00'' Est, 48° 52' 09.00'' Nord";"78092";;"62 R YVAN TOURGUENEFF";"78380";"BOUGIVAL";"Immeuble"; 21.0;"Société Privée SA"
664357;2.15944;48.93583;"02° 09' 34.00'' Est, 48° 56' 09.00'' Nord";"78586";;"8 RUE DE L'ILÔT POSTE D'AIGUILLAGE GARE S.N.C.F";"78500";"SARTROUVILLE";"Bâtiment"; 29.0;"SNCF"
665741;1.98667;48.82111;"01° 59' 12.00'' Est, 48° 49' 16.00'' Nord";"78165";;"PL CHARLES DE GAULLE MAIRIE";"78340";"LES CLAYES-SOUS-BOIS";"Bâtiment"; 12.0;"Commune, communauté de commune"
669240;2.19972;48.92056;"02° 11' 59.00'' Est, 48° 55' 14.00'' Nord";"78311";;"104, BD JEAN JAURES";"78800";"HOUILLES";"Bâtiment"; 13.3;"Copropriété, Syndic, SCI"
670491;1.63722;48.82250;"01° 38' 14.00'' Est, 48° 49' 21.00'' Nord";"78520";"LA GRENOUILLÈRE";"PL DU CHATEAU";"78550";"RICHEBOURG";"Mât"; 15.0;"ORANGE Services Fixes"
673373;1.57667;48.90500;"01° 34' 36.00'' Est, 48° 54' 18.00'' Nord";"78346";"LE PETIT HEURTELOUP";"24, R DES RÉSERVOIRS";"78980";"LONGNES";"Château d'eau - réservoir"; 25.4;"Commune, communauté de commune"
673608;1.96194;48.80583;"01° 57' 43.00'' Est, 48° 48' 21.00'' Nord";"78490";;"R NICOLAS POUSSIN STADE DE GÂTINES";"78370";"PLAISIR";"Bâtiment"; 17.0;"Commune, communauté de commune"
675435;1.92722;48.72083;"01° 55' 38.00'' Est, 48° 43' 15.00'' Nord";"78334";;"ROUTE D'YVETTE STATION D'ÉPURATION";"78320";"LEVIS-SAINT-NOM";"Pylône tubulaire"; 22.0;"SFR"
675482;1.88972;48.96000;"01° 53' 23.00'' Est, 48° 57' 36.00'' Nord";"78090";;"CHEM MONCHARMONT STADE MUNICIPAL PIERRE MONCHARMONT";"78410";"BOUAFLE";"Pylône tubulaire"; 25.0;"SFR"
676254;1.98722;48.92833;"01° 59' 14.00'' Est, 48° 55' 42.00'' Nord";"78466";;"CHEM AUX BOEUFS ANGLE DE LA ROUTE D'ORGEVAL";"78630";"ORGEVAL";"Pylône tubulaire"; 39.0;"ORANGE"
679057;2.03917;48.76694;"02° 02' 21.00'' Est, 48° 46' 01.00'' Nord";"78423";;"45 BD DESCARTES";"78180";"MONTIGNY-LE-BRETONNEUX";"Immeuble"; 20.0;"Société Privée SA"
683111;2.13083;48.81833;"02° 07' 51.00'' Est, 48° 49' 06.00'' Nord";"78158";;"3 PL ST ANTOINE DE PADOUE";"78150";"LE CHESNAY";"Monument religieux"; 52.0;"Commune, communauté de commune"
683676;1.54389;48.94306;"01° 32' 38.00'' Est, 48° 56' 35.00'' Nord";"78107";;"AV NOEL DUSCHENNE LE PAS DE L ANE";"78980";"BREVAL";"Pylône autostable"; 25.0;"Société Privée SA"
684031;1.97333;49.01972;"01° 58' 24.00'' Est, 49° 01' 11.00'' Nord";"78638";"L'HAUTIL";"BOIS DE FORT VACHE D.922";"78740";"VAUX-SUR-SEINE";"Pylône autostable"; 50.0;"ORANGE"
684915;1.97111;48.85889;"01° 58' 16.00'' Est, 48° 51' 32.00'' Nord";"78233";"LES BOISSEAUX";"R DE DAVRON";"78810";"FEUCHEROLLES";"Pylône tubulaire"; 25.5;"SFR"
684929;2.17139;48.80417;"02° 10' 17.00'' Est, 48° 48' 15.00'' Nord";"78686";;"114 AV DU GÉNÉRAL LECLERC";"78220";"VIROFLAY";"Bâtiment"; 26.9;"Copropriété, Syndic, SCI"
692230;2.11833;48.98278;"02° 07' 06.00'' Est, 48° 58' 58.00'' Nord";"78551";"PARC AGRICOLE D'ACHÈRES";"RTE CENTRALE - LA BOUVERIE DES NOYERS PROCHE STATION D'EPURATION";"78100";"SAINT-GERMAIN-EN-LAYE";"Château d'eau - réservoir"; 38.0;"Syndicat des eaux, Adduction"
706688;1.92139;48.75000;"01° 55' 17.00'' Est, 48° 45' 00.00'' Nord";"78168";;"1 ALL DES ESSAIMS";"78310";"COIGNIERES";"Immeuble"; 22.2;"Société HLM"
708832;1.87056;48.94194;"01° 52' 14.00'' Est, 48° 56' 31.00'' Nord";"78049";"STE-COLOMBE";"CHEM D'AUBERGENVILLE À HERBEVILLE";"78580";"BAZEMONT";"pylône arbre"; 35.0;"ORANGE"
712446;1.91167;48.99889;"01° 54' 42.00'' Est, 48° 59' 56.00'' Nord";"78440";;"1 AV FÉLIX FAURE";"78130";"LES MUREAUX";"Pylône autostable"; 34.0;"ORANGE"
718194;1.58444;49.03639;"01° 35' 04.00'' Est, 49° 02' 11.00'' Nord";"78089";;"R GAMBETTA FACE N° 48";"78270";"BONNIERES-SUR-SEINE";"Pylône tubulaire"; 12.0;"ORANGE Services Fixes"
719932;2.17528;48.91528;"02° 10' 31.00'' Est, 48° 54' 55.00'' Nord";"78124";"CITÉ DU PETIT BOIS";"ROUTE DE ST GERMAIN";"78420";"CARRIERES-SUR-SEINE";"Immeuble"; 33.0;"Société HLM"
720937;2.13639;48.95917;"02° 08' 11.00'' Est, 48° 57' 33.00'' Nord";"78551";;"R DE LA MUETTE BASE MILITAIRE QUARTIER GALLIENI";"78100";"SAINT-GERMAIN-EN-LAYE";"Pylône autostable"; 33.0;"Autres"
722539;1.86361;48.95583;"01° 51' 49.00'' Est, 48° 57' 21.00'' Nord";"78238";;"CHEM LES HAUTS VENTS";"78410";"FLINS-SUR-SEINE";"Pylône tubulaire"; 30.0;"ORANGE"
723529;2.16083;48.92500;"02° 09' 39.00'' Est, 48° 55' 30.00'' Nord";"78586";;"11 R DU BAS DE LA PLAINE";"78500";"SARTROUVILLE";"Immeuble"; 33.0;"ORANGE Services Fixes"
723531;2.19778;48.94139;"02° 11' 52.00'' Est, 48° 56' 29.00'' Nord";"78586";;"1 R VILLA DOUMIER";"78500";"SARTROUVILLE";"Immeuble"; 22.0;"Société HLM"
723533;2.15111;48.93333;"02° 09' 04.00'' Est, 48° 55' 60.00'' Nord";"78586";;"AV DE LA RÉPUBLIQUE ADM. : 2, R DE VERDUN RÉSIDENCE LA VAUDAIRE";"78500";"SARTROUVILLE";"Immeuble"; 20.0;"Société HLM"
723535;2.20167;48.94556;"02° 12' 06.00'' Est, 48° 56' 44.00'' Nord";"78586";;"9 R MAURICE AUDIN";"78500";"SARTROUVILLE";"Immeuble"; 28.7;"Société HLM"
723547;2.18750;48.94667;"02° 11' 15.00'' Est, 48° 56' 48.00'' Nord";"78586";;"7 R LÉON JOUHAUX";"78500";"SARTROUVILLE";"pylône arbre"; 27.0;"FPS TOWERS"
729093;2.12944;48.83750;"02° 07' 46.00'' Est, 48° 50' 15.00'' Nord";"78126";;"AV PUITS D ANGLE";"78170";"LA CELLE-SAINT-CLOUD";"Immeuble"; 21.0;"Société HLM"
731142;1.69333;48.92389;"01° 41' 36.00'' Est, 48° 55' 26.00'' Nord";"78677";;"2 CHEM DE GUERVILLE";"78930";"VILLETTE";"Pylône tubulaire"; 15.0;"SFR"
734003;1.92250;48.88639;"01° 55' 21.00'' Est, 48° 53' 11.00'' Nord";"78189";;"1 R DES ALLUETS";"78121";"CRESPIERES";"Bâtiment"; 14.0;"Particulier"
739786;2.19750;48.78083;"02° 11' 51.00'' Est, 48° 46' 51.00'' Nord";"78640";;"38 PL LOUVOIS RES LOUVOIS";"78140";"VELIZY-VILLACOUBLAY";"Immeuble"; 24.5;"Copropriété, Syndic, SCI"
744291;2.14361;48.82500;"02° 08' 37.00'' Est, 48° 49' 30.00'' Nord";"78646";;"74 AV DU MAL DOUGLAS HAIG";"78000";"VERSAILLES";"Immeuble"; 18.0;"Société HLM"
746705;1.97028;48.79833;"01° 58' 13.00'' Est, 48° 47' 54.00'' Nord";"78208";;"1 BD JEAN MOULIN";"78990";"ELANCOURT";"Bâtiment"; 35.0;"Société Privée SA"
747223;1.90833;48.52278;"01° 54' 30.00'' Est, 48° 31' 22.00'' Nord";"78564";"PRÈS HAUT BOUT";"P.K. 28.5";"78660";"SAINT-MARTIN-DE-BRETHENCOURT";"Mât béton"; 18.0;"Sociétés d'Autoroutes"
747372;1.92556;48.55000;"01° 55' 32.00'' Est, 48° 32' 60.00'' Nord";"78499";"LES BRULINS";"P.K. 26 GARE DE ST-ARNOUD EN YVELINES";"78730";"PONTHEVRARD";"Pylône autostable"; 44.0;"Sociétés d'Autoroutes"
748342;1.91056;48.45056;"01° 54' 38.00'' Est, 48° 27' 02.00'' Nord";"78009";"LA HAUTE EPINE";"P.R 36.470";"78660";"ALLAINVILLE";"Mât béton"; 18.0;"Sociétés d'Autoroutes"
749439;1.51083;48.96000;"01° 30' 39.00'' Est, 48° 57' 36.00'' Nord";"78559";;"R COGER TERRAIN NU";"78980";"SAINT-ILLIERS-LE-BOIS";"Pylône autostable"; 27.0;"ORANGE"
752260;2.08194;48.76194;"02° 04' 55.00'' Est, 48° 45' 43.00'' Nord";"78297";;"1,  AV DU GOLF TECHNOCENTRE RENAULT";"78280";"GUYANCOURT";"Bâtiment"; 40.2;"Société Privée SA"
759435;1.88583;48.71389;"01° 53' 09.00'' Est, 48° 42' 50.00'' Nord";"78220";;"54 R DE L'ARTOIRE";"78690";"LES ESSARTS-LE-ROI";"Château d'eau - réservoir"; 72.0;"Commune, communauté de commune"
760735;1.93139;48.98444;"01° 55' 53.00'' Est, 48° 59' 04.00'' Nord";"78440";;"R DE LA CROIX VERTE";"78130";"LES MUREAUX";"Pylône autostable"; 18.0;"Société Privée SA"
761798;1.84778;48.52944;"01° 50' 52.00'' Est, 48° 31' 46.00'' Nord";"78003";"DIMANCHEVILLE";"P.R 30.850";"78660";"ABLIS";"Pylône tubulaire"; 18.0;"Sociétés d'Autoroutes"
764043;1.79444;48.99556;"01° 47' 40.00'' Est, 48° 59' 44.00'' Nord";"78314";;"R DU HAUT PARC VOIE COMMUNALE D' ISSOU À OINVILLE";"78440";"ISSOU";"Pylône autostable"; 32.0;"Société Privée SA"
781408;2.15361;48.90611;"02° 09' 13.00'' Est, 48° 54' 22.00'' Nord";"78418";;"7 R FAULLAIN DE BANVILLE";"78360";"MONTESSON";"Immeuble"; 15.6;"Société HLM"
785693;2.04861;48.81694;"02° 02' 55.00'' Est, 48° 49' 01.00'' Nord";"78242";;"6 CHEM DE LA RATELLE";"78330";"FONTENAY-LE-FLEURY";"Silo"; 16.2;"Société Privée SA"
786207;1.67583;48.65722;"01° 40' 33.00'' Est, 48° 39' 26.00'' Nord";"78307";;"RTE DE LA BOISSIÈRE D 80";"78125";"HERMERAY";"Château d'eau - réservoir"; 41.0;"Syndicat des eaux, Adduction"
786673;1.87000;48.96972;"01° 52' 12.00'' Est, 48° 58' 11.00'' Nord";"78238";"LES MÉRIELS NORD EST";"ZAC LES MÉRIELS";"78410";"FLINS-SUR-SEINE";"Pylône autostable"; 42.0;"RTE"
786698;1.81611;49.05972;"01° 48' 58.00'' Est, 49° 03' 35.00'' Nord";"78329";;"R DE LA MAIRIE";"78440";"LAINVILLE-EN-VEXIN";"Monument religieux"; 24.0;"Commune, communauté de commune"
786928;2.20917;48.78278;"02° 12' 33.00'' Est, 48° 46' 58.00'' Nord";"78640";;"6 R NIEUPORT";"78140";"VELIZY-VILLACOUBLAY";"Pylône autostable"; 39.5;"SFR"
787180;2.04056;48.78417;"02° 02' 26.00'' Est, 48° 47' 03.00'' Nord";"78423";;"1 AV DE LA SOURCE DE LA BIÈVRE";"78180";"MONTIGNY-LE-BRETONNEUX";"Immeuble"; 33.4;"Société Privée SA"
787942;2.08417;48.83639;"02° 05' 03.00'' Est, 48° 50' 11.00'' Nord";"78043";;"18 RTE DE ST CYR";"78870";"BAILLY";"Pylône autostable"; 15.0;"Société Privée SA"
789087;2.17056;48.77111;"02° 10' 14.00'' Est, 48° 46' 16.00'' Nord";"78322";;"13 , R DES FONDS RÉS. DES PERSONNES ÂGÉES";"78350";"JOUY-EN-JOSAS";"Immeuble"; 17.5;"Société HLM"
790313;2.16972;48.95694;"02° 10' 11.00'' Est, 48° 57' 25.00'' Nord";"78358";;"2 AV MOLIERE TRIBUNE DE L'HIPPODROME/CHAMPS DE COURSES";"78600";"MAISONS-LAFFITTE";"Immeuble"; 31.0;"Association"
791784;1.85528;48.69083;"01° 51' 19.00'' Est, 48° 41' 27.00'' Nord";"78486";;"SENTE DES PLATANES TERRAIN SNCF";"78610";"LE PERRAY-EN-YVELINES";"Pylône tubulaire"; 30.0;"ORANGE"
793433;2.10722;48.79000;"02° 06' 26.00'' Est, 48° 47' 24.00'' Nord";"78646";;"ÉCHANGEUR DE SATORY";"78000";"VERSAILLES";"Pylône autostable"; 22.0;"SFR"
794061;2.13278;48.79278;"02° 07' 58.00'' Est, 48° 47' 34.00'' Nord";"78646";"BUTTE GOBERT";"19 , R EDOUARD CHARTON CHÂTEAU D'EAU DE LA S.E.V.E.S.C";"78000";"VERSAILLES";"Château d'eau - réservoir"; 36.5;"Syndicat des eaux, Adduction"
794135;2.02917;48.90917;"02° 01' 45.00'' Est, 48° 54' 33.00'' Nord";"78133";;"5, R DU MUR DU PARC TERRAIN DE FOOTBALL";"78240";"CHAMBOURCY";"Pylône tubulaire"; 25.0;"SFR"
794158;2.02806;48.90944;"02° 01' 41.00'' Est, 48° 54' 34.00'' Nord";"78133";;"CHEM DE LA REMISE  COMPLEXE SPORTIF GEORGES GALIENNE";"78240";"CHAMBOURCY";"Pylône autostable"; 31.0;"Commune, communauté de commune"
796914;2.11139;48.89778;"02° 06' 41.00'' Est, 48° 53' 52.00'' Nord";"78481";;"5/7/9 AV DE LA PAIX";"78230";"LE PECQ";"Immeuble"; 22.0;"Société HLM"
796927;2.19750;48.91389;"02° 11' 51.00'' Est, 48° 54' 50.00'' Nord";"78124";;"19, R DES ENTREPRENEURS";"78420";"CARRIERES-SUR-SEINE";"Immeuble"; 26.0;"Copropriété, Syndic, SCI"
796936;2.11750;48.90722;"02° 07' 03.00'' Est, 48° 54' 26.00'' Nord";"78418";;"48 AV GABRIEL PÉRI";"78360";"MONTESSON";"Pylône autostable"; 24.0;"SFR"
797912;1.68028;48.89694;"01° 40' 49.00'' Est, 48° 53' 49.00'' Nord";"78591";;"R DU CIMETIÈRE PYLONE TDF";"78790";"SEPTEUIL";"Pylône autostable"; 42.0;"TDF"
797925;2.04417;48.75917;"02° 02' 39.00'' Est, 48° 45' 33.00'' Nord";"78688";;"R DU MAIL AUX FRUITS GYMNASE LES PYRAMIDES";"78960";"VOISINS-LE-BRETONNEUX";"Pylône tubulaire"; 16.0;"SFR"
798322;1.95111;48.82750;"01° 57' 04.00'' Est, 48° 49' 39.00'' Nord";"78490";;"9 AV DE ST GERMAIN";"78370";"PLAISIR";"Immeuble"; 32.0;"Copropriété, Syndic, SCI"
798518;2.06556;48.97861;"02° 03' 56.00'' Est, 48° 58' 43.00'' Nord";"78015";;"QUAI DE L'ÎLE PEYGRAND  PK 72.2";"78570";"ANDRESY";"Pylône autostable"; 39.9;"BOUYGUES"
798746;2.17000;48.92889;"02° 10' 12.00'' Est, 48° 55' 44.00'' Nord";"78586";;"120 R DE LA PAIX";"78500";"SARTROUVILLE";"Bâtiment"; 32.0;"Association"
798819;2.17472;48.94972;"02° 10' 29.00'' Est, 48° 56' 59.00'' Nord";"78586";;"68 R DE LA FRETTE";"78500";"SARTROUVILLE";"Immeuble"; 21.0;"Société HLM"
799769;2.06417;48.94722;"02° 03' 51.00'' Est, 48° 56' 50.00'' Nord";"78498";;"4 PL GUSTAVE EIFFEL";"78300";"POISSY";"Immeuble"; 18.0;"Copropriété, Syndic, SCI"
799802;1.89528;48.70167;"01° 53' 43.00'' Est, 48° 42' 06.00'' Nord";"78030";"LA HAIE AUX MARCILLES";"R DES VAUX DE CERNAY STATION D'EPURATION";"78610";"AUFFARGIS";"Pylône autostable"; 37.0;"ORANGE"
800588;1.71667;48.96667;"01° 43' 00.00'' Est, 48° 58' 00.00'' Nord";"78362";;"13 R DESNOS";"78711";"MANTES-LA-VILLE";"Immeuble"; 21.0;"Société Privée SA"
800626;1.67972;49.00028;"01° 40' 47.00'' Est, 49° 00' 01.00'' Nord";"78361";;"2 R CLÉMENT ADER";"78200";"MANTES-LA-JOLIE";"Immeuble"; 54.0;"Société HLM"
800997;2.22083;48.78111;"02° 13' 15.00'' Est, 48° 46' 52.00'' Nord";"78640";;"2 AV DE L'EUROPE (VELIZY 2)";"78140";"VELIZY-VILLACOUBLAY";"Bâtiment"; 18.0;"Copropriété, Syndic, SCI"
801683;1.58722;49.01500;"01° 35' 14.00'' Est, 49° 00' 54.00'' Nord";"78531";;"ECH N° 14 DE BONNIÈRES - A A13 CHEM DE LA VILLENEUVE";"78710";"ROSNY-SUR-SEINE";"Pylône autostable"; 30.0;"SFR"
804105;2.04917;48.78750;"02° 02' 57.00'' Est, 48° 47' 15.00'' Nord";"78423";;"19 R STEPHENSON";"78051";"MONTIGNY-LE-BRETONNEUX";"Immeuble"; 15.0;"Société Privée SA"
804188;2.20833;48.78528;"02° 12' 30.00'' Est, 48° 47' 07.00'' Nord";"78640";;"20/22 R GRANGE DAME ROSE";"78140";"VELIZY-VILLACOUBLAY";"Immeuble"; 25.0;"Société Privée SA"
807786;1.96639;48.76028;"01° 57' 59.00'' Est, 48° 45' 37.00'' Nord";"78644";;"18 RES DU BOIS DE L ETANG";"78320";"LA VERRIERE";"Immeuble"; 40.0;"Société HLM"
809116;2.12833;48.77278;"02° 07' 42.00'' Est, 48° 46' 22.00'' Nord";"78117";;"LA GUERINIERE STATION HERTZIENNE TDF DE BUC";"78530";"BUC";"Pylône autostable"; 36.0;"TDF"
815500;1.85000;48.90444;"01° 51' 00.00'' Est, 48° 54' 16.00'' Nord";"78380";"LA RELANDERIE";;"78580";"MAULE";"Pylône autostable"; 43.0;"TDF"
815595;2.12500;48.87750;"02° 07' 30.00'' Est, 48° 52' 39.00'' Nord";"78190";;"ALLÉE DE GIVERNY STADE DU CHEM DE RONDE";"78290";"CROISSY-SUR-SEINE";"Pylône autostable"; 29.0;"Commune, communauté de commune"
815597;1.84222;48.85722;"01° 50' 32.00'' Est, 48° 51' 26.00'' Nord";"78062";"LA COUPERIE";"RTE DE MARCQ - D.119";"78650";"BEYNES";"Pylône autostable"; 45.0;"EDF GDF"
815673;1.56806;49.01750;"01° 34' 05.00'' Est, 49° 01' 03.00'' Nord";"78089";"HAMEAU DE MORVENT";;"78270";"BONNIERES-SUR-SEINE";"Château d'eau - réservoir"; 41.0;"Commune, communauté de commune"
815683;2.13528;48.79028;"02° 08' 07.00'' Est, 48° 47' 25.00'' Nord";"78646";;"R DE LA PORTE DE BUC";"78000";"VERSAILLES";"Pylône tubulaire"; 25.0;"ORANGE"
815695;2.03222;48.94222;"02° 01' 56.00'' Est, 48° 56' 32.00'' Nord";"78123";;"222 AV ERNEST JOLLY";"78955";"CARRIERES-SOUS-POISSY";"Immeuble"; 30.0;"Société HLM"
815697;1.81611;48.78194;"01° 48' 58.00'' Est, 48° 46' 55.00'' Nord";"78420";;"13 R DE LA CROIX DE ROME HLM LA GUINANDE";"78490";"MONTFORT-L'AMAURY";"Immeuble"; 19.5;"Société HLM"
815699;1.86056;48.99556;"01° 51' 38.00'' Est, 48° 59' 44.00'' Nord";"78327";;"R DE LA COTE D'APREMONT";"78820";"JUZIERS";"Pylône autostable"; 15.0;"ORANGE"
815710;2.15833;48.90778;"02° 09' 30.00'' Est, 48° 54' 28.00'' Nord";"78418";;"136 AV. PAUL DOUMER D.311";"78360";"MONTESSON";"Bâtiment"; 31.0;"ORANGE Services Fixes"
815712;1.96389;48.80000;"01° 57' 50.00'' Est, 48° 47' 60.00'' Nord";"78490";;"R JACQUES MONOD RN.12/D.30";"78370";"PLAISIR";"Pylône autostable"; 24.0;"ORANGE"
815714;2.17000;48.97306;"02° 10' 12.00'' Est, 48° 58' 23.00'' Nord";"78551";"FROMAINVILLE";"RTE DES NOYERS STATION D'ÉPURATION D'ACHÈRES";"78100";"SAINT-GERMAIN-EN-LAYE";"Pylône tubulaire"; 18.0;"ORANGE"
815718;2.01250;48.98278;"02° 00' 45.00'' Est, 48° 58' 58.00'' Nord";"78624";"CHEVERCHEMONT";"43 R DES RÉSERVOIRS";"78510";"TRIEL-SUR-SEINE";"Château d'eau - réservoir"; 20.0;"Commune, communauté de commune"
815720;2.15306;48.80111;"02° 09' 11.00'' Est, 48° 48' 04.00'' Nord";"78646";;"2 ALLÉE MAURICE DORMANN";"78000";"VERSAILLES";"Immeuble"; 27.0;"Société HLM"
815725;2.02944;48.90972;"02° 01' 46.00'' Est, 48° 54' 35.00'' Nord";"78133";;"R DU MUR DU PARC STADE";"78240";"CHAMBOURCY";"Pylône tubulaire"; 20.0;"ORANGE"
815733;2.04556;48.92889;"02° 02' 44.00'' Est, 48° 55' 44.00'' Nord";"78498";;"49 BD VICTOR HUGO";"78300";"POISSY";"Bâtiment"; 19.0;"ORANGE Services Fixes"
815749;1.83194;48.94417;"01° 49' 55.00'' Est, 48° 56' 39.00'' Nord";"78230";;"PL DE LA LIBÉRATION EGLISE DE LA FALAISE";"78410";"LA FALAISE";"Monument religieux"; 22.0;"Commune, communauté de commune"
815751;1.90778;48.62222;"01° 54' 28.00'' Est, 48° 37' 20.00'' Nord";"78164";"LES FRÉMILLONS";"CHEM DES FRÉMILLONS";"78120";"CLAIREFONTAINE-EN-YVELINES";"Château d'eau - réservoir"; 39.0;"Commune, communauté de commune"
815755;1.93583;48.75861;"01° 56' 09.00'' Est, 48° 45' 31.00'' Nord";"78168";;"31 R DE MONTFORT L'AMAURY IMM ADEF";"78310";"COIGNIERES";"Immeuble"; 24.0;"Société HLM"
815759;2.15361;48.88167;"02° 09' 13.00'' Est, 48° 52' 54.00'' Nord";"78146";"VIEUX CROISSY";"7 AV DES POMMEROTS";"78400";"CHATOU";"Immeuble"; 19.0;"Société Privée SA"
815763;1.95556;48.81917;"01° 57' 20.00'' Est, 48° 49' 09.00'' Nord";"78490";;"R DU VALIBOUT STADE BERNARD GIROUX";"78370";"PLAISIR";"Pylône tubulaire"; 30.0;"ORANGE"
815767;1.97500;48.98806;"01° 58' 30.00'' Est, 48° 59' 17.00'' Nord";"78642";;"R DU ROUILLARD";"78480";"VERNEUIL-SUR-SEINE";"Pylône autostable"; 32.0;"SNCF Réseau"
815769;1.94833;48.78194;"01° 56' 54.00'' Est, 48° 46' 55.00'' Nord";"78208";;"148 R DE LA COUDRIETTE";"78990";"ELANCOURT";"Pylône tubulaire"; 21.0;"ORANGE"
815775;1.83111;48.64667;"01° 49' 52.00'' Est, 48° 38' 48.00'' Nord";"78517";;"1 R MADAME DE MAINTENON CTRE PRINCIPAL D EXPLOITATION";"78120";"RAMBOUILLET";"Pylône autostable"; 30.0;"ORANGE Services Fixes"
815777;2.12889;48.85778;"02° 07' 44.00'' Est, 48° 51' 28.00'' Nord";"78092";;"23 R DES BEAUVILLIERS";"78380";"BOUGIVAL";"Bâtiment"; 30.0;"ORANGE Services Fixes"
815779;2.09194;49.00389;"02° 05' 31.00'' Est, 49° 00' 14.00'' Nord";"78172";;"126 R ARISTIDE BRIAND CENTRAL TELEPHONIQUE";"78700";"CONFLANS-SAINTE-HONORINE";"Bâtiment"; 25.0;"ORANGE Services Fixes"
815783;1.76972;48.62556;"01° 46' 11.00'' Est, 48° 37' 32.00'' Nord";"78269";;"CHEM DE LA GAUDE STATION ÉLECTRIQUE DE LA GARE";"78125";"GAZERAN";"Bâtiment"; 25.0;"SNCF Réseau"
815799;1.74972;48.80139;"01° 44' 59.00'' Est, 48° 48' 05.00'' Nord";"78513";;"STADE DE LA BUTTE DES MOULINS D 197 A";"78940";"LA QUEUE-LES-YVELINES";"Pylône tubulaire"; 28.0;"ORANGE"
815803;2.13639;48.76111;"02° 08' 11.00'' Est, 48° 45' 40.00'' Nord";"78343";;"19 R DE LA DIVISION LECLERC";"78350";"LES LOGES-EN-JOSAS";"Pylône autostable"; 27.0;"ORANGE"
815811;2.05889;48.77250;"02° 03' 32.00'' Est, 48° 46' 21.00'' Nord";"78297";;"19 RTE DE TROUX";"78280";"GUYANCOURT";"Bâtiment"; 28.0;"ORANGE Services Fixes"
815816;2.07111;48.89278;"02° 04' 16.00'' Est, 48° 53' 34.00'' Nord";"78551";;"30 AV ST FIACRE CT FT";"78100";"SAINT-GERMAIN-EN-LAYE";"Immeuble"; 28.0;"ORANGE Services Fixes"
815819;2.13861;48.89306;"02° 08' 19.00'' Est, 48° 53' 35.00'' Nord";"78650";;"29 BD  CARNOT";"78110";"LE VESINET";"Bâtiment"; 24.0;"ORANGE Services Fixes"
815939;1.97722;48.77444;"01° 58' 38.00'' Est, 48° 46' 28.00'' Nord";"78621";;"63 AV DU PASTEUR MARTIN LUTHER KING";"78190";"TRAPPES";"Immeuble"; 30.0;"ORANGE Services Fixes"
815944;2.18750;48.78028;"02° 11' 15.00'' Est, 48° 46' 49.00'' Nord";"78640";;"9/11 AV LOUIS BREGUET";"78140";"VELIZY-VILLACOUBLAY";"Bâtiment"; 24.0;"ORANGE Services Fixes"
816446;2.15556;48.80722;"02° 09' 20.00'' Est, 48° 48' 26.00'' Nord";"78646";;"3 R ST NICOLAS";"78000";"VERSAILLES";"Immeuble"; 19.0;"Copropriété, Syndic, SCI"
816476;2.13861;48.87417;"02° 08' 19.00'' Est, 48° 52' 27.00'' Nord";"78190";;"6 B  RTE DU ROI";"78290";"CROISSY-SUR-SEINE";"Immeuble"; 20.0;"Copropriété, Syndic, SCI"
816483;2.14556;48.90111;"02° 08' 44.00'' Est, 48° 54' 04.00'' Nord";"78146";;"9 R JULES FERRY";"78400";"CHATOU";"Immeuble"; 28.0;"Société HLM"
816490;2.05861;48.81278;"02° 03' 31.00'' Est, 48° 48' 46.00'' Nord";"78545";;"PORTIQUE DDE- A12 PK 4 5";"78210";"SAINT-CYR-L'ECOLE";"Ouvrage d'art (pont, viaduc)"; 11.0;"DDE"
816494;1.78500;48.86722;"01° 47' 06.00'' Est, 48° 52' 02.00'' Nord";"78616";"LES BRUYERES";"R DE LA PORTE ST MARTIN";"78770";"THOIRY";"Pylône tubulaire"; 34.0;"SFR"
816496;2.09278;48.89417;"02° 05' 34.00'' Est, 48° 53' 39.00'' Nord";"78551";;"11 R RAYMOND GREBAN";"78100";"SAINT-GERMAIN-EN-LAYE";"Immeuble"; 19.0;"Copropriété, Syndic, SCI"
816506;1.74444;48.82667;"01° 44' 40.00'' Est, 48° 49' 36.00'' Nord";"78265";"BOIS LES COUARDES";"RTE DE BEHOUST D 42";"78890";"GARANCIERES";"Pylône autostable"; 37.0;"SFR"
816521;1.90778;48.73583;"01° 54' 28.00'' Est, 48° 44' 09.00'' Nord";"78168";;"8 R DU PONT DES LANDES CHEM DES ESSARTS";"78310";"COIGNIERES";"Pylône tubulaire"; 24.0;"ORANGE"
816523;2.13306;48.80917;"02° 07' 59.00'' Est, 48° 48' 33.00'' Nord";"78646";;"79 B  BD  DE LA REINE";"78000";"VERSAILLES";"Immeuble"; 18.0;"Copropriété, Syndic, SCI"
816530;2.12917;48.80306;"02° 07' 45.00'' Est, 48° 48' 11.00'' Nord";"78646";;"13 AV DE PARIS POSTE CENTRALE";"78000";"VERSAILLES";"Bâtiment"; 14.0;"Commune, communauté de commune"
816536;2.10667;48.88833;"02° 06' 24.00'' Est, 48° 53' 18.00'' Nord";"78502";;"16 AV DE ST GERMAIN LES PYRAMIDES";"78560";"LE PORT-MARLY";"Bâtiment"; 20.0;"Société Privée SA"
816558;1.74389;48.93667;"01° 44' 38.00'' Est, 48° 56' 12.00'' Nord";"78291";"LE MURGUET DES MARGUERITES";"R DE LA LIBÉRATION";"78930";"GUERVILLE";"Pylône autostable"; 25.0;"BOUYGUES"
816560;1.82083;48.65278;"01° 49' 15.00'' Est, 48° 39' 10.00'' Nord";"78517";;"12, R DES MARAIS";"78120";"RAMBOUILLET";"Immeuble"; 25.0;"Société HLM"
816567;1.87778;48.46472;"01° 52' 40.00'' Est, 48° 27' 53.00'' Nord";"78478";"LES OUCHES";"NATIONALE 191 CHÂTEAU D'EAU";"78660";"PARAY-DOUAVILLE";"Château d'eau - réservoir"; 42.0;"Syndicat des eaux, Adduction"
816569;1.76639;48.98806;"01° 45' 59.00'' Est, 48° 59' 17.00'' Nord";"78501";;"11 R DE ROUEN";"78440";"PORCHEVILLE";"Pylône autostable"; 27.0;"ORANGE"
816573;1.74583;48.99361;"01° 44' 45.00'' Est, 48° 59' 37.00'' Nord";"78335";;"12 R DU CDT LOUIS BOUCHET";"78520";"LIMAY";"Immeuble"; 23.0;"Société HLM"
816575;2.11639;48.76444;"02° 06' 59.00'' Est, 48° 45' 52.00'' Nord";"78117";;"65 AV ROLAND GARROS ZA DE BUC";"78530";"BUC";"Pylône autostable"; 30.0;"FPS TOWERS"
816579;1.77500;48.97472;"01° 46' 30.00'' Est, 48° 58' 29.00'' Nord";"78501";;"BD DE LA REPUBLIQUE";"78440";"PORCHEVILLE";"Pylône autostable"; 25.0;"ORANGE"
816581;2.00500;48.60250;"02° 00' 18.00'' Est, 48° 36' 09.00'' Nord";"78120";"BOURGNEUF";"DÉPARTEMENTAL D988";"78830";"BULLION";"Pylône autostable"; 29.0;"ORANGE"
816583;1.83361;48.96361;"01° 50' 01.00'' Est, 48° 57' 49.00'' Nord";"78217";;"CHEM DE LA BOURDE A13";"78680";"EPONE";"Pylône tubulaire"; 30.0;"ORANGE"
816585;2.05944;48.93806;"02° 03' 34.00'' Est, 48° 56' 17.00'' Nord";"78498";;"121 R ST SÉBASTIEN";"78300";"POISSY";"Immeuble"; 31.0;"Société HLM"
816587;2.11778;48.90167;"02° 07' 04.00'' Est, 48° 54' 06.00'' Nord";"78481";;"ALLÉE DES CHARDONNERETS 1 R DES MERLETTES";"78230";"LE PECQ";"Immeuble"; 17.0;"Société HLM"
816589;2.15028;48.81444;"02° 09' 01.00'' Est, 48° 48' 52.00'' Nord";"78646";;"R DU GAL PERSHING 24 R JACQUES LEMERCIER";"78000";"VERSAILLES";"Immeuble"; 28.0;"Copropriété, Syndic, SCI"
816593;2.13167;48.81278;"02° 07' 54.00'' Est, 48° 48' 46.00'' Nord";"78646";;"17 R DES MISSIONNAIRES";"78000";"VERSAILLES";"Immeuble"; 26.0;"Copropriété, Syndic, SCI"
816595;1.83417;48.51917;"01° 50' 03.00'' Est, 48° 31' 09.00'' Nord";"78003";"LA CROIX DES VIGNES";"R DE LA PAIX";"78660";"ABLIS";"Pylône autostable"; 33.0;"ORANGE Services Fixes"
816597;1.97972;48.91611;"01° 58' 47.00'' Est, 48° 54' 58.00'' Nord";"78466";;"R DU CHATEAU ROUGE";"78630";"ORGEVAL";"pylône arbre"; 31.0;"SFR"
816601;1.94611;48.82639;"01° 56' 46.00'' Est, 48° 49' 35.00'' Nord";"78490";;"32 R ABEL GUYET";"78370";"PLAISIR";"Immeuble"; 19.0;"Société HLM"
