Numéro du support;Longitude;Latitude;"Position";"Insee";"Lieu dit";"Adresse";"Code postal";"Commune";"Nature du support";Hauteur en m;"Propriétaire"
19062;2.27694;49.87583;"02° 16' 37.00'' Est, 49° 52' 33.00'' Nord";"80021";"PAUL CLAUDEL";"20, AV PAUL CLAUDEL";"80080";"AMIENS";"Pylône autostable"; 37.0;"ORANGE Services Fixes"
19084;2.25639;50.18000;"02° 15' 23.00'' Est, 50° 10' 48.00'' Nord";"80614";;"R DU HAUT CD 59 AUTOCOMMUTATEUR";"80600";"OUTREBOIS";"Bâtiment"; 4.0;"ORANGE Services Fixes"
65662;2.39417;49.85861;"02° 23' 39.00'' Est, 49° 51' 31.00'' Nord";"80379";"LES QUATORZE";"PÉAGE";"80440";"GLISY";"Pylône autostable"; 24.0;"Sociétés d'Autoroutes"
105408;1.49583;50.18056;"01° 29' 45.00'' Est, 50° 10' 50.00'' Nord";"80182";;"R DU MONT ROTI";"80410";"CAYEUX-SUR-MER";"Pylône autostable"; 27.0;"ORANGE Services Fixes"
105426;1.54167;50.07083;"01° 32' 30.00'' Est, 50° 04' 15.00'' Nord";"80827";;"CD 2";"80520";"WOINCOURT";"Tour hertzienne"; 53.0;"ORANGE Services Fixes"
105438;2.01000;49.89250;"02° 00' 36.00'' Est, 49° 53' 33.00'' Nord";"80554";"BOIS DU DEFROY";"PRÈS D.38";"80540";"MOLLIENS-DREUIL";"Pylône autostable"; 29.0;"ORANGE Services Fixes"
105442;1.74333;50.24139;"01° 44' 36.00'' Est, 50° 14' 29.00'' Nord";"80332";"LA PETITE CROIX";"VOIE RURALE DITE DE DERRIÈRE LES HAIES";"80120";"FOREST-MONTIERS";"Pylône autostable"; 46.6;"HIVORY"
105470;2.15667;49.78472;"02° 09' 24.00'' Est, 49° 47' 05.00'' Nord";"80485";"LA BLANCHE VOYE";"CHEM COMMUNAL N°9";"80160";"LOEUILLY";"Pylône autostable"; 30.0;"Commune, communauté de commune"
151307;3.09861;49.94556;"03° 05' 55.00'' Est, 49° 56' 44.00'' Nord";"80677";;"11 R DE LA REPUBLIQUE";"80240";"ROISEL";"Bâtiment"; 10.0;"Société Privée SA"
151311;3.03833;49.87667;"03° 02' 18.00'' Est, 49° 52' 36.00'' Nord";"80557";;"RUE DE L AERODROME BONDUELLE ESTREES EN CHAUSSEE";"80200";"ESTREES-MONS";"Bâtiment"; 10.0;"Société Privée SA"
173915;2.41111;50.05333;"02° 24' 40.00'' Est, 50° 03' 12.00'' Nord";"80645";;"3 R D'EN HAUT MAIRIE";"80560";"PUCHEVILLERS";"Support non décrit"; 10.0;
173959;2.49944;50.09389;"02° 29' 58.00'' Est, 50° 05' 38.00'' Nord";"80493";;"2 R AUTHIE";"80560";"LOUVENCOURT";"Support non décrit"; 10.0;
175104;2.65611;49.98139;"02° 39' 22.00'' Est, 49° 58' 53.00'' Nord";"80523";;"24 GRANDE RUE MAIRIE";"80300";"MEAULTE";"Support non décrit"; 8.0;
175266;2.71639;49.99861;"02° 42' 59.00'' Est, 49° 59' 55.00'' Nord";"80366";;"4 PL DE L'EGLISE";"80300";"FRICOURT";"Support non décrit"; 9.0;
200920;3.02306;50.01028;"03° 01' 23.00'' Est, 50° 00' 37.00'' Nord";"80601";;"D917 ROUTE NATIONALE RTE DE CAMBRAI";"80240";"NURLU";"Pylône autostable"; 30.0;"Société Privée SA"
200988;1.74750;50.25333;"01° 44' 51.00'' Est, 50° 15' 12.00'' Nord";"80332";;"COTE PICARDE";"80120";"FOREST-MONTIERS";"Support non décrit"; 45.0;
201018;2.82250;49.82111;"02° 49' 21.00'' Est, 49° 49' 16.00'' Nord";"80621";;"A1/SITE DE CHAULNES";"80320";"PERTAIN";"Support non décrit"; 50.0;
215588;2.76194;49.64917;"02° 45' 43.00'' Est, 49° 38' 57.00'' Nord";"80101";;"RST BEUVRAINES PRCI PK 087.581";"80700";"BEUVRAIGNES";"Mât"; 22.0;"SNCF Réseau"
215592;2.78639;49.74722;"02° 47' 11.00'' Est, 49° 44' 50.00'' Nord";"80359";;"RST HATTENCOURT PK 097.821";"80700";"FRESNOY-LES-ROYE";"Mât"; 22.0;"SNCF Réseau"
215596;2.82944;49.85167;"02° 49' 46.00'' Est, 49° 51' 06.00'' Nord";"80002";;"RST CHAULNES PRCI PK 109.974";"80320";"ABLAINCOURT-PRESSOIR";"Mât"; 22.0;"SNCF Réseau"
215600;2.83667;49.88500;"02° 50' 12.00'' Est, 49° 53' 06.00'' Nord";"80288";;"RST ASSEVILLERS PK 113.662";"80200";"ESTREES-DENIECOURT";"Tunnel"; 6.0;"SNCF Réseau"
215602;2.84944;49.92278;"02° 50' 58.00'' Est, 49° 55' 22.00'' Nord";"80430";;"RST HERBECOURT CAI PK 118.154";"80200";"HERBECOURT";"Mât"; 10.0;"SNCF Réseau"
215604;2.85389;49.96139;"02° 51' 14.00'' Est, 49° 57' 41.00'' Nord";"80428";;"RST HEM-MONACU PK 122.410";"80360";"HEM-MONACU";"Mât"; 15.0;"SNCF Réseau"
215608;2.87639;50.01000;"02° 52' 35.00'' Est, 50° 00' 36.00'' Nord";"80204";;"RST COMBLES PRCI 22 PK 128.142";"80360";"COMBLES";"Mât"; 15.0;"SNCF Réseau"
215684;2.61444;49.97056;"02° 36' 52.00'' Est, 49° 58' 14.00'' Nord";"80238";;"RST VILLE SUR ANCRE RD132 PK 150.410";"80300";"DERNANCOURT";"Mât"; 22.0;"SNCF Réseau"
215692;2.66222;50.04611;"02° 39' 44.00'' Est, 50° 02' 46.00'' Nord";"80540";;"RST S/ST D'AVELUY PK 159.900";"80300";"MESNIL-MARTINSART";"Mât"; 10.0;"SNCF Réseau"
215706;2.20139;49.92917;"02° 12' 05.00'' Est, 49° 55' 45.00'' Nord";"80011";;"RST AILLY BV PK 139.960";"80470";"AILLY-SUR-SOMME";"Mât"; 15.0;"SNCF Réseau"
215710;2.12389;49.95250;"02° 07' 26.00'' Est, 49° 57' 09.00'' Nord";"80229";;"RST ST PIERRE A GOUY PN 58 PK 146.150";"80310";"CROUY-SAINT-PIERRE";"Mât"; 22.0;"SNCF Réseau"
215714;2.10417;49.96611;"02° 06' 15.00'' Est, 49° 57' 58.00'' Nord";"80229";;"RST LE QUESNOT PN 60 PK 148.240";"80310";"CROUY-SAINT-PIERRE";"Mât"; 15.0;"SNCF Réseau"
215718;2.04667;50.00278;"02° 02' 48.00'' Est, 50° 00' 10.00'' Nord";"80416";;"RST CONDE FOLIE PK 154.340";"80310";"HANGEST-SUR-SOMME";"Mât"; 15.0;"SNCF Réseau"
215722;1.98528;50.02000;"01° 59' 07.00'' Est, 50° 01' 12.00'' Nord";"80488";;"RST LONG PRE LES CORPS STS EX PN 72 PK 159.560";"80510";"LONGPRE-LES-CORPS-SAINTS";"Mât"; 22.0;"SNCF Réseau"
215724;1.88722;50.05611;"01° 53' 14.00'' Est, 50° 03' 22.00'' Nord";"80282";;"RST PONT REMY PN 84 PK 168.000";"80580";"ERONDELLE";"Mât"; 15.0;"SNCF Réseau"
215726;1.82611;50.09028;"01° 49' 34.00'' Est, 50° 05' 25.00'' Nord";"80001";;"RST ABBEVILLE PN 89 PK 174.350";"80100";"ABBEVILLE";"Mât"; 10.0;"SNCF Réseau"
215730;1.80722;50.12444;"01° 48' 26.00'' Est, 50° 07' 28.00'' Nord";"80001";;"RST ABBEVILLE PN 93 PK 178.200";"80100";"ABBEVILLE";"Mât"; 10.0;"SNCF Réseau"
215734;1.76750;50.13528;"01° 46' 03.00'' Est, 50° 08' 07.00'' Nord";"80385";;"RST GRAND LAVIERS PK 181.200";"80132";"GRAND-LAVIERS";"Mât"; 10.0;"SNCF Réseau"
215738;1.70556;50.19917;"01° 42' 20.00'' Est, 50° 11' 57.00'' Nord";"80600";;"RST NOYELLES SUR MER PN 99 PK 190.300";"80860";"NOYELLES-SUR-MER";"Mât"; 10.0;"SNCF Réseau"
215742;1.67583;50.27472;"01° 40' 33.00'' Est, 50° 16' 29.00'' Nord";"80688";;"RST R (COUR MARCHANDISE) PK 199.200";"80120";"RUE";"Mât"; 15.0;"SNCF Réseau"
215746;1.65778;50.32500;"01° 39' 28.00'' Est, 50° 19' 30.00'' Nord";"80649";;"RST QUEND PN 111 PK 204.800";"80120";"QUEND";"Mât"; 15.0;"SNCF Réseau"
215748;2.28139;49.89306;"02° 16' 53.00'' Est, 49° 53' 35.00'' Nord";"80021";;"RST ST ROCH PS PK 002.190";"80080";"AMIENS";"Mât"; 10.0;"SNCF Réseau"
215752;2.21111;49.83556;"02° 12' 40.00'' Est, 49° 50' 08.00'' Nord";"80050";;"RST BACOUEL SUR SELLE PN 3 PK 010.850";"80480";"BACOUEL-SUR-SELLE";"Mât"; 22.0;"SNCF Réseau"
215756;2.10694;49.80750;"02° 06' 25.00'' Est, 49° 48' 27.00'' Nord";"80582";;"RST NAMPS-QUEVAUVILLERS PK 019.180";"80290";"NAMPS-MAISNIL";"Mât"; 22.0;"SNCF Réseau"
215760;2.05278;49.76972;"02° 03' 10.00'' Est, 49° 46' 11.00'' Nord";"80352";;"RST TUNNEL DE FREMONTIERS PK 025.200";"80160";"FREMONTIERS";"Mât"; 5.0;"SNCF Réseau"
215764;1.98889;49.77056;"01° 59' 20.00'' Est, 49° 46' 14.00'' Nord";"80630";;"RST POIX DE PICARDIE PK 030.330";"80290";"POIX-DE-PICARDIE";"Mât"; 22.0;"SNCF Réseau"
215768;1.92333;49.75528;"01° 55' 24.00'' Est, 49° 45' 19.00'' Nord";"80728";;"RST SAULCHOY SUR POIX PK 036.470";"80290";"SAULCHOY-SOUS-POIX";"Mât"; 12.0;"SNCF Réseau"
215772;1.91333;49.75167;"01° 54' 48.00'' Est, 49° 45' 06.00'' Nord";"80719";;"RST STE SEGREE PK 037.400";"80290";"SAINTE-SEGREE";"Mât"; 5.0;"SNCF Réseau"
215776;2.26528;49.90667;"02° 15' 55.00'' Est, 49° 54' 24.00'' Nord";"80021";;"RST MONTIERES PK 134.700";"80080";"AMIENS";"Mât"; 10.0;"SNCF Réseau"
222477;2.30167;49.91583;"02° 18' 06.00'' Est, 49° 54' 57.00'' Nord";"80021";"VALLÉE ST LADRE";"R ROGER MARTIN DU GARD";"80080";"AMIENS";"Pylône autostable"; 23.0;"Société Privée SA"
265326;2.33722;49.90972;"02° 20' 14.00'' Est, 49° 54' 35.00'' Nord";"80674";;"218, AV DE LA DÉFENSE PASSIVE";"80136";"RIVERY";"Pylône autostable"; 27.0;"ORANGE"
292650;2.29833;49.89222;"02° 17' 54.00'' Est, 49° 53' 32.00'' Nord";"80021";;"12 R DES TROIS CAILLOUX";"80080";"AMIENS";"Immeuble"; 22.0;"Société Privée SA"
309530;2.50972;49.96500;"02° 30' 35.00'' Est, 49° 57' 54.00'' Nord";"80350";;"R D' HEILLY PROCHE INTERSEC RD 929 ET RD 78";"80800";"FRANVILLERS";"Mât métallique"; 3.0;"TDF"
312219;2.94278;49.93306;"02° 56' 34.00'' Est, 49° 55' 59.00'' Nord";"80620";;"32 RUE DU FAUBOURG DE BRETAGNE";"80200";"PERONNE";"Mât"; 12.0;"Société Privée SA"
312225;2.45111;49.89306;"02° 27' 04.00'' Est, 49° 53' 35.00'' Nord";"80785";;"AV DES LILAS";"80800";"VECQUEMONT";"Bâtiment"; 3.0;"Société Privée SA"
331190;1.64500;50.17806;"01° 38' 42.00'' Est, 50° 10' 41.00'' Nord";"80721";;"DDE 80/SEM  AV DU GÉNÉRAL LECLERC";"80230";"SAINT-VALERY-SUR-SOMME";"Bâtiment"; 9.0;"DDE"
340831;2.28722;49.90722;"02° 17' 14.00'' Est, 49° 54' 26.00'' Nord";"80021";;"67 R MONSTRELET";"80080";"AMIENS";"Immeuble"; 12.5;"Particulier"
355018;1.86278;49.77861;"01° 51' 46.00'' Est, 49° 46' 43.00'' Nord";"80479";;"R. DU BOIS DE LA DESSOUS";"80290";"LIGNIERES-CHATELAIN";"Pylône autostable"; 33.0;"ORANGE Services Fixes"
362318;2.29194;49.89222;"02° 17' 31.00'' Est, 49° 53' 32.00'' Nord";"80021";;"2 R DU MARÉCHAL DE LATTRE DE TASSIGNY LE ST ALBAN";"80080";"AMIENS";"Bâtiment"; 25.0;"Titulaire programme Radio/TV"
363918;2.31944;49.88194;"02° 19' 10.00'' Est, 49° 52' 55.00'' Nord";"80021";;"165 R DE CAGNY";"80080";"AMIENS";"Pylône tubulaire"; 13.9;"SFR"
367204;1.83417;50.10611;"01° 50' 03.00'' Est, 50° 06' 22.00'' Nord";"80001";;"1 PL MAX LEJEUNE";"80100";"ABBEVILLE";"Monument historique"; 20.0;"Commune, communauté de commune"
367206;2.56694;49.64694;"02° 34' 01.00'' Est, 49° 38' 49.00'' Nord";"80561";;"PL GL DE GAULLE";"80500";"MONTDIDIER";"Bâtiment"; 15.0;"Commune, communauté de commune"
381895;2.29611;49.88917;"02° 17' 46.00'' Est, 49° 53' 21.00'' Nord";"80021";;"11 R. MAIL ALBERT 1ER";"80080";"AMIENS";"Bâtiment"; 18.0;"Conseil Régional"
384575;2.96694;49.98139;"02° 58' 01.00'' Est, 49° 58' 53.00'' Nord";"80552";"ÉCLUSE N° 8";"ROUTE DE PÉRONNE";"80200";"MOISLAINS";"Bâtiment"; 5.9;"Voies navigables de France"
386227;2.95861;49.97361;"02° 57' 31.00'' Est, 49° 58' 25.00'' Nord";"80552";"ÉCLUSE N° 9";"ROUTE DE PÉRONNE";"80200";"MOISLAINS";"Bâtiment"; 6.6;"Voies navigables de France"
386229;2.94833;49.96722;"02° 56' 54.00'' Est, 49° 58' 02.00'' Nord";"80017";"ÉCLUSE N° 10";"ROUTE DE BERTINCOURT";"80200";"ALLAINES";"Bâtiment"; 6.6;"Voies navigables de France"
386231;2.92139;49.95611;"02° 55' 17.00'' Est, 49° 57' 22.00'' Nord";"80017";"ÉCLUSE N° 11 DE FEUILLAUCOURT";"GRANDE RUE  ALLAINES/ÉCLUSE N° 11 DE FEUIL";"80200";"ALLAINES";"Bâtiment"; 6.6;"Voies navigables de France"
435641;1.83000;50.01250;"01° 49' 48.00'' Est, 50° 00' 45.00'' Nord";"80482";"LA MOTTE";"CHEM D'AIRAISNE CD 173";"80490";"LIMEUX";"Pylône haubané"; 203.0;"TDF"
437488;2.90917;49.76500;"02° 54' 33.00'' Est, 49° 45' 54.00'' Nord";"80542";;"R DE NESLE STÉ AMYLUM FRANCE";"80190";"MESNIL-SAINT-NICAISE";"Pylône autostable"; 34.0;"ORANGE Services Fixes"
437497;2.22250;50.13806;"02° 13' 21.00'' Est, 50° 08' 17.00'' Nord";"80042";"LES VINGT QUATRE";"CD59";"80600";"AUTHEUX";"Tour hertzienne"; 89.0;"TDF"
437657;1.72472;50.09917;"01° 43' 29.00'' Est, 50° 05' 57.00'' Nord";"80546";"ENTRE LES DEUX ROUTES";"TERRAIN DE SPORT RD 925 LE STADE";"80132";"MIANNAY";"Pylône autostable"; 37.8;"HIVORY"
438812;2.30139;49.89000;"02° 18' 05.00'' Est, 49° 53' 24.00'' Nord";"80021";;"70/72 R DES JACOBINS CENTRE D'AFFAIRES DES JACOBINS";"80000";"AMIENS";"Bâtiment"; 30.0;"Copropriété, Syndic, SCI"
440024;2.28194;49.85944;"02° 16' 55.00'' Est, 49° 51' 34.00'' Nord";"80261";;"CHEM DE RUMIGNY CHEM DE DURY";"80480";"DURY";"Pylône autostable"; 64.0;"Towercast"
440810;1.81361;49.85472;"01° 48' 49.00'' Est, 49° 51' 17.00'' Nord";"80484";"LES ONZE";"CD 96";"80430";"LIOMER";"Pylône autostable"; 30.0;"HIVORY"
446700;1.79056;50.05611;"01° 47' 26.00'' Est, 50° 03' 22.00'' Nord";"80444";;"MAISON DE LA PLAINE DU MOULIN NEUF RN28";"80132";"HUCHENNEVILLE";"Pylône autostable"; 47.0;"Towercast"
450535;1.95500;49.96694;"01° 57' 18.00'' Est, 49° 58' 01.00'' Nord";"80013";;"CITE ST DENIS CHEM D'HANGEST";"80270";"AIRAINES";"Pylône autostable"; 46.6;"HIVORY"
456417;2.30000;49.91139;"02° 17' 60.00'' Est, 49° 54' 41.00'' Nord";"80021";;"7 R GUYNEMER TOUR MARYSE BASTIÉ";"80000";"AMIENS";"Immeuble"; 66.0;"Société HLM"
457248;1.83056;50.12389;"01° 49' 50.00'' Est, 50° 07' 26.00'' Nord";"80001";"LA JUSTICE";"CÔTE DE LA JUSTICE RN1 CAVÉE MARCADÉ CTRE";"80100";"ABBEVILLE";"Pylône autostable"; 41.0;"HIVORY"
457460;2.42083;49.93611;"02° 25' 15.00'' Est, 49° 56' 10.00'' Nord";"80650";"LE SOMMELET";"PRÈS D.929 CHÂTEAU D'EAU";"80115";"QUERRIEU";"Château d'eau - réservoir"; 26.0;"Syndicat des eaux, Adduction"
460754;2.93889;49.94583;"02° 56' 20.00'' Est, 49° 56' 45.00'' Nord";"80620";;"7 R DU CHÂTEAU D'EAU";"80200";"PERONNE";"Pylône autostable"; 35.0;"TDF"
461802;2.34028;49.76111;"02° 20' 25.00'' Est, 49° 45' 40.00'' Nord";"80452";"LE QUESNOT";"RTE D'AMIENS CD 7";"80250";"JUMEL";"Pylône autostable"; 31.0;"HIVORY"
462036;2.32333;49.87611;"02° 19' 24.00'' Est, 49° 52' 34.00'' Nord";"80021";;"14 R CONDORCET";"80000";"AMIENS";"Immeuble"; 38.0;"Particulier"
468011;1.87000;50.09500;"01° 52' 12.00'' Est, 50° 05' 42.00'' Nord";"80001";"FOND DE CANTELEU";"N.1 - RTE D'AMIENS";"80100";"ABBEVILLE";"Château d'eau - réservoir"; 58.0;"Syndicat des eaux, Adduction"
472746;2.98972;49.75167;"02° 59' 23.00'' Est, 49° 45' 06.00'' Nord";"80811";"LE BOIS DU REPOSOIR";;"80400";"VOYENNES";"Pylône autostable"; 30.0;"SNCF Réseau"
474109;2.99167;49.83972;"02° 59' 30.00'' Est, 49° 50' 23.00'' Nord";"80034";"LES COUTURES";"RD 937";"80200";"ATHIES";"Pylône autostable"; 25.0;"Sociétés d'Autoroutes"
474211;2.31250;49.89056;"02° 18' 45.00'' Est, 49° 53' 26.00'' Nord";"80021";;"R LEGRAND D'AUSSY - PROXIMITE PL ALPHONSE FIQUET ENCLAVE SNCF";"80000";"AMIENS";"Pylône autostable"; 35.0;"SNCF Réseau"
474720;2.27361;49.85889;"02° 16' 25.00'' Est, 49° 51' 32.00'' Nord";"80261";"MI-GROGNE";"RN.1 - STATION TDF D'AMIENS-DURY";"80480";"DURY";"Tour hertzienne"; 95.5;"TDF"
474858;1.99917;50.08028;"01° 59' 57.00'' Est, 50° 04' 49.00'' Nord";"80009";;"CHEM BLANC";"80690";"AILLY-LE-HAUT-CLOCHER";"Pylône autostable"; 48.0;"HIVORY"
474862;2.15444;50.19278;"02° 09' 16.00'' Est, 50° 11' 34.00'' Nord";"80697";"LE BOUT DU BOIS MÊME";"CHEM RURAL DE LA BARRIÈRE";"80370";"SAINT-ACHEUL";"Pylône autostable"; 35.0;"HIVORY"
476752;2.31833;49.88889;"02° 19' 06.00'' Est, 49° 53' 20.00'' Nord";"80021";;"31 R RIOLAN IMM DES HLM DU NORD ET DE L'EST";"80000";"AMIENS";"Immeuble"; 43.0;"Société HLM"
477551;2.96417;49.95472;"02° 57' 51.00'' Est, 49° 57' 17.00'' Nord";"80154";"LA FLAQUE";"RN 17";"80200";"BUSSU";"Pylône autostable"; 76.0;"ORANGE Services Fixes"
477605;3.08306;49.75278;"03° 04' 59.00'' Est, 49° 45' 10.00'' Nord";"80410";"ESTOUILLY";"2 RTE DE PITHON";"80400";"HAM";"Château d'eau - réservoir"; 60.0;"Commune, communauté de commune"
479688;2.40806;49.84778;"02° 24' 29.00'' Est, 49° 50' 52.00'' Nord";"80131";"LE CHEMIN DE GENTELLES";"R DE GENTELLES D.168";"80440";"BOVES";"Pylône tubulaire"; 25.0;"HIVORY"
482436;1.80944;50.08139;"01° 48' 34.00'' Est, 50° 04' 53.00'' Nord";"80512";"PRÉS DES 3 CHEMS";"MAISON DU MOULIN MONT CAUBERT TOUR TÉLÉCOM";"80132";"MAREUIL-CAUBERT";"Tour hertzienne"; 103.0;"TDF"
482468;2.24556;49.81694;"02° 14' 44.00'' Est, 49° 49' 01.00'' Nord";"80627";"LA MONTAGNE";"VC N°7 DE PLACHY BUYON À HÉBÉCOURT A16 ACCÈS SERVICE 159 PK117.35";"80160";"PLACHY-BUYON";"Pylône autostable"; 42.0;"Sociétés d'Autoroutes"
483507;1.75861;50.20361;"01° 45' 31.00'' Est, 50° 12' 13.00'' Nord";"80598";"LE PETIT CHÊNE";"D.111/A.16 - PK.211 ACCÈS DE SERVICE A.16 SITE SANEF";"80860";"NOUVION";"Pylône autostable"; 50.2;"Sociétés d'Autoroutes"
483732;2.51583;49.87222;"02° 30' 57.00'' Est, 49° 52' 20.00'' Nord";"80799";;"R DE CORBIE CD 23 CHATEAU D'EAU";"80800";"VILLERS-BRETONNEUX";"Château d'eau - réservoir"; 52.3;"Syndicat des eaux, Adduction"
484040;2.28139;49.87722;"02° 16' 53.00'' Est, 49° 52' 38.00'' Nord";"80021";;"20 AV PAUL CLAUDEL BÂT.CT4";"80000";"AMIENS";"Bâtiment"; 37.0;"ORANGE Services Fixes"
485901;1.55667;49.99333;"01° 33' 24.00'' Est, 49° 59' 36.00'' Nord";"80373";;"CHEM DE LA JUSTICE";"80220";"GAMACHES";"Pylône autostable"; 37.5;"HIVORY"
486695;1.57444;50.34333;"01° 34' 28.00'' Est, 50° 20' 36.00'' Nord";"80333";;"223 AV JEAN GROZ";"80120";"FORT-MAHON-PLAGE";"Château d'eau - réservoir"; 43.3;"Commune, communauté de commune"
492669;2.76806;49.66778;"02° 46' 05.00'' Est, 49° 40' 04.00'' Nord";"80467";"SOLE DU BOIS MICHEL";"CHEM DE BEAUVRAIGNES";"80700";"LAUCOURT";"Pylône autostable"; 32.0;"HIVORY"
492982;2.78194;49.70528;"02° 46' 55.00'' Est, 49° 42' 19.00'' Nord";"80685";;"R DE VERDUN";"80700";"ROYE";"Château d'eau - réservoir"; 53.1;"Commune, communauté de commune"
492995;2.26472;49.86639;"02° 15' 53.00'' Est, 49° 51' 59.00'' Nord";"80725";"LA BAILLY";"AV DU GOLF - GOLF D'AMIENS L'ARBRE A NOIX";"80480";"SALOUEL";"Pylône autostable"; 27.5;"ORANGE"
493288;3.08611;49.95778;"03° 05' 10.00'' Est, 49° 57' 28.00'' Nord";"80677";"LES TREIZE";"V COM. N°202 DE ROISEL À LONGAVESNE LE CERTEMONT";"80240";"ROISEL";"Pylône autostable"; 39.0;"CELLNEX"
493418;2.50972;49.96500;"02° 30' 35.00'' Est, 49° 57' 54.00'' Nord";"80350";;"R D' HEILLY PROCHE INTERSEC RD 929 ET RD 78";"80800";"FRANVILLERS";"Pylône tubulaire"; 39.0;"TDF"
493486;1.65806;50.27306;"01° 39' 29.00'' Est, 50° 16' 23.00'' Nord";"80688";"LES TERRES DU MOULIN";"V COM. N°18 - DU MOULIN À ST FIRMIN";"80120";"RUE";"Pylône tubulaire"; 34.0;"ATC FRANCE"
494183;2.92389;49.98333;"02° 55' 26.00'' Est, 49° 59' 00.00'' Nord";"80115";"PLAINE DU MALASSISE";"R D'ALLAINES PRES RD 149";"80200";"BOUCHAVESNES-BERGEN";"Pylône autostable"; 39.0;"TDF"
495231;1.40194;50.06833;"01° 24' 07.00'' Est, 50° 04' 06.00'' Nord";"80533";"LE MONT ROTI";;"80350";"MERS-LES-BAINS";"Pylône autostable"; 48.0;"TDF"
495354;1.56167;50.06639;"01° 33' 42.00'' Est, 50° 03' 59.00'' Nord";"80360";"LE MOULIN DE FRESSENNEVILLE";"R JEAN JAURES-PRES DE LA D1925";"80390";"FRESSENNEVILLE";"Pylône tubulaire"; 49.0;"TDF"
496106;2.84389;49.86611;"02° 50' 38.00'' Est, 49° 51' 58.00'' Nord";"80090";"AU CHEMIN D'ESTRÉES";"CHEMIN D'EXPLOITATION N°3";"80200";"BERNY-EN-SANTERRE";"Pylône autostable"; 44.0;"TDF"
496215;2.65167;50.00139;"02° 39' 06.00'' Est, 50° 00' 05.00'' Nord";"80016";;"PL EMILE LETURCQ";"80300";"ALBERT";"Bâtiment"; 62.0;"Commune, communauté de commune"
496255;1.54056;50.08556;"01° 32' 26.00'' Est, 50° 05' 08.00'' Nord";"80368";;"R ARAGO 11 R DES ABRETS";"80130";"FRIVILLE-ESCARBOTIN";"Pylône tubulaire"; 30.0;"TDF"
496287;2.51222;49.90417;"02° 30' 44.00'' Est, 49° 54' 15.00'' Nord";"80212";"CHANTRAIGNE";"2 QUAI DU CANAL";"80800";"CORBIE";"Pylône autostable"; 48.5;"TDF"
497367;2.34000;50.16583;"02° 20' 24.00'' Est, 50° 09' 57.00'' Nord";"80253";"LE PARADIS";"CHEMIN DU SOUICH";"80600";"DOULLENS";"Pylône autostable"; 43.3;"TDF"
498390;2.34611;49.70972;"02° 20' 46.00'' Est, 49° 42' 35.00'' Nord";"80299";"LE GREZ";"RD 193";"80250";"LA FALOISE";"Château d'eau - réservoir"; 39.0;"Syndicat des eaux, Adduction"
498959;2.17722;49.98917;"02° 10' 38.00'' Est, 49° 59' 21.00'' Nord";"80793";;"AIRE DE REPOS  VIGNACOURT - A 16";"80650";"VIGNACOURT";"Pylône autostable"; 54.3;"Sociétés d'Autoroutes"
499012;2.66278;49.99917;"02° 39' 46.00'' Est, 49° 59' 57.00'' Nord";"80016";"LA JUSTICE";"CHEM CROISE CHÂTEAU D'EAU";"80300";"ALBERT";"Château d'eau - réservoir"; 34.0;"Syndicat des eaux, Adduction"
500101;2.36222;49.86750;"02° 21' 44.00'' Est, 49° 52' 03.00'' Nord";"80131";;"R DU PHARE DU BOUT DU MONDE  RD 935";"80440";"BOVES";"Château d'eau - réservoir"; 47.5;"Commune, communauté de commune"
501509;2.49639;49.77722;"02° 29' 47.00'' Est, 49° 46' 38.00'' Nord";"80570";;"CHEM RURAL DIT DE LA CHAPELLE";"80110";"MOREUIL";"Château d'eau - réservoir"; 52.0;"Syndicat des eaux, Adduction"
501523;1.63556;50.31833;"01° 38' 08.00'' Est, 50° 19' 06.00'' Nord";"80649";"AU SENTIER DE LA PROCESSION";"R DE LA FONTAINE ST VAAST";"80120";"QUEND";"Pylône autostable"; 35.0;"TDF"
502315;2.30000;49.84944;"02° 17' 60.00'' Est, 49° 50' 58.00'' Nord";"80261";;"TOUR DE ST FUSCIEN MONT MARTIN ET LES POTENTES";"80480";"DURY";"Tour hertzienne"; 123.0;"ORANGE Services Fixes"
502928;2.24583;49.91528;"02° 14' 45.00'' Est, 49° 54' 55.00'' Nord";"80021";;"9 R LOUISE MICHEL";"80000";"AMIENS";"Pylône autostable"; 45.0;"Sociétés d'Autoroutes"
506196;2.06000;50.03222;"02° 03' 36.00'' Est, 50° 01' 56.00'' Nord";"80296";"BOIS DE SENTELIER";"A 16 PK 119";"80830";"L'ETOILE";"Pylône autostable"; 74.0;"Sociétés d'Autoroutes"
508958;2.80972;49.81889;"02° 48' 35.00'' Est, 49° 49' 08.00'' Nord";"80186";;"17/19 R JEAN LEBAS ETS BILLORE MATERIAUX";"80320";"CHAULNES";"Pylône autostable"; 37.0;"HIVORY"
509375;2.40000;49.68639;"02° 23' 60.00'' Est, 49° 41' 11.00'' Nord";"80283";"LA VALEETTE";"V COM. N°4 D'ESCLAINVILLERS À AINVAL R DU JEU DE PAUME";"80250";"ESCLAINVILLERS";"Pylône autostable"; 27.3;"HIVORY"
509710;2.79917;49.77528;"02° 47' 57.00'' Est, 49° 46' 31.00'' Nord";"80421";;"A.1 - AIRE DE REPOS DE FONCHES SITE SANEF";"80700";"HATTENCOURT";"Pylône autostable"; 43.0;"Sociétés d'Autoroutes"
512985;2.26861;50.00972;"02° 16' 07.00'' Est, 50° 00' 35.00'' Nord";"80316";"LES LONGS CHAMPS DE XAVIÈRE";"CHEM DÉPARTEMENTAL N°117 DES FLESSELLES AU ROSEL";"80260";"FLESSELLES";"Château d'eau - réservoir"; 39.1;"Syndicat des eaux, Adduction"
516764;1.85583;50.10833;"01° 51' 21.00'' Est, 50° 06' 30.00'' Nord";"80001";;"RTE DE DOULLENS RD 925 CHÂTEAU D'EAU";"80100";"ABBEVILLE";"Château d'eau - réservoir"; 45.0;"Commune, communauté de commune"
517064;1.80889;50.13750;"01° 48' 32.00'' Est, 50° 08' 15.00'' Nord";"80385";"LES ARGILIERES";"A16/PR174.1/ABBEVILLE NORD";"80132";"GRAND-LAVIERS";"Pylône autostable"; 52.0;"Sociétés d'Autoroutes"
517258;2.27167;49.90667;"02° 16' 18.00'' Est, 49° 54' 24.00'' Nord";"80021";;"51 R DE SULLY 30 R ABBEVILLE";"80000";"AMIENS";"Bâtiment"; 32.0;"Société Privée SA"
517564;1.50111;50.18000;"01° 30' 04.00'' Est, 50° 10' 48.00'' Nord";"80182";;"PL DU 8 MAI 1945 PROCHE DU STADE";"80410";"CAYEUX-SUR-MER";"Pylône autostable"; 42.0;"HIVORY"
519482;2.47639;49.68139;"02° 28' 35.00'' Est, 49° 40' 53.00'' Nord";"80390";"LE GRAND CHAMP DE FAVIÈRE";"LE MOULIN D 26";"80250";"GRIVESNES";"Pylône autostable"; 38.0;"Conseil Départemental"
521662;2.28306;49.93639;"02° 16' 59.00'' Est, 49° 56' 11.00'' Nord";"80021";"LE CHAMP PLEINET";"AVENUE ROGER DUMOULIN ZI NORD";"80000";"AMIENS";"Château d'eau - réservoir"; 31.0;"CCI,Ch Metiers,Port Aut,Aérop"
522836;2.24444;49.93361;"02° 14' 40.00'' Est, 49° 56' 01.00'' Nord";"80024";"LE BON ECU";"A16 PEAGE AMIENS NORD";"80470";"ARGOEUVES";"Pylône autostable"; 74.5;"Sociétés d'Autoroutes"
529415;2.30833;49.90361;"02° 18' 30.00'' Est, 49° 54' 13.00'' Nord";"80021";;"178 CHAUSSÉE ST PIERRE";"80000";"AMIENS";"Immeuble"; 12.0;"Particulier"
530781;1.87889;49.99500;"01° 52' 44.00'' Est, 49° 59' 42.00'' Nord";"80406";"LES DERRIERES";"R LOUIS DENEUX PRES TERRAINS DE SPORT";"80490";"HALLENCOURT";"Pylône autostable"; 27.6;"ATC FRANCE"
530883;1.59306;50.28083;"01° 35' 35.00'' Est, 50° 16' 51.00'' Nord";"80713";;"R DE MONCHEAUX EGLISE";"80120";"SAINT-QUENTIN-EN-TOURMONT";"Monument religieux"; 18.0;"Commune, communauté de commune"
531215;2.55500;50.13333;"02° 33' 18.00'' Est, 50° 07' 60.00'' Nord";"80201";;"FERME DU ROSSIGNOL V COM. N°6 DE COIGNUEX À BAYENCOURT";"80560";"COIGNEUX";"Pylône autostable"; 30.0;"ORANGE"
537343;2.92778;49.80944;"02° 55' 40.00'' Est, 49° 48' 34.00'' Nord";"80568";;"BOIS DE PARGNY STATION POMPAGE MORCHAIN";"80190";"MORCHAIN";"Bâtiment"; 6.0;"Syndicat des eaux, Adduction"
537345;2.91000;49.78778;"02° 54' 36.00'' Est, 49° 47' 16.00'' Nord";"80638";;"VALLEE DES MAROTTES STATION POMPAGE DE POTTE";"80190";"POTTE";"Bâtiment"; 6.0;"Syndicat des eaux, Adduction"
537347;2.89528;49.82889;"02° 53' 43.00'' Est, 49° 49' 44.00'' Nord";"80474";;"RTE DE PERONNE RESERVOIR DE LICOURT";"80320";"LICOURT";"Château d'eau - réservoir"; 25.0;"Syndicat des eaux, Adduction"
538323;2.77694;49.73361;"02° 46' 37.00'' Est, 49° 44' 01.00'' Nord";"80359";"LA PETITE SOLE";"3 R D'EN BAS";"80700";"FRESNOY-LES-ROYE";"Bâtiment"; 26.0;"Société Privée SA"
546663;2.05917;50.04056;"02° 03' 33.00'' Est, 50° 02' 26.00'' Nord";"80574";"LA FOLIE FERME";"D.216 / N.1";"80690";"MOUFLERS";"Pylône autostable"; 25.0;"ORANGE"
553623;1.44194;50.09861;"01° 26' 31.00'' Est, 50° 05' 55.00'' Nord";"80039";"BEL-AIR";"BD  PÉRIPHÉRIQUE";"80460";"AULT";"Pylône autostable"; 35.0;"TDF"
553981;1.85278;50.09778;"01° 51' 10.00'' Est, 50° 05' 52.00'' Nord";"80001";;"4 R D'ARTOIS HOP - BAT ODA";"80100";"ABBEVILLE";"Immeuble"; 27.0;"Société HLM"
555622;2.29861;49.90139;"02° 17' 55.00'' Est, 49° 54' 05.00'' Nord";"80021";;"SQ DARLINGTON RÉS. DARLINGTON";"80000";"AMIENS";"Immeuble"; 33.3;"Société HLM"
560055;2.02667;49.81806;"02° 01' 36.00'' Est, 49° 49' 05.00'' Nord";"80218";"LE MONT";"MONT DE BUSSY CHEM COMMUNAL PRÉS GR125";"80290";"COURCELLES-SOUS-MOYENCOURT";"Château d'eau - réservoir"; 40.0;"Syndicat des eaux, Adduction"
560069;2.46111;49.82528;"02° 27' 40.00'' Est, 49° 49' 31.00'' Nord";"80094";"LES ECHANGES";"VC N° 2 - D 476 PYL PRES CHATEAU D EAU";"80110";"BERTEAUCOURT-LES-THENNES";"Pylône autostable"; 27.0;"ORANGE"
560515;1.79722;50.26583;"01° 47' 50.00'' Est, 50° 15' 57.00'' Nord";"80497";;"R DE LA VERRERIE";"80150";"MACHY";"Pylône autostable"; 25.0;"HIVORY"
567326;2.30000;49.89194;"02° 17' 60.00'' Est, 49° 53' 31.00'' Nord";"80021";;"R ERNEST CAUVIN";"80000";"AMIENS";"Immeuble"; 16.3;"Copropriété, Syndic, SCI"
568467;2.38028;49.75028;"02° 22' 49.00'' Est, 49° 45' 01.00'' Nord";"80010";;"RTE DE MERVILLE";"80250";"AILLY-SUR-NOYE";"Château d'eau - réservoir"; 33.0;"SDIS, secours, incendie"
570461;2.90472;49.94444;"02° 54' 17.00'' Est, 49° 56' 40.00'' Nord";"80199";"ECLUSE N°12";"PRÉ DE L'OGIBERT";"80200";"CLERY-SUR-SOMME";"Bâtiment"; 6.0;"Voies navigables de France"
570934;2.93500;49.90861;"02° 56' 06.00'' Est, 49° 54' 31.00'' Nord";"80620";"ECLUSE N13 DE PÉRONNE";"LA CHAPELETTE";"80200";"PERONNE";"Bâtiment"; 6.0;"Voies navigables de France"
570953;2.93861;49.82250;"02° 56' 19.00'' Est, 49° 49' 21.00'' Nord";"80272";"ECLUSE 14";"LE MARAIS DES PAPILLONS";"80190";"EPENANCOURT";"Bâtiment"; 6.0;"Voies navigables de France"
570991;2.94500;49.75667;"02° 56' 42.00'' Est, 49° 45' 24.00'' Nord";"80684";"ECLUSE 15";"BIS PONT";"80190";"ROUY-LE-PETIT";"Bâtiment"; 6.0;"Voies navigables de France"
573554;2.30222;49.87972;"02° 18' 08.00'' Est, 49° 52' 47.00'' Nord";"80021";;"203 BD ST QUENTIN RES HENRIVILLE";"80000";"AMIENS";"Immeuble"; 36.5;"Copropriété, Syndic, SCI"
573924;2.86361;49.96389;"02° 51' 49.00'' Est, 49° 57' 50.00'' Nord";"80199";"REVERS DE LA VALLÉE DE BRESSE";"PÉAGE A1 - CHEM RURAL";"80200";"CLERY-SUR-SOMME";"Pylône autostable"; 55.0;"Sociétés d'Autoroutes"
587183;2.85139;49.91083;"02° 51' 05.00'' Est, 49° 54' 39.00'' Nord";"80313";"CHEM DOMPIERRE";;"80200";"FLAUCOURT";"Pylône autostable"; 27.0;"ORANGE"
590447;1.77944;49.95611;"01° 46' 46.00'' Est, 49° 57' 22.00'' Nord";"80606";"PLAINE DU MOULIN DE LA TOUR";"ROUTE DÉPARTEMENTALE 29";"80140";"OISEMONT";"Pylône autostable"; 26.0;"ORANGE"
594846;2.29222;49.89278;"02° 17' 32.00'' Est, 49° 53' 34.00'' Nord";"80021";;"20 BD DE LA 2ÈME DB RÉSIDENCE DE LA 2ÈME DB";"80000";"AMIENS";"Immeuble"; 41.0;"Société HLM"
601450;2.79111;49.70000;"02° 47' 28.00'' Est, 49° 42' 00.00'' Nord";"80685";"FAUBOURG ST PIERRE";"RUE BERTIN D4221";"80700";"ROYE";"Pylône autostable"; 45.0;"TDF"
602295;2.32583;50.02306;"02° 19' 33.00'' Est, 50° 01' 23.00'' Nord";"80746";;"R D'AMIENS RN 25";"80260";"TALMAS";"Pylône autostable"; 46.0;"SFR"
605710;2.64222;50.00389;"02° 38' 32.00'' Est, 50° 00' 14.00'' Nord";"80016";;"47 R CHANDENNIER";"80300";"ALBERT";"Pylône autostable"; 32.0;"ORANGE"
617870;2.23250;49.76194;"02° 13' 57.00'' Est, 49° 45' 43.00'' Nord";"80485";;"A.16 - DIRECTION PARIS-AMIENS AIRE DE REPOS DE LA VALLÉE DE LA SELLE";"80160";"LOEUILLY";"Pylône autostable"; 42.0;"Sociétés d'Autoroutes"
618076;2.50028;49.92194;"02° 30' 01.00'' Est, 49° 55' 19.00'' Nord";"80212";"LE MARAIS DES PRÉS";"R DU MILIEU";"80800";"CORBIE";"Pylône autostable"; 30.0;"ORANGE"
621993;1.97833;49.76889;"01° 58' 42.00'' Est, 49° 46' 08.00'' Nord";"80630";"LES TERRES DE LA VILLE";"R DU FRIER";"80290";"POIX-DE-PICARDIE";"Pylône autostable"; 51.0;"ORANGE Services Fixes"
629019;3.08000;49.74389;"03° 04' 48.00'' Est, 49° 44' 38.00'' Nord";"80410";;"CHEM D'ACCÈS AU PORT";"80400";"HAM";"Pylône autostable"; 41.0;"ORANGE Services Fixes"
632277;2.39389;49.79833;"02° 23' 38.00'' Est, 49° 47' 54.00'' Nord";"80246";"LE MARAVAIS";"10 IMP DE LAGARE";"80440";"DOMMARTIN";"Pylône autostable"; 26.0;"ORANGE"
633319;2.80250;49.78944;"02° 48' 09.00'' Est, 49° 47' 22.00'' Nord";"80646";;"CHEM D'ACCES SANEF CHEM DES MOINES";"80320";"PUNCHY";"Pylône autostable"; 30.0;"ORANGE"
634292;2.84611;49.79000;"02° 50' 46.00'' Est, 49° 47' 24.00'' Nord";"80621";"PRÈS LA ROUTE";"HYENCOURT LE PETIT";"80320";"PERTAIN";"Pylône autostable"; 30.0;"SNCF Réseau"
634294;2.67278;49.83417;"02° 40' 22.00'' Est, 49° 50' 03.00'' Nord";"80417";"TERRE DES PAUVRES";;"80131";"HARBONNIERES";"Pylône autostable"; 25.0;"SNCF Réseau"
634298;2.41167;49.88611;"02° 24' 42.00'' Est, 49° 53' 10.00'' Nord";"80461";"LA RENARDIÈRE";;"80450";"LAMOTTE-BREBIERE";"Pylône autostable"; 25.0;"SNCF Réseau"
634308;2.53222;49.86222;"02° 31' 56.00'' Est, 49° 51' 44.00'' Nord";"80799";;"R DE LA BRIQUETERIE ENTREPRISE POWEAR";"80800";"VILLERS-BRETONNEUX";"Pylône tubulaire"; 35.1;"ORANGE"
640138;2.35944;50.14944;"02° 21' 34.00'' Est, 50° 08' 58.00'' Nord";"80253";;"R DE ROUTEQUEUE ENTREPRISE BRIOIS";"80600";"DOULLENS";"Pylône tubulaire"; 25.0;"ORANGE"
640170;2.86389;49.96389;"02° 51' 50.00'' Est, 49° 57' 50.00'' Nord";"80199";"REVERS DE LA VALLÉE DE BRESSE";"PÉAGE CHEM RURAL";"80200";"CLERY-SUR-SOMME";"Pylône autostable"; 6.0;"ORANGE Services Fixes"
640662;2.85583;49.99528;"02° 51' 21.00'' Est, 49° 59' 43.00'' Nord";"80521";"AU CHEM DU ROI";"RD146/RD 146B SANEF";"80360";"MAUREPAS";"Pylône autostable"; 24.0;"ORANGE"
643446;2.31778;50.11000;"02° 19' 04.00'' Est, 50° 06' 36.00'' Nord";"80071";"LE CHAMP À BREBIS";"R DE LA MONTAGNE";"80630";"BEAUVAL";"Château d'eau - réservoir"; 32.0;"Commune, communauté de commune"
646178;1.57583;50.11889;"01° 34' 33.00'' Est, 50° 07' 08.00'' Nord";"80700";;"R. DU BOUT DU HAUT";"80960";"SAINT-BLIMONT";"Pylône tubulaire"; 16.0;"ORANGE Services Fixes"
646725;2.20944;49.97500;"02° 12' 34.00'' Est, 49° 58' 30.00'' Nord";"80722";"LES GRANDS CHAMPS";"R DU STADE STADE ANDRÉ LAVILETTE";"80310";"SAINT-VAAST-EN-CHAUSSEE";"Pylône autostable"; 33.0;"HIVORY"
647521;2.87806;50.01000;"02° 52' 41.00'' Est, 50° 00' 36.00'' Nord";"80204";"PLAINE DE LA CITÉ";"PRÈS DE LA D172 - RUE DE SAILLY PK 136 - A1 SENS PARIS LILLE PYL SANEF";"80360";"COMBLES";"Pylône autostable"; 72.0;"Sociétés d'Autoroutes"
650117;2.99306;49.91778;"02° 59' 35.00'' Est, 49° 55' 04.00'' Nord";"80150";"HAMEAU DE COURCELLES";"R DE BUIRE";"80200";"BUIRE-COURCELLES";"Fût"; 31.0;"Société Privée SA"
660608;2.26639;49.87333;"02° 15' 59.00'' Est, 49° 52' 24.00'' Nord";"80725";"RÉSIDENCE DU BAILLY";"AV PAUL CLAUDEL BÂTIMENT D";"80000";"SALOUEL";"Immeuble"; 28.0;"Titulaire programme Radio/TV"
664334;2.78500;49.84500;"02° 47' 06.00'' Est, 49° 50' 42.00'' Nord";"80789";"LES PLANTS";"D79";"80320";"VERMANDOVILLERS";"Pylône autostable"; 36.0;"ORANGE"
668824;1.47944;50.08944;"01° 28' 46.00'' Est, 50° 05' 22.00'' Nord";"80364";;"R. DES ÉCOLES";"80460";"FRIAUCOURT";"Pylône tubulaire"; 37.0;"HIVORY"
671856;2.67139;49.87389;"02° 40' 17.00'' Est, 49° 52' 26.00'' Nord";"80569";"LE BOIS DU SART";"N 1029";"80340";"MORCOURT";"Pylône autostable"; 36.0;"ORANGE"
674241;2.72361;49.93833;"02° 43' 25.00'' Est, 49° 56' 18.00'' Nord";"80136";;"10 R FRANCOIS MITTERAND BÂTIMENT DE L'ANCIENNE GIE";"80340";"BRAY-SUR-SOMME";"Pylône autostable"; 37.9;"HIVORY"
676767;3.03111;49.83806;"03° 01' 52.00'' Est, 49° 50' 17.00'' Nord";"80555";;"6 HAMEAU DE FLEZ";"80200";"MONCHY-LAGACHE";"Bâtiment"; 13.0;"Particulier"
677924;2.08583;49.82167;"02° 05' 09.00'' Est, 49° 49' 18.00'' Nord";"80656";;"CH RURAL DIT DU TOUR DE VILLE";"80710";"QUEVAUVILLERS";"Pylône autostable"; 36.0;"ORANGE"
682102;1.63194;50.18028;"01° 37' 55.00'' Est, 50° 10' 49.00'' Nord";"80721";;"R DU MOULIN À L'HUILE CHÂTEAU D'EAU";"80230";"SAINT-VALERY-SUR-SOMME";"Château d'eau - réservoir"; 37.2;"Commune, communauté de commune"
683244;1.74861;49.84083;"01° 44' 55.00'' Est, 49° 50' 27.00'' Nord";"80703";;"R DE BEAUCAMP";"80430";"SAINT-GERMAIN-SUR-BRESLE";"Château d'eau - réservoir"; 33.0;"Commune, communauté de commune"
685529;1.66556;50.24000;"01° 39' 56.00'' Est, 50° 14' 24.00'' Nord";"80303";;"R DE L'EGLISE PARKING";"80120";"FAVIERES";"Pylône tubulaire"; 34.0;"ORANGE"
690774;2.26944;49.93528;"02° 16' 10.00'' Est, 49° 56' 07.00'' Nord";"80021";;"R DE VAUX - ZI DE LOMPRÉ PRÈS CHÂTEAU D'EAU D.12";"80000";"AMIENS";"Pylône autostable"; 53.0;"ORANGE Services Fixes"
695366;2.30583;49.88556;"02° 18' 21.00'' Est, 49° 53' 08.00'' Nord";"80021";;"6 R DUCANGE COLLÈGE LA SALLE";"80000";"AMIENS";"Immeuble"; 28.4;"Particulier"
695381;2.31889;49.90861;"02° 19' 08.00'' Est, 49° 54' 31.00'' Nord";"80021";;"26 R BALZAC";"80000";"AMIENS";"Immeuble"; 30.0;"Société HLM"
697990;2.30139;49.91111;"02° 18' 05.00'' Est, 49° 54' 40.00'' Nord";"80021";;"18 R GUYNEMER RÉS. MARYSE BASTIÉ";"80000";"AMIENS";"Immeuble"; 66.5;"Société HLM"
698402;2.39667;50.09417;"02° 23' 48.00'' Est, 50° 05' 39.00'' Nord";"80070";"L'ARBRISSET";"TERRAIN DE FOOTBALL DE BEAUQUESNE";"80600";"BEAUQUESNE";"Pylône autostable"; 33.0;"HIVORY"
698408;2.28250;50.04361;"02° 16' 57.00'' Est, 50° 02' 37.00'' Nord";"80584";;"10 R DU CALVAIRE BENOIT";"80260";"NAOURS";"Pylône autostable"; 37.0;"BOUYGUES"
700789;1.94694;50.14111;"01° 56' 49.00'' Est, 50° 08' 28.00'' Nord";"80716";;"9001 SOLE DE MANCHERON";"80135";"SAINT-RIQUIER";"Pylône autostable"; 30.0;"TDF"
702003;2.65278;49.99083;"02° 39' 10.00'' Est, 49° 59' 27.00'' Nord";"80016";;"79  R VICTOR LINNÉ";"80300";"ALBERT";"Immeuble"; 15.0;"Société HLM"
703972;2.23806;49.89194;"02° 14' 17.00'' Est, 49° 53' 31.00'' Nord";"80632";"AUTOROUTE A16 SORTIE 19";"GARE DE PÉAGE";"80480";"PONT-DE-METZ";"Pylône autostable"; 30.0;"Sociétés d'Autoroutes"
706977;1.75583;50.05917;"01° 45' 21.00'' Est, 50° 03' 33.00'' Nord";"80076";"LE BLOCKHAUS";;"80870";"BEHEN";"Pylône autostable"; 30.0;"Société Privée SA"
707857;2.77111;49.70528;"02° 46' 16.00'' Est, 49° 42' 19.00'' Nord";"80685";;"PÉAGE ROYE A1";"80700";"ROYE";"Pylône autostable"; 46.0;"Sociétés d'Autoroutes"
707978;2.75639;49.62333;"02° 45' 23.00'' Est, 49° 37' 24.00'' Nord";"80759";;"AIRE DE REPOS DE TILLOLOY A 1";"80700";"TILLOLOY";"Pylône autostable"; 46.0;"Sociétés d'Autoroutes"
709400;2.83917;49.87639;"02° 50' 21.00'' Est, 49° 52' 35.00'' Nord";"80288";"LE CHAMP GROS LUC";"PÉAGE AUTOROUTIER VALLÉE DE LA SOMME A 1";"80200";"ESTREES-DENIECOURT";"Pylône autostable"; 50.0;"Sociétés d'Autoroutes"
730734;2.55722;49.69444;"02° 33' 26.00'' Est, 49° 41' 40.00'' Nord";"80625";"LE HAUT CORNET";"INTERSECTION D.935/D.250";"80500";"PIERREPONT-SUR-AVRE";"Pylône autostable"; 42.0;"Conseil Départemental"
731235;2.31222;49.88944;"02° 18' 44.00'' Est, 49° 53' 22.00'' Nord";"80021";;"42-46 R RIOLAN";"80000";"AMIENS";"Bâtiment"; 13.1;"Société Privée SA"
732441;2.81833;50.02472;"02° 49' 06.00'' Est, 50° 01' 29.00'' Nord";"80490";;"ROUTE DE GINCHY CHATEAU D'EAU";"80360";"LONGUEVAL";"Château d'eau - réservoir"; 40.0;"Commune, communauté de commune"
738362;2.99750;49.78111;"02° 59' 51.00'' Est, 49° 46' 52.00'' Nord";"80811";"LES PATURES DU MOULIN D'AUMALE";"R DE LANGUEVOISIN -D.89 PRÈS SILO";"80400";"VOYENNES";"Pylône autostable"; 30.0;"ORANGE"
739325;2.31778;49.82944;"02° 19' 04.00'' Est, 49° 49' 46.00'' Nord";"80702";;"ROUTE DE SAINS EN AMIÉNOIS D7";"80680";"SAINT-FUSCIEN";"Pylône autostable"; 40.5;"HIVORY"
739396;2.31250;50.00222;"02° 18' 45.00'' Est, 50° 00' 08.00'' Nord";"80798";;"R DU CHÂTEAU D'EAU N 25";"80260";"VILLERS-BOCAGE";"Pylône tubulaire"; 30.0;"ORANGE"
742978;1.69528;50.01000;"01° 41' 43.00'' Est, 50° 00' 36.00'' Nord";"80809";"LE PLOUY";"R DE MAXENT";"80140";"VISMES";"Château d'eau - réservoir"; 41.3;"Commune, communauté de commune"
744897;1.64306;49.94722;"01° 38' 35.00'' Est, 49° 56' 50.00'' Nord";"80120";"LE HAUT DU BOIS";"D.67 PRÈS DU CHÂTEAU D'EAU";"80220";"BOUILLANCOURT-EN-SERY";"Pylône tubulaire"; 47.6;"ATC FRANCE"
747997;2.78389;49.76528;"02° 47' 02.00'' Est, 49° 45' 55.00'' Nord";"80347";;"D.132 ENTREPÔT AGRICOLE (ANCIENNE GARE SNCF)";"80700";"FRANSART";"Pylône autostable"; 23.0;"ORANGE"
758691;2.47306;49.86167;"02° 28' 23.00'' Est, 49° 51' 42.00'' Nord";"80159";"BOIS L'ABBÉ";"CHEM VICINAL N° 7";"80800";"CACHY";"Pylône autostable"; 36.0;"ORANGE"
759584;2.91944;49.92111;"02° 55' 10.00'' Est, 49° 55' 16.00'' Nord";"80102";;"74 R DE PÉRONNE SILO";"80200";"BIACHES";"Silo"; 34.0;"Coopérative Agricole, Vinicole"
761143;1.97083;49.80972;"01° 58' 15.00'' Est, 49° 48' 35.00'' Nord";"80227";"L'AÉRODROME";"A.29 - AIRE DE CROIXRAULT - PÉAGE CENTRE D'ENTRETIEN SANEF";"80290";"CROIXRAULT";"Pylône autostable"; 51.0;"Sociétés d'Autoroutes"
762159;1.97750;49.76972;"01° 58' 39.00'' Est, 49° 46' 11.00'' Nord";"80630";"LES TERRES DE LA VILLE - FRIER";"R DU FRIER";"80290";"POIX-DE-PICARDIE";"Pylône autostable"; 27.0;"Commune, communauté de commune"
771841;2.93556;49.94639;"02° 56' 08.00'' Est, 49° 56' 47.00'' Nord";"80620";;"11 R DE L'ABBAYE";"80200";"PERONNE";"Pylône autostable"; 30.0;"ORANGE"
787715;2.32222;49.90056;"02° 19' 20.00'' Est, 49° 54' 02.00'' Nord";"80674";;"R BAUDREZ";"80136";"RIVERY";"Bâtiment"; 15.0;"Commune, communauté de commune"
788587;2.71694;50.08194;"02° 43' 01.00'' Est, 50° 04' 55.00'' Nord";"80384";"CHEVIENCOURT";"CH. DÉPART. 151 - D'AVELUY À MIRAUMONT - PYLÔNE RT";"80300";"GRANDCOURT";"Pylône autostable"; 50.0;"RTE"
797517;1.99722;50.00556;"01° 59' 50.00'' Est, 50° 00' 20.00'' Nord";"80488";"LE MAILLY";"RTE DÉPARTEMENTALE N°70";"80510";"LONGPRE-LES-CORPS-SAINTS";"Pylône tubulaire"; 12.0;"HIVORY"
797539;1.99806;49.74111;"01° 59' 53.00'' Est, 49° 44' 28.00'' Nord";"80402";"CUL DU COMBLE";"L'ANGUION CHEM RURAL DE BLANGY";"80290";"GUIZANCOURT";"Pylône autostable"; 35.0;"HIVORY"
801449;2.91611;49.84222;"02° 54' 58.00'' Est, 49° 50' 32.00'' Nord";"80197";;"VC N°1 DE LICOURT";"80200";"CIZANCOURT";"Pylône autostable"; 30.0;"ORANGE"
801605;1.95139;50.24250;"01° 57' 05.00'' Est, 50° 14' 33.00'' Nord";"80133";"LE BAMBOU";"D. 938";"80150";"BRAILLY-CORNEHOTTE";"Pylône autostable"; 30.0;"ORANGE"
801845;2.01361;50.13639;"02° 00' 49.00'' Est, 50° 08' 11.00'' Nord";"80215";"LE BUCQUE PHILIPPE";"ROUTE DE MAISON ROLAND";"80135";"COULONVILLERS";"Pylône autostable"; 36.0;"ORANGE"
806159;1.99111;50.06917;"01° 59' 28.00'' Est, 50° 04' 09.00'' Nord";"80009";"LE VILLAGE";"R DE LONG";"80690";"AILLY-LE-HAUT-CLOCHER";"Château d'eau - réservoir"; 37.0;"Syndicat des eaux, Adduction"
814908;2.06861;50.02306;"02° 04' 07.00'' Est, 50° 01' 23.00'' Nord";"80318";"LA HAUTE BORNE";"CSEC";"80420";"FLIXECOURT";"Pylône autostable"; 45.0;"HIVORY"
816571;2.58222;49.65083;"02° 34' 56.00'' Est, 49° 39' 03.00'' Nord";"80561";"MOULIN CARDENIER";"301 R DE L'ETELFAY";"80500";"MONTDIDIER";"Pylône autostable"; 73.0;"TDF"
816577;2.66306;49.99889;"02° 39' 47.00'' Est, 49° 59' 56.00'' Nord";"80016";"LA JUSTICE";"CHEM CROISÉ DE LA JUSTICE PRÈS CHÂTEAU D'EAU";"80300";"ALBERT";"Pylône autostable"; 26.0;"ORANGE Services Fixes"
816599;2.92167;50.02889;"02° 55' 18.00'' Est, 50° 01' 44.00'' Nord";"80695";"ST-HUBERT";"PRÈS D.172";"80360";"SAILLY-SAILLISEL";"Tour hertzienne"; 55.0;"TDF"
817105;2.27444;49.89389;"02° 16' 28.00'' Est, 49° 53' 38.00'' Nord";"80021";"RENANCOURT";"6 R COLBERT";"80000";"AMIENS";"Bâtiment"; 60.0;"Société Privée SA"
817107;2.33139;49.87167;"02° 19' 53.00'' Est, 49° 52' 18.00'' Nord";"80021";;"39 R DU QUÉBEC ENTREPRISE GTIE";"80000";"AMIENS";"Pylône tubulaire"; 12.0;"ORANGE"
817111;2.07722;49.71500;"02° 04' 38.00'' Est, 49° 42' 54.00'' Nord";"80219";"LA VALLÉE BLOT";"CHEM RURAL DIT DU CRAMPREUX";"80160";"COURCELLES-SOUS-THOIX";"Pylône autostable"; 40.0;"Conseil Départemental"
817113;2.64278;49.70194;"02° 38' 34.00'' Est, 49° 42' 07.00'' Nord";"80822";"LE BOIS DES PLANTES";"RUELLE DU MOULIN";"80500";"WARSY";"Pylône autostable"; 35.0;"Conseil Départemental"
817115;1.51528;50.01306;"01° 30' 55.00'' Est, 50° 00' 47.00'' Nord";"80063";;"114 GRANDE  RUE";"80770";"BEAUCHAMPS";"Pylône autostable"; 37.0;"ORANGE"
817117;2.27944;49.90528;"02° 16' 46.00'' Est, 49° 54' 19.00'' Nord";"80021";;"6 R DU CANAL";"80000";"AMIENS";"Pylône autostable"; 27.0;"Copropriété, Syndic, SCI"
817132;2.28056;49.88694;"02° 16' 50.00'' Est, 49° 53' 13.00'' Nord";"80021";;"240 R DE ROUEN EGLISE STE JEANNE D'ARC";"80000";"AMIENS";"Monument religieux"; 27.0;"Commune, communauté de commune"
817140;1.86778;49.90917;"01° 52' 04.00'' Est, 49° 54' 33.00'' Nord";"80297";"LE MOULIN D'ETRÉJUST";"CHEM COMMUNAL N° 11 DE ST MAULVIS FERME DU MOULIN";"80140";"ETREJUST";"Pylône autostable"; 35.0;"HIVORY"
817142;1.76083;49.88306;"01° 45' 39.00'' Est, 49° 52' 59.00'' Nord";"80450";"LES PRÉS DU MAZIS";"CHEM DU MOULIN DU GUET";"80430";"INVAL-BOIRON";"Pylône autostable"; 30.0;"HIVORY"
817178;2.37889;49.86833;"02° 22' 44.00'' Est, 49° 52' 06.00'' Nord";"80379";"CHÂTEAU D'EAU JULES VERNES";"43 AV DE LA VILLE IDÉALE AÉROPORT D'AMIENS-GLISY";"80440";"GLISY";"Château d'eau - réservoir"; 34.8;"Commune, communauté de commune"
817319;2.29694;49.87111;"02° 17' 49.00'' Est, 49° 52' 16.00'' Nord";"80021";;"49 R ALEXANDRE DUMAS POLYCLINIQUE DE PICARDIE";"80000";"AMIENS";"Bâtiment"; 21.2;"Etablissement de soins"
817359;1.83417;50.10611;"01° 50' 03.00'' Est, 50° 06' 22.00'' Nord";"80001";;"1 PL MAX LEJEUNE BEFFROI DE L'HÔTEL DE VILLE";"80100";"ABBEVILLE";"Bâtiment"; 51.0;"Commune, communauté de commune"
817403;1.74722;50.25472;"01° 44' 50.00'' Est, 50° 15' 17.00'' Nord";"80332";;"A16 PYLONE COTE PICARDE-SANEF N°16";"80120";"FOREST-MONTIERS";"Pylône autostable"; 50.0;"Sociétés d'Autoroutes"
817420;2.76667;49.70278;"02° 46' 00.00'' Est, 49° 42' 10.00'' Nord";"80685";;"R DU PUITS À MARNE DAF Z.I. OUEST";"80700";"ROYE";"Pylône tubulaire"; 16.0;"ORANGE"
817422;2.29694;49.92472;"02° 17' 49.00'' Est, 49° 55' 29.00'' Nord";"80021";"ST LADRE";"15 R LE TINTORET";"80000";"AMIENS";"Pylône autostable"; 30.0;"Société Privée SA"
817424;2.95083;49.92528;"02° 57' 03.00'' Est, 49° 55' 31.00'' Nord";"80240";"FLAMICOURT";"R JOLIOT CURIE CHÂTEAU D'EAU DE FLAMICOURT";"80200";"DOINGT";"Château d'eau - réservoir"; 25.0;"Commune, communauté de commune"
817488;2.26556;49.91056;"02° 15' 56.00'' Est, 49° 54' 38.00'' Nord";"80021";;"116 R DE SULLY";"80000";"AMIENS";"Pylône tubulaire"; 25.0;"ORANGE"
818640;2.73306;50.03944;"02° 43' 59.00'' Est, 50° 02' 22.00'' Nord";"80206";;"73 RTE DE BAZENTIN SILO GRAINOR";"80300";"CONTALMAISON";"Silo"; 30.0;"Coopérative Agricole, Vinicole"
825542;1.77944;50.04528;"01° 46' 46.00'' Est, 50° 02' 43.00'' Nord";"80076";"LES CROISETTES";"CHEM COMMUNAL N°173 CHÂTEAU D'EAU SUR D173";"80870";"BEHEN";"Château d'eau - réservoir"; 30.5;"Syndicat des eaux, Adduction"
832546;2.56222;49.63444;"02° 33' 44.00'' Est, 49° 38' 04.00'' Nord";"80561";"CITE DU NORD";"CHEM D'AGENCOURT ANCIENNE STATION DE REEMISSION TV1";"80500";"MONTDIDIER";"Pylône autostable"; 25.0;"TDF"
832948;2.71750;49.99472;"02° 43' 03.00'' Est, 49° 59' 41.00'' Nord";"80366";"VALLÉE SOUS LE BOIS D'ENGREMON";"D 938";"80300";"FRICOURT";"Pylône autostable"; 17.0;"ORANGE"
838054;2.57389;49.64861;"02° 34' 26.00'' Est, 49° 38' 55.00'' Nord";"80561";;"25 R AMAND DE VIENNE";"80500";"MONTDIDIER";"Pylône autostable"; 18.0;"Etablissement de soins"
838058;2.99139;49.73972;"02° 59' 29.00'' Est, 49° 44' 23.00'' Nord";"80442";;"R DU CIMETIERE";"80400";"HOMBLEUX";"Château d'eau - réservoir"; 41.0;"Syndicat des eaux, Adduction"
838072;2.10556;49.91167;"02° 06' 20.00'' Est, 49° 54' 42.00'' Nord";"80341";"L'ARGILIERE";"CHEMIN DE BRIQUEMESNIL";"80310";"FOURDRINOY";"Château d'eau - réservoir"; 36.0;"Syndicat des eaux, Adduction"
838078;2.92889;49.93444;"02° 55' 44.00'' Est, 49° 56' 04.00'' Nord";"80620";;"PL DU JEU DE PAUME";"80200";"PERONNE";"Pylône autostable"; 16.0;"Etablissement de soins"
838080;1.83194;50.10167;"01° 49' 55.00'' Est, 50° 06' 06.00'' Nord";"80001";;"43 R DE L ISLE HOP MAGENTA";"80100";"ABBEVILLE";"Immeuble"; 17.0;"Etablissement de soins"
838082;2.57389;49.64861;"02° 34' 26.00'' Est, 49° 38' 55.00'' Nord";"80561";;"25 R AMAND DE VIENNE";"80500";"MONTDIDIER";"Immeuble"; 6.0;"Etablissement de soins"
838084;2.35222;50.15250;"02° 21' 08.00'' Est, 50° 09' 09.00'' Nord";"80253";;"R DE ROUTEQUEUE";"80600";"DOULLENS";"Immeuble"; 12.0;"Etablissement de soins"
838312;1.78833;49.78333;"01° 47' 18.00'' Est, 49° 46' 60.00'' Nord";"80375";;"R DU BOIS VICOMTE";"80290";"GAUVILLE";"Château d'eau - réservoir"; 41.0;"Syndicat des eaux, Adduction"
850136;1.40056;50.06167;"01° 24' 02.00'' Est, 50° 03' 42.00'' Nord";"80533";;"35 CHEM DE PETITE ALLÉE";"80350";"MERS-LES-BAINS";"Pylône autostable"; 26.0;"ORANGE"
851972;1.87667;50.18278;"01° 52' 36.00'' Est, 50° 10' 58.00'' Nord";"80167";;"RUELLE DU MOULIN PATURE COMMUNALE";"80150";"CANCHY";"Pylône autostable"; 30.0;"Commune, communauté de commune"
859065;2.32778;49.78361;"02° 19' 40.00'' Est, 49° 47' 01.00'' Nord";"80291";;"R DE LA CHAUSSEE RTE D AILLY SUR NOYE";"80250";"ESTREES-SUR-NOYE";"Château d'eau - réservoir"; 20.0;"Commune, communauté de commune"
859890;2.30611;49.89111;"02° 18' 22.00'' Est, 49° 53' 28.00'' Nord";"80021";;"PL ALPHONSE FIQUET";"80000";"AMIENS";"Immeuble"; 80.0;"Commune, communauté de commune"
859895;2.26889;49.93556;"02° 16' 08.00'' Est, 49° 56' 08.00'' Nord";"80021";;"R ANDRE DUROUCHEZ";"80000";"AMIENS";"Château d'eau - réservoir"; 40.0;"Commune, communauté de commune"
861054;2.94139;49.76111;"02° 56' 29.00'' Est, 49° 45' 40.00'' Nord";"80585";"SOLE DU B  PONT";"PRÈS D930";"80190";"NESLE";"Pylône autostable"; 28.0;"ORANGE"
866007;2.24778;49.85306;"02° 14' 52.00'' Est, 49° 51' 11.00'' Nord";"80724";;"GARE DE PÉAGE DE DURY PRÉS A29";"80480";"SALEUX";"Pylône autostable"; 56.0;"Sociétés d'Autoroutes"
884835;2.31500;49.87472;"02° 18' 54.00'' Est, 49° 52' 29.00'' Nord";"80021";;"6 ALLÉE DE BEAULIEU";"80090";"AMIENS";"Immeuble"; 27.0;"Société HLM"
890983;1.51472;50.05667;"01° 30' 53.00'' Est, 50° 03' 24.00'' Nord";"80834";"LES HAUTES BORNES";;"80520";"YZENGREMER";"Château d'eau - réservoir"; 42.0;"Syndicat des eaux, Adduction"
894536;2.82417;49.87583;"02° 49' 27.00'' Est, 49° 52' 33.00'' Nord";"80288";"ROUTE D'ASSEVILLERS";;"80200";"ESTREES-DENIECOURT";"Pylône autostable"; 36.0;"EDF ou GDF"
924501;3.04250;49.87667;"03° 02' 33.00'' Est, 49° 52' 36.00'' Nord";"80557";;"CHAUSSÉE BRUNEHAUT USINE BONDUELLE";"80200";"ESTREES-MONS";"Bâtiment"; 10.0;"Société Privée SA"
953437;2.66611;50.03444;"02° 39' 58.00'' Est, 50° 02' 04.00'' Nord";"80045";"LES ARIES";"D.151";"80300";"AUTHUILLE";"Pylône autostable"; 25.0;"ORANGE"
954401;2.05833;49.95639;"02° 03' 30.00'' Est, 49° 57' 23.00'' Nord";"80738";"SUR LES PRÉS";"DÉLAISSÉ DU CHEM D'EXPLOITATION";"80310";"SOUES";"Pylône autostable"; 15.0;"ORANGE"
959993;2.55694;49.64139;"02° 33' 25.00'' Est, 49° 38' 29.00'' Nord";"80561";;"AV MAURICE LECONTE SOCIÉTÉ SIR";"80500";"MONTDIDIER";"Pylône autostable"; 25.0;"ORANGE"
960534;1.82500;50.11389;"01° 49' 30.00'' Est, 50° 06' 50.00'' Nord";"80001";;"A.E AVENUE DU PORT";"80100";"ABBEVILLE";"Bâtiment"; 4.0;"EDF ou GDF"
981724;2.29472;49.89417;"02° 17' 41.00'' Est, 49° 53' 39.00'' Nord";"80021";;"RUE LEON BLUM MAIRIE";"80000";"AMIENS";"Bâtiment"; 30.0;"Commune, communauté de commune"
993841;1.45389;50.10472;"01° 27' 14.00'' Est, 50° 06' 17.00'' Nord";"80039";;"RUE DOUVILLE MAILLEFEU SÉMAPHORE";"80460";"AULT";"Pylône autostable"; 54.0;"Autres"
995257;2.23417;50.17250;"02° 14' 03.00'' Est, 50° 10' 21.00'' Nord";"80614";;"LES FOSSES";"80600";"OUTREBOIS";"Pylône autostable"; 46.0;"TDF"
1007156;1.65889;50.11806;"01° 39' 32.00'' Est, 50° 07' 05.00'' Nord";"80556";"DERRIÈRE LA COURTE AUX BOIS";"VOIE RURALE N°3 DE BOUBERT À SAIGNEVILLE";"80210";"MONS-BOUBERT";"Pylône autostable"; 36.0;"ORANGE"
1010485;1.72278;50.05750;"01° 43' 22.00'' Est, 50° 03' 27.00'' Nord";"80764";"AU-DESSUS DU MOULIN DE ROGEANT";"BOIS DE BELLAVENNE CHEMIN DE BELLAVENNE";"80870";"TOEUFLES";"Pylône autostable"; 32.0;"ORANGE"
1035042;2.28194;49.89167;"02° 16' 55.00'' Est, 49° 53' 30.00'' Nord";"80021";;"RUE MACQUET VION";"80080";"AMIENS";"Bâtiment"; 22.0;"EDF ou GDF"
1063430;2.39694;50.07528;"02° 23' 49.00'' Est, 50° 04' 31.00'' Nord";"80070";;"11 CHAUSSEE D AMIENS SILO";"80600";"BEAUQUESNE";"Silo"; 45.0;"Société Privée SA"
1063432;2.06083;49.78361;"02° 03' 39.00'' Est, 49° 47' 01.00'' Nord";"80577";;"6 HAM DE MENESVILLERS";"80290";"MOYENCOURT-LES-POIX";"Bâtiment"; 15.0;"Société Privée SA"
1063434;2.58056;49.85389;"02° 34' 50.00'' Est, 49° 51' 14.00'' Nord";"80507";;"ROUTE D HARBONNIERE SILO";"80800";"MARCELCAVE";"Silo"; 50.0;"Société Privée SA"
1063436;3.03917;50.03306;"03° 02' 21.00'' Est, 50° 01' 59.00'' Nord";"80312";;"3 RUE PAVE SILO";"80360";"FINS";"Silo"; 35.0;"Société Privée SA"
1163289;2.27444;49.85944;"02° 16' 28.00'' Est, 49° 51' 34.00'' Nord";"80261";"MI GROGNE";;"80480";"DURY";"Château d'eau - réservoir"; 30.0;"Syndicat des eaux, Adduction"
1168987;2.54333;49.93250;"02° 32' 36.00'' Est, 49° 55' 57.00'' Nord";"80784";;"4 RTE DE BRAY STE COLETTE";"80800";"VAUX-SUR-SOMME";"Pylône autostable"; 35.0;"EDF ou GDF"
1185884;2.22694;49.86500;"02° 13' 37.00'' Est, 49° 51' 54.00'' Nord";"80724";;"CHEMIN DE GUIGNEMICOURT NORIAP";"80480";"SALEUX";"Pylône autostable"; 35.0;"ORANGE"
1193708;2.33500;49.90167;"02° 20' 06.00'' Est, 49° 54' 06.00'' Nord";"80674";;"RUE DE CORBIE";"80136";"RIVERY";"Pylône autostable"; 20.0;"ORANGE"
1208432;2.70222;49.74167;"02° 42' 08.00'' Est, 49° 44' 30.00'' Nord";"80617";"LE QUESNOY";"RUE D'ERCHES";"80700";"PARVILLERS-LE-QUESNOY";"Château d'eau - réservoir"; 28.0;"Syndicat des eaux, Adduction"
1208443;1.53583;50.02194;"01° 32' 09.00'' Est, 50° 01' 19.00'' Nord";"80265";"LES HAYETTES";"RUE JEAN MOULIN ENTREPRISE TERNOIS";"80570";"EMBREVILLE";"Pylône tubulaire"; 30.0;"ORANGE"
1212322;1.81639;49.99389;"01° 48' 59.00'' Est, 49° 59' 38.00'' Nord";"80372";"LES ECHARTIES";"5 RUE DE CITERNES";"80490";"FRUCOURT";"Château d'eau - réservoir"; 34.0;"Syndicat des eaux, Adduction"
1237651;1.40194;50.06833;"01° 24' 07.00'' Est, 50° 04' 06.00'' Nord";"80533";"LE MONT ROTI";;"80350";"MERS-LES-BAINS";"Pylône autostable"; 39.4;"TDF"
1279469;2.85250;49.93917;"02° 51' 09.00'' Est, 49° 56' 21.00'' Nord";"80307";"BOIS DU CHAPITRE";"CHEMIN RURAL PRÈS A1";"80200";"FEUILLERES";"Pylône autostable"; 20.0;"ORANGE"
1279490;2.81944;49.97028;"02° 49' 10.00'' Est, 49° 58' 13.00'' Nord";"80231";;"CARREFOUR D 938 & C2 SITE ATFH";"80360";"CURLU";"Pylône autostable"; 51.0;"ORANGE Services Fixes"
1282638;1.89222;50.11583;"01° 53' 32.00'' Est, 50° 06' 57.00'' Nord";"80588";"BOIS NEUFMOULIN";"D. 925 SENTIER DE VAUCHELLES LES QUESNOY";"80132";"NEUFMOULIN";"Pylône autostable"; 30.0;"ORANGE"
1282995;2.36306;49.75278;"02° 21' 47.00'' Est, 49° 45' 10.00'' Nord";"80010";;"CHEMIN DE L'AUGE";"80250";"AILLY-SUR-NOYE";"Pylône autostable"; 20.0;"SNCF Réseau"
1282997;2.19639;49.83167;"02° 11' 47.00'' Est, 49° 49' 54.00'' Nord";"80050";;"RUE DE LA GARE";"80480";"BACOUEL-SUR-SELLE";"Pylône autostable"; 30.0;"SNCF Réseau"
1282999;2.39806;49.84583;"02° 23' 53.00'' Est, 49° 50' 45.00'' Nord";"80131";;"RUE DU GÉNÉRAL LECLERC";"80440";"BOVES";"Pylône autostable"; 25.0;"SNCF Réseau"
1283001;2.38778;49.78778;"02° 23' 16.00'' Est, 49° 47' 16.00'' Nord";"80246";;"RTE DE REMIENCOURT - D90";"80440";"DOMMARTIN";"Pylône autostable"; 20.0;"SNCF Réseau"
1283003;2.35361;49.70056;"02° 21' 13.00'' Est, 49° 42' 02.00'' Nord";"80299";;"IMPASSE DE LA GARE";"80250";"LA FALOISE";"Pylône autostable"; 25.0;"SNCF Réseau"
1283005;2.10583;49.80778;"02° 06' 21.00'' Est, 49° 48' 28.00'' Nord";"80582";;"ROUTE DE CONTY";"80290";"NAMPS-MAISNIL";"Pylône autostable"; 25.0;"SNCF Réseau"
1283291;2.15250;49.95778;"02° 09' 09.00'' Est, 49° 57' 28.00'' Nord";"80187";;"RUE DE VIGNACOURT - D49 NORIAP";"80310";"LA CHAUSSEE-TIRANCOURT";"Pylône tubulaire"; 27.0;"ORANGE"
1283727;2.23250;49.86500;"02° 13' 57.00'' Est, 49° 51' 54.00'' Nord";"80724";;"ZA DU CAPRON RTE DE TAISNIL";"80480";"SALEUX";"Bâtiment"; 7.0;"Société Privée SA"
1289160;2.29944;49.89250;"02° 17' 58.00'' Est, 49° 53' 33.00'' Nord";"80021";;"20 RUE DES 3 CAILLOUX TGB ORANGE";"80000";"AMIENS";"Immeuble"; 16.0;"ORANGE"
1300990;2.89667;49.87833;"02° 53' 48.00'' Est, 49° 52' 42.00'' Nord";"80801";;"RUE DE BARLEUX";"80200";"VILLERS-CARBONNEL";"Bâtiment"; 15.0;"Société Privée SA"
1301028;2.67056;50.07028;"02° 40' 14.00'' Est, 50° 04' 13.00'' Nord";"80069";;"ROUTE D'ALBERT";"80300";"BEAUMONT-HAMEL";"Pylône autostable"; 25.0;"SNCF Réseau"
1301030;2.17139;49.93694;"02° 10' 17.00'' Est, 49° 56' 13.00'' Nord";"80137";;"RUE DU MARAIS";"80470";"BREILLY";"Pylône autostable"; 20.0;"SNCF Réseau"
1301032;2.04472;49.76750;"02° 02' 41.00'' Est, 49° 46' 03.00'' Nord";"80301";;"PLACE DE LA GARE";"80290";"FAMECHON";"Pylône autostable"; 20.0;"SNCF Réseau"
1301034;2.34694;49.87417;"02° 20' 49.00'' Est, 49° 52' 27.00'' Nord";"80489";;"RUE DE CAMON";"80330";"LONGUEAU";"Pylône autostable"; 20.0;"SNCF Réseau"
1301036;2.57639;49.95694;"02° 34' 35.00'' Est, 49° 57' 25.00'' Nord";"80530";;"RUE JEAN-MICHEL - LIEU-DIT LE MARAIS";"80113";"MERICOURT-L'ABBE";"Pylône autostable"; 20.0;"SNCF Réseau"
1301038;2.25417;49.88000;"02° 15' 15.00'' Est, 49° 52' 48.00'' Nord";"80632";;"CHEMIN DE LA GRIMPETTE";"80480";"PONT-DE-METZ";"Pylône autostable"; 20.0;"SNCF Réseau"
1317981;2.28611;49.89222;"02° 17' 10.00'' Est, 49° 53' 32.00'' Nord";"80021";;"BOULEVARD CARNOT";"80000";"AMIENS";"Pylône autostable"; 12.0;"SNCF Réseau"
1319120;2.24028;49.91222;"02° 14' 25.00'' Est, 49° 54' 44.00'' Nord";"80021";;"ROUTE D'ABBEVILLE";"80000";"AMIENS";"Pylône autostable"; 25.0;"SNCF Réseau"
1319122;2.08472;49.97194;"02° 05' 05.00'' Est, 49° 58' 19.00'' Nord";"80229";;"RUE ALFRED BULARD";"80310";"CROUY-SAINT-PIERRE";"Pylône autostable"; 20.0;"SNCF Réseau"
1323695;1.60944;49.98750;"01° 36' 34.00'' Est, 49° 59' 15.00'' Nord";"80760";"CROIX STE NICOLE";"R DU CHATEAU D'EAU";"80220";"TILLOY-FLORIVILLE";"Château d'eau - réservoir"; 38.0;"Syndicat des eaux, Adduction"
1326819;1.70444;50.17972;"01° 42' 16.00'' Est, 50° 10' 47.00'' Nord";"80600";;"CHEMIN DES VALOIS";"80860";"NOYELLES-SUR-MER";"Pylône autostable"; 25.4;"SNCF Réseau"
1331651;2.85083;49.94111;"02° 51' 03.00'' Est, 49° 56' 28.00'' Nord";"80307";;"RUE DE FLAUCOURT";"80200";"FEUILLERES";"Pylône autostable"; 20.4;"SNCF Réseau"
1331653;2.82639;49.83222;"02° 49' 35.00'' Est, 49° 49' 56.00'' Nord";"80002";;"RUE D'HYENCOURT LE GRAND";"80320";"ABLAINCOURT-PRESSOIR";"Pylône autostable"; 20.4;"SNCF Réseau"
1332910;2.00028;50.01250;"02° 00' 01.00'' Est, 50° 00' 45.00'' Nord";"80488";;"RUE DES FUSILLÈS";"80510";"LONGPRE-LES-CORPS-SAINTS";"Pylône autostable"; 25.4;"SNCF Réseau"
1332912;1.69889;50.23250;"01° 41' 56.00'' Est, 50° 13' 57.00'' Nord";"80633";;"RUE DU HAMEL";"80860";"PONTHOILE";"Pylône autostable"; 20.4;"SNCF Réseau"
1346426;2.23444;50.17278;"02° 14' 04.00'' Est, 50° 10' 22.00'' Nord";"80614";"LE MONTILAIN";"SITE ITAS TIM";"80600";"OUTREBOIS";"Pylône autostable"; 49.0;"TDF"
1352132;2.49611;49.91028;"02° 29' 46.00'' Est, 49° 54' 37.00'' Nord";"80212";;"RUE JEAN JAURÈS";"80800";"CORBIE";"Pylône autostable"; 20.0;"SNCF Réseau"
1352186;2.76333;49.65833;"02° 45' 48.00'' Est, 49° 39' 30.00'' Nord";"80101";"FOND DE LAUCOURT";"CHEMIN RURAL";"80700";"BEUVRAIGNES";"Pylône autostable"; 20.4;"SNCF Réseau"
1352192;1.89444;50.05194;"01° 53' 40.00'' Est, 50° 03' 07.00'' Nord";"80282";;"ROUTE DE PONT-RÉMY";"80580";"ERONDELLE";"Pylône autostable"; 25.0;"SNCF Réseau"
1352202;1.66389;50.29389;"01° 39' 50.00'' Est, 50° 17' 38.00'' Nord";"80688";;"CHEMIN DES PRÈS";"80120";"RUE";"Pylône autostable"; 25.4;"SNCF Réseau"
1378057;1.75722;50.14528;"01° 45' 26.00'' Est, 50° 08' 43.00'' Nord";"80637";;"CHEMIN DU CANAL";"80132";"PORT-LE-GRAND";"Pylône autostable"; 25.4;"SNCF Réseau"
1394406;2.83917;49.88944;"02° 50' 21.00'' Est, 49° 53' 22.00'' Nord";"80033";"EN EMPRISE FERROVIAIRE";"RUE DE BELLOY";"80200";"ASSEVILLERS";"Ouvrage d'art (pont, viaduc)"; 12.7;"SNCF Réseau"
1396543;2.33500;50.10611;"02° 20' 06.00'' Est, 50° 06' 22.00'' Nord";"80071";"LE BOIS DE BEAUVAL";"R ST GOBAIN";"80630";"BEAUVAL";"Pylône tubulaire"; 40.0;"TDF"
1402054;2.30750;49.88972;"02° 18' 27.00'' Est, 49° 53' 23.00'' Nord";"80021";;"RUE JULES BARNI";"80000";"AMIENS";"Tunnel"; 5.5;"SNCF Réseau"
1402312;2.32833;49.88694;"02° 19' 42.00'' Est, 49° 53' 13.00'' Nord";"80021";;"RUE DE LA TERRIÈRE";"80000";"AMIENS";"Pylône autostable"; 36.0;"SNCF Réseau"
1404454;2.29444;49.88861;"02° 17' 40.00'' Est, 49° 53' 19.00'' Nord";"80021";;"BOULEVARD PASTEUR";"80000";"AMIENS";"Tunnel"; 5.7;"SNCF Réseau"
1405010;2.30167;49.88806;"02° 18' 06.00'' Est, 49° 53' 17.00'' Nord";"80021";;"BOULEVARD JULES VERNE";"80000";"AMIENS";"Mât métallique"; 3.4;"SNCF Réseau"
1405281;2.77417;49.72278;"02° 46' 27.00'' Est, 49° 43' 22.00'' Nord";"80383";;"RUE BARROYÉ";"80700";"GOYENCOURT";"Pylône autostable"; 20.4;"SNCF Réseau"
1410044;1.97222;50.07667;"01° 58' 20.00'' Est, 50° 04' 36.00'' Nord";"80009";"LES RIPETTES";"AIRE DE REPOS DU HAUT CLOCHER";"80690";"AILLY-LE-HAUT-CLOCHER";"Pylône autostable"; 30.0;"Sociétés d'Autoroutes"
1410197;2.05972;49.77583;"02° 03' 35.00'' Est, 49° 46' 33.00'' Nord";"80352";"BOIS D'EN HAUT";;"80160";"FREMONTIERS";"Tunnel"; 8.5;"SNCF Réseau"
1410199;2.05611;49.77222;"02° 03' 22.00'' Est, 49° 46' 20.00'' Nord";"80352";"BOIS DE ROT";"CHEMIN D'EN HAUT DU MONT DE ROT";"80160";"FREMONTIERS";"Tunnel"; 8.5;"SNCF Réseau"
1410544;2.62389;49.66722;"02° 37' 26.00'' Est, 49° 40' 02.00'' Nord";"80293";"LOUVROY";"R DU HAUT";"80500";"ETELFAY";"Château d'eau - réservoir"; 37.0;"Syndicat des eaux, Adduction"
1411415;1.77417;49.78750;"01° 46' 27.00'' Est, 49° 47' 15.00'' Nord";"80375";"TERRE POULET";;"80290";"GAUVILLE";"Pylône autostable"; 30.0;"Sociétés d'Autoroutes"
1411419;2.07806;49.83556;"02° 04' 41.00'' Est, 49° 50' 08.00'' Nord";"80670";"LES ARBRES LEFÈBVRE";;"80540";"REVELLES";"Pylône autostable"; 30.0;"Sociétés d'Autoroutes"
1411423;2.27639;49.85833;"02° 16' 35.00'' Est, 49° 51' 30.00'' Nord";"80261";"LE MOULIN";;"80480";"DURY";"Pylône autostable"; 12.0;"Sociétés d'Autoroutes"
1411548;2.20889;49.87528;"02° 12' 32.00'' Est, 49° 52' 31.00'' Nord";"80632";"L'ÉGLISE DE METZ";"ECHANGEUR A29/A16";"80480";"PONT-DE-METZ";"Pylône autostable"; 40.0;"Sociétés d'Autoroutes"
1412337;3.19389;49.98667;"03° 11' 38.00'' Est, 49° 59' 12.00'' Nord";"80679";"LA VOIE AUX POURCEAUX";"CHEMIN RURAL";"80740";"RONSSOY";"Pylône autostable"; 44.0;"TDF"
1415008;1.71389;50.23528;"01° 42' 50.00'' Est, 50° 14' 07.00'' Nord";"80633";;"CHEM RENAULT, ROMAINE";"80860";"PONTHOILE";"Château d'eau - réservoir"; 36.0;"Syndicat des eaux, Adduction"
1419079;1.89556;49.85056;"01° 53' 44.00'' Est, 49° 51' 02.00'' Nord";"80443";"LE BOIS DES VINGT- QUATRE";"PRES DE LA D211E";"80640";"HORNOY-LE-BOURG";"Pylône autostable"; 35.0;"TDF"
1422987;1.56472;50.15806;"01° 33' 53.00'' Est, 50° 09' 29.00'' Nord";"80464";"L'ANGLÉE";"CHEM DE PENDÉ";"80230";"LANCHERES";"Pylône autostable"; 35.0;"TDF"
1424422;1.82194;50.28389;"01° 49' 19.00'' Est, 50° 17' 02.00'' Nord";"80808";"LE CHEMIN A L'ARGENT";"R LOUIS VOILMY";"80150";"VIRONCHAUX";"Château d'eau - réservoir"; 42.0;"Syndicat des eaux, Adduction"
1424429;1.72611;49.90361;"01° 43' 34.00'' Est, 49° 54' 13.00'' Nord";"80732";"LA REDERIE";"RTE DE OISEMONT CHATEAU D'EAU";"80140";"SENARPONT";"Château d'eau - réservoir"; 34.0;"Syndicat des eaux, Adduction"
1429406;2.71028;49.87917;"02° 42' 37.00'' Est, 49° 52' 45.00'' Nord";"80644";;"CHEM DE FRAMERVILLE, LE TORDOIR";"80340";"PROYART";"Pylône autostable"; 44.0;"TDF"
1444795;1.83444;50.13583;"01° 50' 04.00'' Est, 50° 08' 09.00'' Nord";"80001";"MÉTÉO FRANCE";"ROUTE D'HESDIN FACE AU CIRCUIT AUTOMOBILE";"80100";"ABBEVILLE";"Bâtiment"; 10.0;"Météo"
1445381;1.73194;50.27972;"01° 43' 55.00'' Est, 50° 16' 47.00'' Nord";"80030";;"CHEMIN RURAL PRÈS D938 LES COMMUNES FORÊT DE COMPIÈGNE";"80120";"ARRY";"Pylône autostable"; 43.0;"TDF"
1449056;2.74639;50.10889;"02° 44' 47.00'' Est, 50° 06' 32.00'' Nord";"80451";"LE BOIS TOURNY";;"80300";"IRLES";"Pylône autostable"; 25.0;"SNCF Réseau"
1455629;2.94000;49.70694;"02° 56' 24.00'' Est, 49° 42' 25.00'' Nord";"80279";"DERRIÈRE LE VILLAGE";"RUE DU MOULIN";"80400";"ERCHEU";"Château d'eau - réservoir"; 20.0;"Commune, communauté de commune"
1456691;1.82639;50.09361;"01° 49' 35.00'' Est, 50° 05' 37.00'' Nord";"80001";"LA GARE";"ROUTE DE ROUEN";"80100";"ABBEVILLE";"Pylône autostable"; 37.0;"SFR"
1459014;2.93694;49.93444;"02° 56' 13.00'' Est, 49° 56' 04.00'' Nord";"80620";;"45 BD DU POILU";"80200";"PERONNE";"Bâtiment"; 21.0;"ORANGE"
1468572;1.99778;50.07639;"01° 59' 52.00'' Est, 50° 04' 35.00'' Nord";"80009";;"19 R DE LA POSTE";"80690";"AILLY-LE-HAUT-CLOCHER";"Bâtiment"; 8.0;"Société Privée SA"
1468833;1.77250;49.95833;"01° 46' 21.00'' Est, 49° 57' 30.00'' Nord";"80606";;"R JEAN JAURES";"80140";"OISEMONT";"Silo"; 30.0;"Coopérative Agricole, Vinicole"
1484712;1.77556;50.33750;"01° 46' 32.00'' Est, 50° 20' 15.00'' Nord";"80580";"BUIRE EN HALLOY";"PRÈS D.12 PYLÔNE FT";"80120";"NAMPONT";"Pylône autostable"; 40.0;"ORANGE"
1487975;1.98944;49.77833;"01° 59' 22.00'' Est, 49° 46' 42.00'' Nord";"80630";;"AVENUE DE LA GARE";"80290";"POIX-DE-PICARDIE";"Pylône autostable"; 30.0;"SNCF Réseau"
1498704;2.21306;49.94194;"02° 12' 47.00'' Est, 49° 56' 31.00'' Nord";"80718";;"CHEM DE SAINT-VAST";"80470";"SAINT-SAUVEUR";"Pylône autostable"; 25.0;"ORANGE"
1499221;2.65972;49.85167;"02° 39' 35.00'' Est, 49° 51' 06.00'' Nord";"80417";"LE PRIEURE";"RD 337 R RAOUL DEFRUIT";"80131";"HARBONNIERES";"Pylône tubulaire"; 22.0;"ATC FRANCE"
1501778;2.83722;49.88472;"02° 50' 14.00'' Est, 49° 53' 05.00'' Nord";"80288";;"CHEMIN D'ASSEVILLERS AIRE DE REPOS D'ASSEVILLERS";"80200";"ESTREES-DENIECOURT";"Pylône autostable"; 30.0;"ORANGE"
1503008;1.76306;50.03722;"01° 45' 47.00'' Est, 50° 02' 14.00'' Nord";"80076";;"CHEMIN TROIS COINS HAMEAU DE BAINAST";"80870";"BEHEN";"Pylône autostable"; 37.0;"Société Privée SA"
1505766;2.19722;50.06194;"02° 11' 50.00'' Est, 50° 03' 43.00'' Nord";"80619";"LE BOIS DE PERNOIS";;"80670";"PERNOIS";"Pylône autostable"; 25.0;"HIVORY"
1511237;1.60417;50.06750;"01° 36' 15.00'' Est, 50° 04' 03.00'' Nord";"80308";;"AV DU VIMEU VERT ZI - TRANSPORT TELLIER";"80210";"FEUQUIERES-EN-VIMEU";"Pylône tubulaire"; 27.0;"ATC FRANCE"
1513339;1.94472;50.13500;"01° 56' 41.00'' Est, 50° 08' 06.00'' Nord";"80716";;"MAISON DE RETRAITE 7 RUE DE L'HOPITAL";"80135";"SAINT-RIQUIER";"Bâtiment"; 22.0;"Etablissement de soins"
1518675;2.37889;50.02056;"02° 22' 44.00'' Est, 50° 01' 14.00'' Nord";"80686";"AU MOULIN";"CHEMIN DE TALMAS";"80260";"RUBEMPRE";"Pylône autostable"; 32.0;"ATC FRANCE"
1519200;1.93806;49.76000;"01° 56' 17.00'' Est, 49° 45' 36.00'' Nord";"80728";"LA GRANDE PIECE";;"80290";"SAULCHOY-SOUS-POIX";"Pylône autostable"; 35.0;"SNCF Réseau"
1519204;1.85722;49.74417;"01° 51' 26.00'' Est, 49° 44' 39.00'' Nord";"80436";"LE BOIS FRETTEMOLE";;"80290";"HESCAMPS";"Pylône autostable"; 25.0;"SNCF Réseau"
1532430;2.28833;49.88889;"02° 17' 18.00'' Est, 49° 53' 20.00'' Nord";"80021";;"34 R DE ROUEN FAUBOURG DE BEAUVAIS";"80000";"AMIENS";"Immeuble"; 26.1;"Société HLM"
1536781;1.98361;50.01083;"01° 59' 01.00'' Est, 50° 00' 39.00'' Nord";"80488";;"RUE DE LA GRANDE CAVÉE PRÈS DE LA D53 FERME DU CHÂTEAU";"80510";"LONGPRE-LES-CORPS-SAINTS";"Pylône autostable"; 21.0;"ATC FRANCE"
1537771;1.86583;49.73361;"01° 51' 57.00'' Est, 49° 44' 01.00'' Nord";"80436";;"CHEMIN COMMUNAL ANGLE D919B ET D919";"80290";"HESCAMPS";"Château d'eau - réservoir"; 27.0;"Commune, communauté de commune"
1541730;2.22889;49.86583;"02° 13' 44.00'' Est, 49° 51' 57.00'' Nord";"80724";;"LE CAPRON ROUTE DE ROUEN D1029";"80480";"SALEUX";"Pylône tubulaire"; 25.6;"IFW-FREE"
1543404;2.79278;49.80222;"02° 47' 34.00'' Est, 49° 48' 08.00'' Nord";"80186";"ENTREPOT INTERMARCHÉ LES MOUSQ";"8 BIS RUE D HALLU ENTREPOT INTERMARCHÉ";"80320";"CHAULNES";"Bâtiment"; 18.0;"Société Privée SA"
1546666;1.83361;50.01222;"01° 50' 01.00'' Est, 50° 00' 44.00'' Nord";"80482";"LA MOTTE - D173";"SITE ITAS TIM";"80490";"LIMEUX";"Pylône autostable"; 202.0;"TDF"
1547934;2.98083;49.96417;"02° 58' 51.00'' Est, 49° 57' 51.00'' Nord";"80015";;"D 917";"80200";"AIZECOURT-LE-HAUT";"Pylône autostable"; 36.0;"SDIS, secours, incendie"
1561714;2.03972;49.86972;"02° 02' 23.00'' Est, 49° 52' 11.00'' Nord";"80119";;"14 R MOIRET";"80540";"BOUGAINVILLE";"Bâtiment"; 8.0;"Société Privée SA"
1563193;2.95083;49.70306;"02° 57' 03.00'' Est, 49° 42' 11.00'' Nord";"80279";;"D.15, DE NESLE À CHAUNY";"80400";"ERCHEU";"Mât béton"; 21.0;"Commune, communauté de commune"
1565806;2.57083;49.89889;"02° 34' 15.00'' Est, 49° 53' 56.00'' Nord";"80411";;"R DU 11 NOVEMBRE 1918";"80800";"LE HAMEL";"Bâtiment"; 10.0;"Commune, communauté de commune"
1567073;2.61861;49.77056;"02° 37' 07.00'' Est, 49° 46' 14.00'' Nord";"80652";"LE PETIT HANGEST";"D 934 -PROCHE  CH D'EAU  DU QUESNEL";"80118";"LE QUESNEL";"Pylône tubulaire"; 45.0;"ATC FRANCE"
1568341;1.77056;50.17250;"01° 46' 14.00'' Est, 50° 10' 21.00'' Nord";"80692";;"VOIE D'ABBEVILLE";"80970";"SAILLY-FLIBEAUCOURT";"Pylône autostable"; 44.5;"HIVORY"
1568371;1.97833;49.87722;"01° 58' 42.00'' Est, 49° 52' 38.00'' Nord";"80165";;"11 TER R DE MOLLIENS";"80540";"CAMPS-EN-AMIENOIS";"Pylône autostable"; 32.0;"HIVORY"
1568661;2.02667;50.03417;"02° 01' 36.00'' Est, 50° 02' 03.00'' Nord";"80117";;"R D'EN HAUT";"80830";"BOUCHON";"Pylône autostable"; 25.0;"HIVORY"
1568671;2.06417;50.17139;"02° 03' 51.00'' Est, 50° 10' 17.00'' Nord";"80208";"LE CHEMIN DE L'ABBAYE";"22 RUE DE LA GARE";"80370";"CONTEVILLE";"Bâtiment"; 34.0;"Particulier"
1568728;2.09167;49.88472;"02° 05' 30.00'' Est, 49° 53' 05.00'' Nord";"80142";"LE PLANT EN BAS";"TER CHEM ANCIEN DE SENARPONT";"80540";"BRIQUEMESNIL-FLOXICOURT";"Pylône autostable"; 32.0;"HIVORY"
1568743;2.16083;50.12500;"02° 09' 39.00'' Est, 50° 07' 30.00'' Nord";"80086";;"TER DÉPARTEMENTALE LES PRES AU CHEM DE DOMA";"80370";"BERNAVILLE";"Pylône autostable"; 31.0;"HIVORY"
1568754;2.12639;50.08056;"02° 07' 35.00'' Est, 50° 04' 50.00'' Nord";"80241";"FERME DU MOULIN";"5 ROUTE DE RIBEAUCOURT";"80620";"DOMART-EN-PONTHIEU";"Pylône tubulaire"; 23.0;"ATC FRANCE"
1570162;1.87417;50.19083;"01° 52' 27.00'' Est, 50° 11' 27.00'' Nord";"80167";"FERME NIQUET";"41 TER R DU GÉNÉRAL LECLERC";"80150";"CANCHY";"Pylône autostable"; 33.3;"HIVORY"
1576628;2.13806;49.96389;"02° 08' 17.00'' Est, 49° 57' 50.00'' Nord";"80082";"LE MOULIN";"CHEM RURAL N°19 DIT DU MOULIN";"80310";"BELLOY-SUR-SOMME";"Pylône autostable"; 47.0;"HIVORY"
1576755;2.93111;49.93583;"02° 55' 52.00'' Est, 49° 56' 09.00'' Nord";"80620";;"18 PL DU JEU DE PAUME";"80200";"PERONNE";"Bâtiment"; 10.0;"Coopérative Agricole, Vinicole"
1576757;2.90917;50.00667;"02° 54' 33.00'' Est, 50° 00' 24.00'' Nord";"80664";;"CITE DESMAREZ RTE N 17";"80360";"RANCOURT";"Mât métallique"; 35.0;"Société Privée SA"
1582776;2.20000;49.92861;"02° 12' 00.00'' Est, 49° 55' 43.00'' Nord";"80011";;"14 JEAN JAURES";"80470";"AILLY-SUR-SOMME";"Pylône tubulaire"; 27.0;"Société Privée SA"
1582793;2.23167;49.86556;"02° 13' 54.00'' Est, 49° 51' 56.00'' Nord";"80724";;"RTE DE TAISNIL(ENTRE D138 ET N29)";"80480";"SALEUX";"Pylône tubulaire"; 27.0;"Société Privée SA"
1582797;2.23694;50.03250;"02° 14' 13.00'' Est, 50° 01' 57.00'' Nord";"80423";"LES BOISSEAUX";"R D'AMIENS";"80670";"HAVERNAS";"Pylône autostable"; 38.2;"ATC FRANCE"
1584204;2.82278;49.82028;"02° 49' 22.00'' Est, 49° 49' 13.00'' Nord";"80621";"SOLE DE CHAULNES";"CHEMIN DE REMEMBREMENT";"80320";"PERTAIN";"Pylône autostable"; 25.0;"Sociétés d'Autoroutes"
1586021;1.85333;49.81056;"01° 51' 12.00'' Est, 49° 48' 38.00'' Nord";"80443";"ORIVAL";"CHEMIN DE TRONCHOY CHÂTEAU D'EAU";"80640";"HORNOY-LE-BOURG";"Château d'eau - réservoir"; 38.0;"Syndicat des eaux, Adduction"
1587783;1.62194;50.18444;"01° 37' 19.00'' Est, 50° 11' 04.00'' Nord";"80721";;"CAMPING LA CROIX L'ABBÉ INTERSEC RD2 ET RD3";"80230";"SAINT-VALERY-SUR-SOMME";"Pylône haubané"; 38.0;"ATC FRANCE"
1588901;2.33167;50.06944;"02° 19' 54.00'' Est, 50° 04' 10.00'' Nord";"80792";"LE ROSEL";"RUE DU CHÂTEAU D'EAU A L'EST DE LA D. 125";"80260";"LA VICOGNE";"Château d'eau - réservoir"; 28.0;"Commune, communauté de commune"
1592029;2.28361;49.89611;"02° 17' 01.00'' Est, 49° 53' 46.00'' Nord";"80021";;"77, RUE DE LA DEMI LUNE";"80000";"AMIENS";"Immeuble"; 15.6;"Particulier"
1595236;2.21917;49.90528;"02° 13' 09.00'' Est, 49° 54' 19.00'' Nord";"80730";"CHAMPS À OISONS";"STADE MUNICIPAL";"80470";"SAVEUSE";"Pylône tubulaire"; 27.0;"CELLNEX"
1596626;2.36111;49.89194;"02° 21' 40.00'' Est, 49° 53' 31.00'' Nord";"80164";"LE GAUGUIER BEL BREUILLE";;"80450";"CAMON";"Pylône tubulaire"; 20.0;"BOUYGUES"
1596728;2.46917;49.77306;"02° 28' 09.00'' Est, 49° 46' 23.00'' Nord";"80571";"LES PETITS DOMMAGES";"CHEMIN DE CASTEL";"80110";"MORISEL";"Pylône autostable"; 22.5;"HIVORY"
1596751;2.46111;49.82528;"02° 27' 40.00'' Est, 49° 49' 31.00'' Nord";"80094";"LE BOIS DE GENTELLES";"D476";"80110";"BERTEAUCOURT-LES-THENNES";"Château d'eau - réservoir"; 34.5;"Commune, communauté de commune"
1597175;2.34833;49.89944;"02° 20' 54.00'' Est, 49° 53' 58.00'' Nord";"80164";;"403 TER R DU GENERAL DE GAULLE";"80450";"CAMON";"Pylône tubulaire"; 17.0;"HIVORY"
1597179;2.36333;49.97833;"02° 21' 48.00'' Est, 49° 58' 42.00'' Nord";"80661";"LES MARLY";"TER CHEM";"80260";"RAINNEVILLE";"Pylône autostable"; 22.5;"HIVORY"
1597225;2.30889;49.90944;"02° 18' 32.00'' Est, 49° 54' 34.00'' Nord";"80021";;"15 TER R PIERRE ET MAURICE GARRET OPAC";"80000";"AMIENS";"Immeuble"; 18.8;"Société HLM"
1597232;2.35056;49.86611;"02° 21' 02.00'' Est, 49° 51' 58.00'' Nord";"80489";;"139 R DE LA RÉPUBLIQUE";"80330";"LONGUEAU";"Château d'eau - réservoir"; 26.4;"Syndicat des eaux, Adduction"
1597237;2.29528;49.88500;"02° 17' 43.00'' Est, 49° 53' 06.00'' Nord";"80021";;"54-56 R DELPECH";"80000";"AMIENS";"Immeuble"; 18.7;"Copropriété, Syndic, SCI"
1597246;2.31250;49.87611;"02° 18' 45.00'' Est, 49° 52' 34.00'' Nord";"80021";;"2 ALL PIERRE ROLLIN";"80000";"AMIENS";"Immeuble"; 27.6;"Société HLM"
1597262;2.33139;49.87194;"02° 19' 53.00'' Est, 49° 52' 19.00'' Nord";"80021";;"2 R ELSA TRIOLET ACTEMIUM AMIENS";"80000";"AMIENS";"Pylône tubulaire"; 12.0;"HIVORY"
1597267;2.33111;49.88500;"02° 19' 52.00'' Est, 49° 53' 06.00'' Nord";"80021";;"154 R DE ST ACHEUL ETS COUTY";"80000";"AMIENS";"Immeuble"; 10.5;"Société Privée SA"
1597272;2.30750;49.88750;"02° 18' 27.00'' Est, 49° 53' 15.00'' Nord";"80021";;"63 R VULFRAN WARMÉ EGLISE STE ANNE";"80000";"AMIENS";"Monument religieux"; 36.5;"Commune, communauté de commune"
1597508;2.32250;49.91278;"02° 19' 21.00'' Est, 49° 54' 46.00'' Nord";"80021";;"36 TER R MONTAIGNE - IMM ALLOUVILLE";"80000";"AMIENS";"Immeuble"; 37.3;"Copropriété, Syndic, SCI"
1597519;2.48250;49.99917;"02° 28' 57.00'' Est, 49° 59' 57.00'' Nord";"80207";"LE GUET DU NID";"CHEM DÉPARTEMENTAL N°23 DE DOULLENS À MAREUIL";"80560";"CONTAY";"Pylône autostable"; 32.0;"HIVORY"
1597686;2.47750;49.95500;"02° 28' 39.00'' Est, 49° 57' 18.00'' Nord";"80458";;"LA MALADRERIE RTE DE BEHENCOURT (DIRECTION LE MOULIN)";"80800";"LAHOUSSOYE";"Pylône autostable"; 47.0;"HIVORY"
1597728;2.57361;49.83417;"02° 34' 25.00'' Est, 49° 50' 03.00'' Nord";"80507";"BOIS CANCELETTE";"CHEM RURAL";"80800";"MARCELCAVE";"Pylône autostable"; 39.0;"HIVORY"
1598926;2.25528;49.88444;"02° 15' 19.00'' Est, 49° 53' 04.00'' Nord";"80632";"PRE DE LA COUR";"288 GRANDE RUE DU PETIT ST JEAN ENTREPOT";"80480";"PONT-DE-METZ";"Immeuble"; 35.0;"Société Privée SA"
1601292;2.37972;49.81250;"02° 22' 47.00'' Est, 49° 48' 45.00'' Nord";"80213";"DERRIÈRE L'EGLISE";"CHEM DE REMEMBREMENT DU CIMETIÈRE";"80440";"COTTENCHY";"Pylône autostable"; 27.0;"HIVORY"
1602087;2.90083;49.76528;"02° 54' 03.00'' Est, 49° 45' 55.00'' Nord";"80585";;"RTE DE CHAULNES";"80190";"NESLE";"Bâtiment"; 10.0;"Société Privée SA"
1603408;2.51333;49.91556;"02° 30' 48.00'' Est, 49° 54' 56.00'' Nord";"80212";;"TER R CTRE HOSPITALIER (CTRE REEDUCATION FONCTIONN LE LONG MURAILLE DE L'ABBAYE";"80800";"CORBIE";"Bâtiment"; 14.2;"Etablissement de soins"
1603428;2.32694;49.90306;"02° 19' 37.00'' Est, 49° 54' 11.00'' Nord";"80674";;"107BIS R THUILLIER DELAMBRE CAROSSERIE PARDOEN";"80136";"RIVERY";"Pylône autostable"; 12.0;"HIVORY"
1609932;2.41389;49.87611;"02° 24' 50.00'' Est, 49° 52' 34.00'' Nord";"80107";"PETITE VALLEE";"CHEM D'AMIENS";"80440";"BLANGY-TRONVILLE";"Pylône autostable"; 27.0;"ATC FRANCE"
1613237;1.70694;49.89194;"01° 42' 25.00'' Est, 49° 53' 31.00'' Nord";"80732";;"ROUTE DU TRÉPORT";"80140";"SENARPONT";"Pylône autostable"; 37.5;"ORANGE"
1618812;2.45750;49.89778;"02° 27' 27.00'' Est, 49° 53' 52.00'' Nord";"80234";"LES PRES DE MOREUIL";"RTE DE MOREUIL";"80800";"DAOURS";"Pylône autostable"; 32.0;"ATC FRANCE"
1623313;2.30472;49.92528;"02° 18' 17.00'' Est, 49° 55' 31.00'' Nord";"80021";"ST LADRE";"RUE LE GRECO";"80000";"AMIENS";"Pylône tubulaire"; 25.0;"IFW-FREE"
1624634;2.53194;49.70722;"02° 31' 55.00'' Est, 49° 42' 26.00'' Nord";"80625";;"POSTE ELECTRIQUE D 483 LES FEUILLETTES";"80500";"PIERREPONT-SUR-AVRE";"Bâtiment"; 4.0;"EDF ou GDF"
1624636;2.68556;49.84639;"02° 41' 08.00'' Est, 49° 50' 47.00'' Nord";"80417";;"ANGLE DE LA D337 POSTE ELECTRIQUE";"80131";"HARBONNIERES";"Bâtiment"; 4.0;"EDF ou GDF"
1627242;3.09000;49.94667;"03° 05' 24.00'' Est, 49° 56' 48.00'' Nord";"80677";"LES DIX SEPT";"RUE DE PERONNE POSTE EDF POSTE CASTOR";"80240";"ROISEL";"Bâtiment"; 7.0;"Société Privée SA"
1628010;2.56639;49.96778;"02° 33' 59.00'' Est, 49° 58' 04.00'' Nord";"80672";"LES BLANCHES TERRES";"DÉPARTEMENTALE D119";"80800";"RIBEMONT-SUR-ANCRE";"Bâtiment"; 17.6;"Coopérative Agricole, Vinicole"
1629408;3.04222;49.87861;"03° 02' 32.00'' Est, 49° 52' 43.00'' Nord";"80557";;"37 CHAUSSEE BRUNEHAUT";"80200";"ESTREES-MONS";"Bâtiment"; 10.0;"Société Privée SA"
1629678;2.65611;50.00222;"02° 39' 22.00'' Est, 50° 00' 08.00'' Nord";"80016";;"55 RUE DAUSSY";"80300";"ALBERT";"Château d'eau - réservoir"; 24.0;"Commune, communauté de commune"
1632824;2.32750;49.96139;"02° 19' 39.00'' Est, 49° 57' 41.00'' Nord";"80202";;"R MANON LESCAUT R D'ENGOULEVENT";"80260";"COISY";"Château d'eau - réservoir"; 28.0;"Commune, communauté de commune"
1633878;2.30194;49.90472;"02° 18' 07.00'' Est, 49° 54' 17.00'' Nord";"80021";;"1 RUE DU GÉNÉRAL FRÈRE";"80000";"AMIENS";"Immeuble"; 24.3;"Copropriété, Syndic, SCI"
1633882;2.31722;49.91000;"02° 19' 02.00'' Est, 49° 54' 36.00'' Nord";"80021";;"4 RUE DE BALZAC";"80000";"AMIENS";"Immeuble"; 47.0;"Copropriété, Syndic, SCI"
1634367;2.31778;49.91028;"02° 19' 04.00'' Est, 49° 54' 37.00'' Nord";"80021";;"2 RUE DE BALZAC";"80000";"AMIENS";"Immeuble"; 48.0;"Copropriété, Syndic, SCI"
1637044;2.21306;49.94222;"02° 12' 47.00'' Est, 49° 56' 32.00'' Nord";"80718";"RIDEAU COUVRESSE";"CHEMIN DE ST VAAST";"80470";"SAINT-SAUVEUR";"Pylône autostable"; 32.0;"HIVORY"
1637416;2.35528;49.87556;"02° 21' 19.00'' Est, 49° 52' 32.00'' Nord";"80489";;"ROUTE DU CIMETIÈRE - DÉPÔT SNCF";"80330";"LONGUEAU";"Pylône autostable"; 27.0;"HIVORY"
1640108;2.61778;49.65222;"02° 37' 04.00'' Est, 49° 39' 08.00'' Nord";"80302";;"65 ROUTE DE PIERREPONT";"80500";"FAVEROLLES";"Pylône autostable"; 27.0;"ATC FRANCE"
1640634;2.52806;49.71889;"02° 31' 41.00'' Est, 49° 43' 08.00'' Nord";"80625";"LE PRE MONTIGNARD";"RUE ALBERT SENE";"80500";"PIERREPONT-SUR-AVRE";"Pylône autostable"; 39.6;"TDF"
1642091;2.57111;49.65167;"02° 34' 16.00'' Est, 49° 39' 06.00'' Nord";"80561";;"RUE DES RESERVOIRS";"80500";"MONTDIDIER";"Château d'eau - réservoir"; 36.5;"Commune, communauté de commune"
1644595;2.47278;50.07472;"02° 28' 22.00'' Est, 50° 04' 29.00'' Nord";"80028";"LES MAZURETTES";"D31 SORTIE ARQUEVES DIR LEALVILLERS";"80560";"ARQUEVES";"Pylône autostable"; 45.0;"HIVORY"
1645462;2.19861;49.79111;"02° 11' 55.00'' Est, 49° 47' 28.00'' Nord";"80583";"AU DESSUS DU MARAIS";"DEPARTEMENTALE N°8";"80160";"NAMPTY";"Pylône autostable"; 22.0;"ATC FRANCE"
1651219;3.00528;49.98889;"03° 00' 19.00'' Est, 49° 59' 20.00'' Nord";"80601";"LES PHOSPHATIERES";"RD 917";"80240";"NURLU";"Pylône autostable"; 64.0;"TDF"
1651248;1.85111;49.77500;"01° 51' 04.00'' Est, 49° 46' 30.00'' Nord";"80479";;"RUE DU CIMETIERE";"80290";"LIGNIERES-CHATELAIN";"Silo"; 35.0;"Coopérative Agricole, Vinicole"
1655139;2.41694;50.19472;"02° 25' 01.00'' Est, 50° 11' 41.00'' Nord";"80495";;"RUE DU PETIT MARAIS";"80600";"LUCHEUX";"Pylône autostable"; 40.0;"ORANGE"
1656523;2.27056;49.88667;"02° 16' 14.00'' Est, 49° 53' 12.00'' Nord";"80021";;"265 R D'ELBEUF";"80000";"AMIENS";"Pylône autostable"; 27.0;"ORANGE"
1660090;1.71361;49.89861;"01° 42' 49.00'' Est, 49° 53' 55.00'' Nord";"80732";"LE FOND DE RÉDERIE";"DÉPARTEMENTALE 25";"80140";"SENARPONT";"Pylône autostable"; 32.0;"ATC FRANCE"
1669319;2.25806;49.77722;"02° 15' 29.00'' Est, 49° 46' 38.00'' Nord";"80717";"MAISON BOULY";"RD162 ROUTE D'ORESMAUX";"80160";"SAINT-SAUFLIEU";"Pylône autostable"; 32.0;"HIVORY"
1669326;2.22500;49.73639;"02° 13' 30.00'' Est, 49° 44' 11.00'' Nord";"80114";;"RUE D'EN HAUT";"80160";"BOSQUEL";"Pylône autostable"; 30.0;"HIVORY"
1679243;2.71028;49.87139;"02° 42' 37.00'' Est, 49° 52' 17.00'' Nord";"80342";"AU CHEM DE PROYART";"RN 329 D'ALBERT A MONTDIDIER";"80131";"FRAMERVILLE-RAINECOURT";"Pylône autostable"; 37.0;"HIVORY"
1679737;2.66583;49.81417;"02° 39' 57.00'' Est, 49° 48' 51.00'' Nord";"80162";"AU SENTIER AU BOEURS";"RTE DÉPARTEMENTALE N°28";"80170";"CAIX";"Pylône autostable"; 42.0;"HIVORY"
1681423;1.59611;50.06861;"01° 35' 46.00'' Est, 50° 04' 07.00'' Nord";"80308";;"AVENUE VIMEU VERT";"80210";"FEUQUIERES-EN-VIMEU";"Pylône autostable"; 17.0;"ORANGE"
1682104;1.81583;49.86944;"01° 48' 57.00'' Est, 49° 52' 10.00'' Nord";"80484";"LES HAUTS PAYS";"ROUTE DE BEAUCHAMPS D96/D157";"80430";"LIOMER";"Pylône autostable"; 47.0;"HIVORY"
1682143;1.51889;50.04694;"01° 31' 08.00'' Est, 50° 02' 49.00'' Nord";"80235";"LA VALLEE";;"80570";"DARGNIES";"Pylône autostable"; 22.5;"HIVORY"
1684685;2.12833;49.74861;"02° 07' 42.00'' Est, 49° 44' 55.00'' Nord";"80317";"SENTIER DE WAILLY";"CH D'EXPLOITATION N°4";"80160";"FLEURY";"Pylône autostable"; 40.0;"HIVORY"
1685115;1.63472;50.06750;"01° 38' 05.00'' Est, 50° 04' 03.00'' Nord";"80190";;"R DE LA BRIQUETERIE";"80210";"CHEPY";"Pylône autostable"; 37.0;"HIVORY"
1685119;2.10444;49.80917;"02° 06' 16.00'' Est, 49° 48' 33.00'' Nord";"80582";"LA MALADRERIE";"D 38";"80290";"NAMPS-MAISNIL";"Pylône autostable"; 32.0;"HIVORY"
1685137;1.62861;50.21778;"01° 37' 43.00'' Est, 50° 13' 04.00'' Nord";"80228";;"23 R FLORENTIN LEFILS";"80550";"LE CROTOY";"Pylône autostable"; 29.3;"ORANGE"
1685692;1.54194;50.07472;"01° 32' 31.00'' Est, 50° 04' 29.00'' Nord";"80368";"PRES DU MOULIN A HUILE";"R  LUCIEN DESENCLOS-CHATEAU D EAU";"80130";"FRIVILLE-ESCARBOTIN";"Château d'eau - réservoir"; 38.0;"Syndicat des eaux, Adduction"
1688610;3.04194;49.87861;"03° 02' 31.00'' Est, 49° 52' 43.00'' Nord";"80557";"LA CAVÉE";"LA CAVÉE";"80200";"ESTREES-MONS";"Pylône autostable"; 26.0;"ORANGE"
1710227;3.04861;49.73917;"03° 02' 55.00'' Est, 49° 44' 21.00'' Nord";"80274";;"R NOUVELLE";"80400";"EPPEVILLE";"Pylône tubulaire"; 30.0;"ORANGE"
1710281;2.34250;49.88667;"02° 20' 33.00'' Est, 49° 53' 12.00'' Nord";"80164";;"27 B  R MARIUS PETIT AMBULANCES MODERNES";"80450";"CAMON";"Pylône autostable"; 22.0;"Société Privée SA"
1716847;2.32722;49.88611;"02° 19' 38.00'' Est, 49° 53' 10.00'' Nord";"80021";;"4 RUE DUMONT D'URVILLE";"80000";"AMIENS";"Immeuble"; 20.3;"Société HLM"
1721551;2.94250;49.87361;"02° 56' 33.00'' Est, 49° 52' 25.00'' Nord";"80141";;"CHEMIN THERY CHEM RURAL DE BRIE À ATHIES";"80200";"BRIE";"Pylône autostable"; 42.0;"TDF"
1721679;2.90806;49.75694;"02° 54' 29.00'' Est, 49° 45' 25.00'' Nord";"80585";;"PL DE LA REPUBLIQUE EGLISE";"80190";"NESLE";"Monument religieux"; 44.4;"Commune, communauté de commune"
1723653;1.78500;49.77222;"01° 47' 06.00'' Est, 49° 46' 20.00'' Nord";"80375";"LE DÉROSIER";"CR DU BOIS ROBIN";"80290";"GAUVILLE";"Pylône autostable"; 42.0;"RTE"
1725652;1.56611;50.34250;"01° 33' 58.00'' Est, 50° 20' 33.00'' Nord";"80333";"LE VIEUX FORT MAHON OUEST";"ALLÉE DES TOURTERELLES";"80120";"FORT-MAHON-PLAGE";"Pylône autostable"; 37.0;"ORANGE Services Fixes"
1734215;2.82944;49.84722;"02° 49' 46.00'' Est, 49° 50' 50.00'' Nord";"80002";"SOLE DE BOVENT";"CHEMIN D'EXPLOITATION TGV";"80320";"ABLAINCOURT-PRESSOIR";"Pylône autostable"; 30.0;"ORANGE"
1737051;2.35778;49.90028;"02° 21' 28.00'' Est, 49° 54' 01.00'' Nord";"80164";;"RTE DE CORBIE CD1A PETIT CAMON HAUT SERVICE";"80450";"CAMON";"Château d'eau - réservoir"; 52.3;"Commune, communauté de commune"
1738570;2.75639;49.64667;"02° 45' 23.00'' Est, 49° 38' 48.00'' Nord";"80759";"CHEMIN D'EXPLOITATION TGV";"RUE MAUBUISSON";"80700";"TILLOLOY";"Pylône tubulaire"; 30.0;"ORANGE"
1747130;1.47667;50.06472;"01° 28' 36.00'' Est, 50° 03' 53.00'' Nord";"80714";"ETS SGD";"RUE DE EOLIS";"80880";"SAINT-QUENTIN-LA-MOTTE-CROIX-AU-BAILLY";"Pylône autostable"; 25.0;"ORANGE"
1749553;2.86583;49.92333;"02° 51' 57.00'' Est, 49° 55' 24.00'' Nord";"80313";;"FERME DE L'ALOUETTE SENTIER DE SORMONT";"80200";"FLAUCOURT";"Pylône tubulaire"; 32.0;"HIVORY"
1750325;2.92694;49.91083;"02° 55' 37.00'' Est, 49° 54' 39.00'' Nord";"80620";;"R HENRI BECQUEREL";"80200";"PERONNE";"Pylône tubulaire"; 22.0;"ORANGE"
1752066;2.92917;49.93806;"02° 55' 45.00'' Est, 49° 56' 17.00'' Nord";"80620";"LA REMISE DU MOULIN";"R JEAN TOEUF STADE BOINET";"80200";"PERONNE";"Pylône autostable"; 32.0;"HIVORY"
1752599;3.09833;49.72278;"03° 05' 54.00'' Est, 49° 43' 22.00'' Nord";"80144";;"30 DE CHAUNY";"80400";"BROUCHY";"Pylône autostable"; 42.0;"HIVORY"
1753316;2.28611;49.89583;"02° 17' 10.00'' Est, 49° 53' 45.00'' Nord";"80021";;"49 51 R ST ROCH";"80000";"AMIENS";"Immeuble"; 17.9;"Copropriété, Syndic, SCI"
1753327;2.31667;49.90278;"02° 18' 60.00'' Est, 49° 54' 10.00'' Nord";"80021";;"20 R ROGER ONFRAY";"80000";"AMIENS";"Immeuble"; 12.5;"Particulier"
1755720;2.61889;49.77000;"02° 37' 08.00'' Est, 49° 46' 12.00'' Nord";"80652";"LE PETIT HANGEST";"ANGLE D934 ET R D'HANGEST";"80118";"LE QUESNEL";"Château d'eau - réservoir"; 35.0;"Syndicat des eaux, Adduction"
1755721;2.61889;49.77000;"02° 37' 08.00'' Est, 49° 46' 12.00'' Nord";"80652";"LE PETIT HANGEST";"ANGLE D934 ET R D'HANGEST";"80118";"LE QUESNEL";"Château d'eau - réservoir"; 35.0;"Syndicat des eaux, Adduction"
1770458;2.05944;50.06917;"02° 03' 34.00'' Est, 50° 04' 09.00'' Nord";"80145";;"R DU FOUR";"80690";"BRUCAMPS";"Pylône autostable"; 26.0;"ORANGE"
1786596;1.64306;49.94694;"01° 38' 35.00'' Est, 49° 56' 49.00'' Nord";"80120";;"D67 BOIS DE LA CAVEETTE RELAIS DE BOUILLANCOURT";"80220";"BOUILLANCOURT-EN-SERY";"Château d'eau - réservoir"; 27.0;"Syndicat des eaux, Adduction"
1786598;1.78056;50.05583;"01° 46' 50.00'' Est, 50° 03' 21.00'' Nord";"80076";;"A28 AIRE DE REPOS DE BEHEN RELAIS DU MONT CAUBERT";"80870";"BEHEN";"Pylône autostable"; 40.0;"DDE"
1786600;1.64417;49.93167;"01° 38' 39.00'' Est, 49° 55' 54.00'' Nord";"80126";;"ZONE D ACTIVITE VALLEE MAZIN CEI DE BOUTTENCOURT";"80220";"BOUTTENCOURT";"Pylône autostable"; 25.0;"DDE"
1787006;2.29861;49.89750;"02° 17' 55.00'' Est, 49° 53' 51.00'' Nord";"80021";;"R DES FRANCS MURIERS";"80000";"AMIENS";"Immeuble"; 31.6;"Société HLM"
1791065;1.49861;50.08361;"01° 29' 55.00'' Est, 50° 05' 01.00'' Nord";"80096";;"44 RUE D'AULT";"80530";"BETHENCOURT-SUR-MER";"Pylône autostable"; 40.7;"TDF"
1791780;2.29444;49.91278;"02° 17' 40.00'' Est, 49° 54' 46.00'' Nord";"80021";"POSTE FRANKLIN ROOSEVELT";"CHEMIN DE VAUVOIX, RUE FRANKLIN ROOSEVELT";"80000";"AMIENS";"Bâtiment"; 12.0;"EDF ou GDF"
1792887;3.02472;49.82861;"03° 01' 29.00'' Est, 49° 49' 43.00'' Nord";"80658";"GUIZANCOURT";"10 R D'ATHIES";"80400";"QUIVIERES";"Pylône autostable"; 37.0;"ORANGE"
1795210;1.63056;50.21972;"01° 37' 50.00'' Est, 50° 13' 11.00'' Nord";"80228";;"AVENUE DU CHÂTEAU D'EAU";"80550";"LE CROTOY";"Château d'eau - réservoir"; 37.0;"Syndicat des eaux, Adduction"
1795489;3.04694;49.87694;"03° 02' 49.00'' Est, 49° 52' 37.00'' Nord";"80557";"ESTRÉES EN CHAUSSÉE";"CONSERVERIE BONDUELLE CHAUSSÉE BRUNEHAUT RD1029";"80200";"ESTREES-MONS";"Bâtiment"; 40.0;"Société Privée SA"
1806084;2.32361;49.90861;"02° 19' 25.00'' Est, 49° 54' 31.00'' Nord";"80021";;"85 AVENUE DE LA DEFENSE PASSIVE MAISON D ARRET";"80000";"AMIENS";"Bâtiment"; 10.0;"Etablissement de soins"
1809321;2.14083;50.05889;"02° 08' 27.00'' Est, 50° 03' 32.00'' Nord";"80706";;"R DE LA RUELLETTE";"80780";"SAINT-LEGER-LES-DOMART";"Pylône autostable"; 27.0;"ORANGE"
1812320;2.73722;50.02444;"02° 44' 14.00'' Est, 50° 01' 28.00'' Nord";"80206";;"2 RTE DE BAZENTIN CD N° 20";"80300";"CONTALMAISON";"Pylône autostable"; 32.0;"HIVORY"
1814844;2.80083;49.69472;"02° 48' 03.00'' Est, 49° 41' 41.00'' Nord";"80685";;"ROUTE DE NOYON";"80700";"ROYE";"Pylône autostable"; 30.0;"RTE"
1827432;2.60722;50.08222;"02° 36' 26.00'' Est, 50° 04' 56.00'' Nord";"80498";;"6 PIERRE LEFEBVRE D 919";"80560";"MAILLY-MAILLET";"Château d'eau - réservoir"; 40.0;"Syndicat des eaux, Adduction"
1831346;1.93139;49.74472;"01° 55' 53.00'' Est, 49° 44' 41.00'' Nord";"80755";;"RUE D'EQUENNES";"80290";"THIEULLOY-LA-VILLE";"Château d'eau - réservoir"; 40.3;"Syndicat des eaux, Adduction"
1831447;2.70139;49.81444;"02° 42' 05.00'' Est, 49° 48' 52.00'' Nord";"80680";;"PL FALIZE ÉGLISE";"80170";"ROSIERES-EN-SANTERRE";"Monument religieux"; 42.8;"Commune, communauté de commune"
1843863;2.27667;49.70750;"02° 16' 36.00'' Est, 49° 42' 27.00'' Nord";"80469";;"PL DE L EGLISE D 109";"80250";"LAWARDE-MAUGER-L'HORTOY";"Château d'eau - réservoir"; 35.0;"Syndicat des eaux, Adduction"
1848241;1.83306;49.96444;"01° 49' 59.00'' Est, 49° 57' 52.00'' Nord";"80825";;"142 RUE DU MOULIN";"80270";"WIRY-AU-MONT";"Pylône autostable"; 40.0;"SFR"
1851458;1.55500;50.32167;"01° 33' 18.00'' Est, 50° 19' 18.00'' Nord";"80649";"PETITE CALIFORNIE";"AV HENRI RENARD";"80120";"QUEND";"Château d'eau - réservoir"; 25.0;"Commune, communauté de commune"
1854767;1.98917;49.95361;"01° 59' 21.00'' Est, 49° 57' 13.00'' Nord";"80655";;"17 R DE PLAISANCE";"80270";"QUESNOY-SUR-AIRAINES";"Bâtiment"; 10.0;"Société Privée SA"
1854769;2.39806;49.73222;"02° 23' 53.00'' Est, 49° 43' 56.00'' Nord";"80494";;"20 GRANDE RUE";"80250";"LOUVRECHY";"Bâtiment"; 10.0;"Société Privée SA"
1859174;1.75667;50.30361;"01° 45' 24.00'' Est, 50° 18' 13.00'' Nord";"80815";"LE BOIS FERTIN";"CHEM DU BOIS DU PERIOT";"80120";"VRON";"Pylône autostable"; 35.0;"HIVORY"
1859215;1.93583;50.25944;"01° 56' 09.00'' Est, 50° 15' 34.00'' Nord";"80290";"AUX BOSQUETS BRIDOUX";"R DE LA CROIX CHAUSSÉE BRUHENAUT";"80150";"ESTREES-LES-CRECY";"Pylône autostable"; 47.0;"HIVORY"
1869750;3.04472;49.99444;"03° 02' 41.00'' Est, 49° 59' 40.00'' Nord";"80475";"LE CHAPERON";"R NEUVE CHEM RURAL N°1";"80240";"LIERAMONT";"Pylône autostable"; 32.0;"ORANGE"
1875064;2.30139;49.89000;"02° 18' 05.00'' Est, 49° 53' 24.00'' Nord";"80021";;"70-72 RUE JACOBINS";"80000";"AMIENS";"Bâtiment"; 19.6;"Société Privée SA"
1878381;2.04278;49.88722;"02° 02' 34.00'' Est, 49° 53' 14.00'' Nord";"80554";"LE CROCQ";;"80540";"MOLLIENS-DREUIL";"Château d'eau - réservoir"; 28.0;"Commune, communauté de commune"
1881032;2.13583;49.84056;"02° 08' 09.00'' Est, 49° 50' 26.00'' Nord";"80670";"LA VALLEE JEANNETTE";"ROUTE DU BOIS";"80540";"REVELLES";"Pylône autostable"; 26.0;"ORANGE"
1884625;2.76889;49.65111;"02° 46' 08.00'' Est, 49° 39' 04.00'' Nord";"80101";"LA CROIX MARIE BLANCHE";"RUE MAUBUISSON";"80700";"BEUVRAIGNES";"Pylône autostable"; 33.2;"TDF"
1885585;2.75722;49.62889;"02° 45' 26.00'' Est, 49° 37' 44.00'' Nord";"80101";;"RUE DU CESSIER";"80700";"BEUVRAIGNES";"Pylône autostable"; 33.2;"TDF"
1891501;2.37500;49.89083;"02° 22' 30.00'' Est, 49° 53' 27.00'' Nord";"80164";;"1869 RUE HENRI BARBUSSE CTRE ENTRETIEN INTERVENT";"80450";"CAMON";"Pylône autostable"; 21.0;"DDE"
1897288;2.28944;49.93639;"02° 17' 22.00'' Est, 49° 56' 11.00'' Nord";"80021";;"ESPACE INDUSTRIEL NORD 60 AVENUE ROGER DUMOULIN";"80000";"AMIENS";"Bâtiment"; 13.0;"Société Privée SA"
1901223;1.97833;49.76889;"01° 58' 42.00'' Est, 49° 46' 08.00'' Nord";"80630";"LES TERRES DE LA VILLE";"R DU FRIER";"80290";"POIX-DE-PICARDIE";"Pylône autostable"; 40.0;"TDF"
1906289;2.47306;49.86194;"02° 28' 23.00'' Est, 49° 51' 43.00'' Nord";"80159";"BOIS L'ABBE";"CHEMIN VICINAL N° 7";"80800";"CACHY";"Pylône autostable"; 35.6;"IFW-FREE"
1906761;1.77944;49.84389;"01° 46' 46.00'' Est, 49° 50' 38.00'' Nord";"80062";;"R JAMES VADANCART EGLISE";"80430";"BEAUCAMPS-LE-VIEUX";"Monument religieux"; 45.5;"Commune, communauté de commune"
1907614;2.78361;49.73778;"02° 47' 01.00'' Est, 49° 44' 16.00'' Nord";"80359";;"RUE NEUVE ROUTE DÉPARTEMENTALE 139";"80700";"FRESNOY-LES-ROYE";"Pylône autostable"; 45.8;"TDF"
1914500;2.83944;49.89139;"02° 50' 22.00'' Est, 49° 53' 29.00'' Nord";"80033";;"AIRE DE SERVICE D'ASSEVILLIERS EST RUE DE BELLOY";"80200";"ASSEVILLERS";"Pylône autostable"; 33.2;"TDF"
1914502;2.78389;49.76528;"02° 47' 02.00'' Est, 49° 45' 55.00'' Nord";"80347";"CHAMP HENRY";"RUE DE LA GARE";"80700";"FRANSART";"Pylône autostable"; 45.8;"TDF"
1914979;1.90472;50.04889;"01° 54' 17.00'' Est, 50° 02' 56.00'' Nord";"80635";;"R DU MARAIS - R ROBERT BORDEUX TERRAIN DE SPORT";"80580";"PONT-REMY";"Pylône tubulaire"; 30.0;"ORANGE"
1916165;1.96528;49.87694;"01° 57' 55.00'' Est, 49° 52' 37.00'' Nord";"80165";"LE POIRIER";"RUE CORNET";"80540";"CAMPS-EN-AMIENOIS";"Pylône tubulaire"; 25.0;"IFW-FREE"
1916347;2.24833;49.73056;"02° 14' 54.00'' Est, 49° 43' 50.00'' Nord";"80315";;"ROUTE DU CIMETIERE";"80160";"FLERS-SUR-NOYE";"Château d'eau - réservoir"; 42.0;"Commune, communauté de commune"
1922304;2.42306;49.93917;"02° 25' 23.00'' Est, 49° 56' 21.00'' Nord";"80650";;"ROUTE D'ALLONVILLE";"80115";"QUERRIEU";"Pylône tubulaire"; 26.0;"Commune, communauté de commune"
1925262;2.30417;49.92417;"02° 18' 15.00'' Est, 49° 55' 27.00'' Nord";"80021";"ZAC VALLE ST LADRE";"RUE LE GRÉCO LEROY MERLIN";"80046";"AMIENS";"Bâtiment"; 12.0;"Société Privée SA"
1930679;2.47139;50.07500;"02° 28' 17.00'' Est, 50° 04' 30.00'' Nord";"80028";;"CHEMIN LE VILLAGE";"80560";"ARQUEVES";"Pylône autostable"; 35.6;"IFW-FREE"
1932340;2.36778;49.86722;"02° 22' 04.00'' Est, 49° 52' 02.00'' Nord";"80489";"LA CROIX DE FER";"ROUTE DE ST QUENTIN";"80330";"LONGUEAU";"Bâtiment"; 16.0;"Société Privée SA"
1942312;2.23222;50.04056;"02° 13' 56.00'' Est, 50° 02' 26.00'' Nord";"80423";;"RUE DE L ABREVOIR SALLE MULTI ACTIVITES";"80670";"HAVERNAS";"Pylône tubulaire"; 30.0;"IFW-FREE"
1942314;2.33917;49.76111;"02° 20' 21.00'' Est, 49° 45' 40.00'' Nord";"80452";"LE QUESNOT";"ROUTE D'AMIENS CD 7";"80250";"JUMEL";"Pylône autostable"; 32.0;"IFW-FREE"
1942316;2.24778;49.81528;"02° 14' 52.00'' Est, 49° 48' 55.00'' Nord";"80627";"LE BOIS D'HEBECOURT";"RUE DU CHATEAU D'EAU";"80160";"PLACHY-BUYON";"Pylône autostable"; 33.2;"IFW-FREE"
1944899;2.16250;49.74694;"02° 09' 45.00'' Est, 49° 44' 49.00'' Nord";"80211";;"ROUTE DU CIMETIÈRE CENTRE EQUESTRE DU VAL DE SELLE";"80160";"CONTY";"Pylône tubulaire"; 32.0;"ORANGE"
1950123;1.86361;49.77889;"01° 51' 49.00'' Est, 49° 46' 44.00'' Nord";"80479";;"RUE DU BOIS DE LA DESSOUS";"80590";"LIGNIERES-CHATELAIN";"Pylône autostable"; 37.0;"IFW-FREE"
1950494;1.98583;49.78917;"01° 59' 09.00'' Est, 49° 47' 21.00'' Nord";"80227";;"RUELLE DU BOIS DU PARC";"80290";"CROIXRAULT";"Pylône autostable"; 47.0;"TDF"
1953632;2.31750;49.88889;"02° 19' 03.00'' Est, 49° 53' 20.00'' Nord";"80021";;"29 RUE RIOLAN";"80000";"AMIENS";"Bâtiment"; 18.0;"SNCF"
1960586;2.20917;49.97472;"02° 12' 33.00'' Est, 49° 58' 29.00'' Nord";"80722";"LES GRANDS CHAMPS";"RUE DU STADE STADE";"80310";"SAINT-VAAST-EN-CHAUSSEE";"Pylône autostable"; 33.2;"IFW-FREE"
1969595;2.30056;49.88528;"02° 18' 02.00'' Est, 49° 53' 07.00'' Nord";"80021";"EGLISE ST-MARTIN";"RUE MORGAN";"80000";"AMIENS";"Monument religieux"; 45.0;"Commune, communauté de commune"
1973678;1.68472;50.27667;"01° 41' 05.00'' Est, 50° 16' 36.00'' Nord";"80688";;"ROUTE DE CANTERAINE - D175";"80120";"RUE";"Pylône autostable"; 21.0;"EDF ou GDF"
1975897;2.85111;49.91028;"02° 51' 04.00'' Est, 49° 54' 37.00'' Nord";"80313";;"CHEMIN DE DOMPIERRE";"80200";"FLAUCOURT";"Pylône autostable"; 33.2;"TDF"
1975899;2.57944;49.85389;"02° 34' 46.00'' Est, 49° 51' 14.00'' Nord";"80507";;"5 RUE D HARBONNIERE";"80720";"MARCELCAVE";"Pylône autostable"; 27.2;"Société Privée SA"
1978789;2.46806;49.79472;"02° 28' 05.00'' Est, 49° 47' 41.00'' Nord";"80570";;"ROUTE DE THENNES ENTREPRISE MALTERRE";"80110";"MOREUIL";"Pylône tubulaire"; 37.2;"Société Privée SA"
1987717;2.99444;49.91861;"02° 59' 40.00'' Est, 49° 55' 07.00'' Nord";"80150";;"RUE DE COURCELLES";"80200";"BUIRE-COURCELLES";"Pylône autostable"; 42.5;"TDF"
2001980;2.54639;49.93250;"02° 32' 47.00'' Est, 49° 55' 57.00'' Nord";"80784";"AU CHEMIN D'HEILLY";"D1";"80800";"VAUX-SUR-SOMME";"Pylône tubulaire"; 25.0;"ORANGE"
2004878;2.94639;49.88861;"02° 56' 47.00'' Est, 49° 53' 19.00'' Nord";"80141";"LA GARENNE";"D. 88 RTE DE TINCOURT-BOUCLY";"80200";"BRIE";"Pylône autostable"; 30.0;"ORANGE"
2007971;3.08694;49.95639;"03° 05' 13.00'' Est, 49° 57' 23.00'' Nord";"80677";"LES TREIZE";"CHEMIN DE LONGAVESNES ORDINAIRE N 10";"80240";"ROISEL";"Pylône autostable"; 32.0;"SFR"
2007978;2.17500;49.85528;"02° 10' 30.00'' Est, 49° 51' 19.00'' Nord";"80198";;"CHEMIN SAINT- VAST";"80540";"CLAIRY-SAULCHOIX";"Château d'eau - réservoir"; 23.0;"Commune, communauté de commune"
2008310;1.70417;50.31722;"01° 42' 15.00'' Est, 50° 19' 02.00'' Nord";"80806";"LE BUISSON POUILLEUX";"10 LE CAROUGE";"80120";"VILLERS-SUR-AUTHIE";"Pylône autostable"; 30.0;"ORANGE"
2008833;2.67278;49.84611;"02° 40' 22.00'' Est, 49° 50' 46.00'' Nord";"80417";;"12 R. JACQUES DEFLANDRE";"80131";"HARBONNIERES";"Pylône autostable"; 20.0;"ORANGE"
2008973;2.70806;49.94000;"02° 42' 29.00'' Est, 49° 56' 24.00'' Nord";"80136";"LES CARRIERES SAINT NICOLAS";"RUE DE CORBIE";"80340";"BRAY-SUR-SOMME";"Pylône tubulaire"; 36.0;"SFR"
2014207;1.98417;50.01389;"01° 59' 03.00'' Est, 50° 00' 50.00'' Nord";"80488";;"CHEM DES MORTS PRÈS D.53";"80510";"LONGPRE-LES-CORPS-SAINTS";"Pylône autostable"; 21.0;"ORANGE"
2014740;2.76472;49.70889;"02° 45' 53.00'' Est, 49° 42' 32.00'' Nord";"80685";;"RUE DU CHAMPS MACRET";"80700";"ROYE";"Pylône autostable"; 33.2;"TDF"
2015680;2.80667;49.81361;"02° 48' 24.00'' Est, 49° 48' 49.00'' Nord";"80186";;"10 CHEMIN DE LA REMISE MANSART";"80320";"CHAULNES";"Pylône autostable"; 32.0;"ORANGE"
2033289;2.04361;50.21528;"02° 02' 37.00'' Est, 50° 12' 55.00'' Nord";"80501";;"RUE DE LA MARIE À FLOTS";"80150";"MAISON-PONTHIEU";"Pylône autostable"; 30.0;"ORANGE"
2039951;3.09333;49.73806;"03° 05' 36.00'' Est, 49° 44' 17.00'' Nord";"80410";;"20 CITE ANATOL FRANCE - POSTE SOURC LA PLAINE DE MOULIN SAINT MARTIN";"80400";"HAM";"Bâtiment"; 23.5;"EDF ou GDF"
2046133;2.86000;49.95861;"02° 51' 36.00'' Est, 49° 57' 31.00'' Nord";"80199";"AU CHEMIN D ANCRE";"D938 AUTOTOUTE DU NORD";"80200";"CLERY-SUR-SOMME";"Pylône autostable"; 43.3;"TDF"
2049015;2.54000;50.07111;"02° 32' 24.00'' Est, 50° 04' 16.00'' Nord";"80003";"BOIS D'ACHEUX";"R DE WAZIERES LA SUCRERIE FINE";"80560";"ACHEUX-EN-AMIENOIS";"Pylône autostable"; 44.0;"TDF"
2056067;3.13278;50.00778;"03° 07' 58.00'' Est, 50° 00' 28.00'' Nord";"80271";;"12 RUE DU COLONEL MAURICE SORLIN";"80740";"EPEHY";"Pylône autostable"; 30.0;"ORANGE"
2059343;2.25417;49.87194;"02° 15' 15.00'' Est, 49° 52' 19.00'' Nord";"80725";;"AVENUE RENE LAENNEC";"80480";"SALOUEL";"Bâtiment"; 25.0;"Etablissement de soins"
2059435;2.12222;49.70694;"02° 07' 20.00'' Est, 49° 42' 25.00'' Nord";"80079";;"RUE DE CAPIEUMONT 2 RUE TOUR DE VILLE";"80160";"BELLEUSE";"Château d'eau - réservoir"; 33.0;"Syndicat des eaux, Adduction"
2059641;2.87083;49.98556;"02° 52' 15.00'' Est, 49° 59' 08.00'' Nord";"80521";"BOIS GUIDET";"VOIE RURALE DE LEFOREST";"80360";"MAUREPAS";"Pylône autostable"; 33.2;"TDF"
2059902;2.56111;50.09389;"02° 33' 40.00'' Est, 50° 05' 38.00'' Nord";"80095";;"RUE DU MOULIN D 114";"80560";"BERTRANCOURT";"Château d'eau - réservoir"; 30.0;"Commune, communauté de commune"
2067496;1.58667;50.28167;"01° 35' 12.00'' Est, 50° 16' 54.00'' Nord";"80713";;"28 RUE DES ECOLES";"80120";"SAINT-QUENTIN-EN-TOURMONT";"Pylône autostable"; 27.0;"IFW-FREE"
2070446;2.20278;50.01111;"02° 12' 10.00'' Est, 50° 00' 40.00'' Nord";"80793";;"RUE DES ALLIÉS- VC 18";"80650";"VIGNACOURT";"Château d'eau - réservoir"; 34.0;"Syndicat des eaux, Adduction"
2078498;2.97000;49.99361;"02° 58' 12.00'' Est, 49° 59' 37.00'' Nord";"80552";;"STADE - RUE DU CHEMIN VERT";"80200";"MOISLAINS";"Pylône tubulaire"; 35.0;"ORANGE"
2079587;2.77833;49.68833;"02° 46' 42.00'' Est, 49° 41' 18.00'' Nord";"80685";"SOLE DU CHEMIN DE DANCOURT";"CHEMIN DE DANCOURT";"80700";"ROYE";"Pylône autostable"; 33.2;"TDF"
2104922;3.01361;49.91556;"03° 00' 49.00'' Est, 49° 54' 56.00'' Nord";"80177";;"7 R. DU STADE";"80200";"CARTIGNY";"Pylône autostable"; 36.0;"ORANGE"
2105152;2.82583;49.83278;"02° 49' 33.00'' Est, 49° 49' 58.00'' Nord";"80002";;"RUE D'HYENCOURT LE GRAND D 164 CIMETIERE";"80320";"ABLAINCOURT-PRESSOIR";"Pylône autostable"; 33.2;"TDF"
2106276;2.97333;49.85694;"02° 58' 24.00'' Est, 49° 51' 25.00'' Nord";"80034";"LES PETITES VIGNES";"CHEM DES PETITES VIGNES";"80200";"ATHIES";"Pylône autostable"; 30.0;"ORANGE"
2112204;2.93694;49.93167;"02° 56' 13.00'' Est, 49° 55' 54.00'' Nord";"80620";;"42 RUE GEORGES CLEMENCEAU BRASSERIE DE CLERK";"80200";"PERONNE";"Bâtiment"; 21.0;"Particulier"
2113192;1.77528;49.84306;"01° 46' 31.00'' Est, 49° 50' 35.00'' Nord";"80062";;"26 RUE DE LA POSTE";"80430";"BEAUCAMPS-LE-VIEUX";"Pylône autostable"; 23.0;"ORANGE"
2113642;1.60000;50.01167;"01° 36' 00.00'' Est, 50° 00' 42.00'' Nord";"80500";"MONCHELET";"CHAUSSEE BRUNEHAUT D 190";"80220";"MAISNIERES";"Pylône autostable"; 31.9;"IFW-FREE"
2119749;2.79306;49.70333;"02° 47' 35.00'' Est, 49° 42' 12.00'' Nord";"80685";;"55 AVE DU GENRAL DE GAULLE";"80700";"ROYE";"Bâtiment"; 16.0;"Société Privée SA"
2122611;2.32556;50.02306;"02° 19' 32.00'' Est, 50° 01' 23.00'' Nord";"80746";;"RUE D AMIENS";"80260";"TALMAS";"Pylône autostable"; 46.0;"SFR"
2124640;3.02778;50.03667;"03° 01' 40.00'' Est, 50° 02' 12.00'' Nord";"80312";;"CHAUSSÉE BRUNEHAUT";"80360";"FINS";"Pylône autostable"; 30.0;"ORANGE"
2129456;1.95583;49.85694;"01° 57' 21.00'' Est, 49° 51' 25.00'' Nord";"80443";;"2 ROUTE DE PARIS";"80640";"HORNOY-LE-BOURG";"Pylône autostable"; 24.0;"ORANGE"
2132187;2.80750;49.80389;"02° 48' 27.00'' Est, 49° 48' 14.00'' Nord";"80186";;"RUE AMBOISE PARE";"80320";"CHAULNES";"Pylône autostable"; 33.2;"TDF"
2135267;1.76306;49.91944;"01° 45' 47.00'' Est, 49° 55' 10.00'' Nord";"80040";;"4 VOIE COMMUNAL LA LONGUE RUE";"80140";"AUMATRE";"Pylône autostable"; 31.9;"IFW-FREE"
2135269;2.09361;50.02778;"02° 05' 37.00'' Est, 50° 01' 40.00'' Nord";"80795";;"RUE GEORGES OUTREBON D159 A16";"80420";"VILLE-LE-MARCLET";"Pylône autostable"; 31.5;"IFW-FREE"
2139946;2.30667;49.90972;"02° 18' 24.00'' Est, 49° 54' 35.00'' Nord";"80021";;"3 RUE PIERRE ET MAURICE GARET";"80000";"AMIENS";"Immeuble"; 8.0;"Société HLM"
2149744;2.52306;49.85528;"02° 31' 23.00'' Est, 49° 51' 19.00'' Nord";"80799";"LA COUTURE";"AIRE DE SERVICE A29";"80800";"VILLERS-BRETONNEUX";"Pylône autostable"; 30.0;"Sociétés d'Autoroutes"
2161339;2.40306;49.85500;"02° 24' 11.00'' Est, 49° 51' 18.00'' Nord";"80131";;"AVENUE DU SUPERBE ORENOQUE ZAC JULES VERNES SECT EST";"80440";"BOVES";"Bâtiment"; 10.0;"Société Privée SA"
2165615;1.62583;50.03111;"01° 37' 33.00'' Est, 50° 01' 52.00'' Nord";"80008";;"180 R DE COURCELLES";"80210";"AIGNEVILLE";"Château d'eau - réservoir"; 35.0;"Syndicat des eaux, Adduction"
