Numéro du support;Longitude;Latitude;"Position";"Insee";"Lieu dit";"Adresse";"Code postal";"Commune";"Nature du support";Hauteur en m;"Propriétaire"
19856;-1.25000;46.89278;"01° 15' 00.00'' Ouest, 46° 53' 34.00'' Nord";"85065";;"PL DE LA MAIRIE CENTRAL TÉLÉPHONIQUE";"85250";"CHAVAGNES-EN-PAILLERS";"Pylône tubulaire"; 13.0;"ORANGE Services Fixes"
19906;-0.59583;46.36944;"00° 35' 45.00'' Ouest, 46° 22' 10.00'' Nord";"85020";;"1 RUE DE LA GAILLARDISE";"85490";"BENET";"Pylône autostable"; 16.0;"ORANGE Services Fixes"
19908;-0.59444;46.36694;"00° 35' 40.00'' Ouest, 46° 22' 01.00'' Nord";"85020";"LA BARRIÈRE";"RUE DES GRANGES DIXMIÈRES VC N° 112";"85490";"BENET";"Pylône autostable"; 26.0;"ORANGE Services Fixes"
19916;-0.92194;46.71833;"00° 55' 19.00'' Ouest, 46° 43' 06.00'' Nord";"85066";"LES CHAFFAUDS";;"85390";"CHAVAGNES-LES-REDOUX";"Pylône tubulaire"; 16.0;"ORANGE Services Fixes"
19924;-1.39500;46.73750;"01° 23' 42.00'' Ouest, 46° 44' 15.00'' Nord";"85081";;"LA MARTINIÈRE";"85170";"DOMPIERRE-SUR-YON";"Pylône autostable"; 20.0;"ORANGE Services Fixes"
19938;-2.28472;46.69000;"02° 17' 05.00'' Ouest, 46° 41' 24.00'' Nord";"85113";"POINTE DES CORBEAUX";;"85350";"L'ILE-D'YEU";"Phare"; 30.0;
19944;-0.91972;46.88000;"00° 55' 11.00'' Ouest, 46° 52' 48.00'' Nord";"85082";"LE VIGNAUD";;"85590";"LES EPESSES";"Pylône autostable"; 46.0;"ANFR"
62475;-0.93972;46.59111;"00° 56' 23.00'' Ouest, 46° 35' 28.00'' Nord";"85237";"LES NOUVELLERIES";"ST LAURENT DE LA SALLE RCF FON";"85410";"SAINT-LAURENT-DE-LA-SALLE";"Pylône autostable"; 30.0;"Titulaire programme Radio/TV"
64574;-1.27694;46.72972;"01° 16' 37.00'' Ouest, 46° 43' 47.00'' Nord";"85089";"P.S. L'AUBRETIÈRE";;"85280";"LA FERRIERE";"Pylône autostable"; 25.0;"Sociétés d'Autoroutes"
64584;-0.65139;46.38833;"00° 39' 05.00'' Ouest, 46° 23' 18.00'' Nord";"85168";"ECH DE NIORT-OUEST";;"85420";"OULMES";"Pylône autostable"; 30.0;"Sociétés d'Autoroutes"
64588;-1.13194;46.86639;"01° 07' 55.00'' Ouest, 46° 51' 59.00'' Nord";"85215";"P.S. L'OISELIÈRE";;"85250";"SAINT-FULGENT";"Pylône autostable"; 30.0;"Sociétés d'Autoroutes"
64825;-1.02583;46.92417;"01° 01' 33.00'' Ouest, 46° 55' 27.00'' Nord";"85097";"ACCÈS DE SERVICE (RD 27)";;"85130";"LA GAUBRETIERE";"Pylône autostable"; 14.0;"Sociétés d'Autoroutes"
64827;-1.25583;46.78028;"01° 15' 21.00'' Ouest, 46° 46' 49.00'' Nord";"85084";"P.S. RD 39";;"85140";"LES ESSARTS";"Pylône autostable"; 20.0;"Sociétés d'Autoroutes"
64890;-1.05722;46.52278;"01° 03' 26.00'' Ouest, 46° 31' 22.00'' Nord";"85223";"P.S. CHAUME";;"85210";"SAINTE-HERMINE";"Pylône autostable"; 14.0;"Sociétés d'Autoroutes"
106448;-1.02111;46.39361;"01° 01' 16.00'' Ouest, 46° 23' 37.00'' Nord";"85042";;"PL DE L ÉGLISE";"85450";"CHAILLE-LES-MARAIS";"Monument religieux"; 27.0;"Commune, communauté de commune"
117366;-1.17778;46.82250;"01° 10' 40.00'' Ouest, 46° 49' 21.00'' Nord";"85196";"CHAMP DE NOUEES";"ACCÈS DE SERVICE SUD";"85250";"SAINT-ANDRE-GOULE-D'OIE";"Mât métallique"; 25.0;"Sociétés d'Autoroutes"
160385;-1.88472;46.66944;"01° 53' 05.00'' Ouest, 46° 40' 10.00'' Nord";"85100";;"R DU BOURG";"85800";"GIVRAND";"Support non décrit"; 3.0;
171538;-1.30861;46.33361;"01° 18' 31.00'' Ouest, 46° 20' 01.00'' Nord";"85001";;"2 R DU DR GIRAUDET";"85460";"L'AIGUILLON-SUR-MER";"Support non décrit"; 5.0;
172094;-1.38417;46.73972;"01° 23' 03.00'' Ouest, 46° 44' 23.00'' Nord";"85081";;"R DU VIEUX BOURG";"85170";"DOMPIERRE-SUR-YON";"Support non décrit"; 6.0;
173395;-1.57722;46.41667;"01° 34' 38.00'' Ouest, 46° 24' 60.00'' Nord";"85114";;"ATELIERS MUNICIPAUX";"85520";"JARD-SUR-MER";"Support non décrit"; 12.0;
173919;-1.42639;46.66944;"01° 25' 35.00'' Ouest, 46° 40' 10.00'' Nord";"85191";;"PL NAPOLEON";"85000";"LA ROCHE-SUR-YON";"Support non décrit"; 30.0;
176162;-1.60861;46.73944;"01° 36' 31.00'' Ouest, 46° 44' 22.00'' Nord";"85003";;"AV DE VERDUN";"85190";"AIZENAY";"Support non décrit"; 10.0;
219522;-2.36000;47.04278;"02° 21' 36.00'' Ouest, 47° 02' 34.00'' Nord";"85163";;"PHARE DU PILIER";"85330";"NOIRMOUTIER-EN-L'ILE";"Phare"; 29.0;"Phares et balises"
219533;-1.79611;46.49389;"01° 47' 46.00'' Ouest, 46° 29' 38.00'' Nord";"85194";"FEU DE LA CHAUME";"QUAI GEORGE V";"85100";"LES SABLES-D'OLONNE";"Phare"; 26.0;"Phares et balises"
219542;-1.77028;46.49306;"01° 46' 13.00'' Ouest, 46° 29' 35.00'' Nord";"85194";;"R GAY LUSSAC PHARE DE LA POTENCE";"85100";"LES SABLES-D'OLONNE";"Bâtiment"; 20.0;"Phares et balises"
219545;-1.80417;46.53083;"01° 48' 15.00'' Ouest, 46° 31' 51.00'' Nord";"85166";"L'AURIÈRE";;"85340";"OLONNE-SUR-MER";"Pylône autostable"; 20.0;"Phares et balises"
226529;-2.17306;46.94167;"02° 10' 23.00'' Ouest, 46° 56' 30.00'' Nord";"85011";"LA GAUDINIÈRE";"VERS LE BOS GAUDIN";"85630";"BARBATRE";"Pylône autostable"; 28.0;"FPS TOWERS"
282203;-1.76861;46.51861;"01° 46' 07.00'' Ouest, 46° 31' 07.00'' Nord";"85166";;"R DE LA BELLE OLONNAISE STADE PAUL ESCALIER";"85340";"OLONNE-SUR-MER";"Pylône tubulaire"; 27.0;"ORANGE"
304829;-1.43528;46.74194;"01° 26' 07.00'' Ouest, 46° 44' 31.00'' Nord";"85178";"LA LOGE";"PARC D'ACTIVITÉS ECONOMIQUE ZI";"85170";"LE POIRE-SUR-VIE";"Pylône autostable"; 46.6;"SFR"
312745;-1.04528;46.89722;"01° 02' 43.00'' Ouest, 46° 53' 50.00'' Nord";"85109";"LA VERGNAIE";"RTE DE LA GAUBRETIÈRE - D755 Z.I. VENDÉOPOLE SYSTÈME U";"85500";"LES HERBIERS";"Bâtiment"; 18.0;"Société Privée SA"
314698;-0.85194;46.67944;"00° 51' 07.00'' Ouest, 46° 40' 46.00'' Nord";"85154";"LE GRENOUILLE";"CHEM RURAL N°42";"85390";"MOUILLERON-EN-PAREDS";"Pylône autostable"; 29.0;"ORANGE Services Fixes"
316231;-0.64778;46.38750;"00° 38' 52.00'' Ouest, 46° 23' 15.00'' Nord";"85168";;"LE CHIRON BORDEAUX GARE DE PEAGE DE NIORT OUEST";"85420";"OULMES";"Local technique"; 7.0;"Sociétés d'Autoroutes"
322952;-1.45361;46.65278;"01° 27' 13.00'' Ouest, 46° 39' 10.00'' Nord";"85191";"L'ANGELMIÈRE";"CHEM PIERRE LESCHIÉRA STADE DE L'ANGELMIÈRE";"85000";"LA ROCHE-SUR-YON";"Pylône tubulaire"; 27.0;"ORANGE"
353743;-1.37778;46.90528;"01° 22' 40.00'' Ouest, 46° 54' 19.00'' Nord";"85108";;"R GEORGES CLÉMENCEAU VM MATÉRIAUX";"85260";"L'HERBERGEMENT";"Mât métallique"; 11.0;"Société Privée SA"
361107;-2.02667;46.76056;"02° 01' 36.00'' Ouest, 46° 45' 38.00'' Nord";"85226";"LES BECS";"AV DES BECS";"85270";"SAINT-HILAIRE-DE-RIEZ";"Mât métallique"; 12.0;"ORANGE"
367981;-0.87333;46.37194;"00° 52' 24.00'' Ouest, 46° 22' 19.00'' Nord";"85303";"LA CHAIGNÉE";"LES CHAMPS MERLE PRÈS D.25";"85770";"VIX";"Pylône autostable"; 30.0;"ORANGE"
368181;-1.37611;46.90250;"01° 22' 34.00'' Ouest, 46° 54' 09.00'' Nord";"85108";;"R DES 4 CHEMINS C.A.V.A.C.";"85260";"L'HERBERGEMENT";"Bâtiment"; 21.0;"Société Privée SA"
389471;-1.94889;46.91111;"01° 56' 56.00'' Ouest, 46° 54' 40.00'' Nord";"85221";"LES BARAILLIÈRES";;"85230";"SAINT-GERVAIS";"Pylône autostable"; 48.0;"BOUYGUES"
404209;-1.01250;46.87111;"01° 00' 45.00'' Ouest, 46° 52' 16.00'' Nord";"85109";;"6 R NATIONALE";"85500";"LES HERBIERS";"Monument religieux"; 20.0;
410320;-1.31472;46.71361;"01° 18' 53.00'' Ouest, 46° 42' 49.00'' Nord";"85089";;"104, R NATIONALE  FOYER DE LOGEMENT (MAISON DE RETRAITE)";"85280";"LA FERRIERE";"Bâtiment"; 16.3;"Commune, communauté de commune"
410339;-1.42222;46.72972;"01° 25' 20.00'' Ouest, 46° 43' 47.00'' Nord";"85178";;"STADE MUNICIPAL, R DE L'AUBÉPINE";"85170";"LE POIRE-SUR-VIE";"Pylône autostable"; 27.0;"9 CEGETEL"
415557;-1.78500;46.53167;"01° 47' 06.00'' Ouest, 46° 31' 54.00'' Nord";"85166";"LES GRANDES GARNAUDIÈRES";"CHEM COMMUNAL";"85340";"OLONNE-SUR-MER";"Pylône autostable"; 35.0;"ORANGE"
418056;-1.45222;46.71806;"01° 27' 08.00'' Ouest, 46° 43' 05.00'' Nord";"85155";;"STADE DE MOUILLERON LE CAPTIF";"85000";"MOUILLERON-LE-CAPTIF";"Pylône autostable"; 26.5;"9 CEGETEL"
425475;-1.43139;46.74278;"01° 25' 53.00'' Ouest, 46° 44' 34.00'' Nord";"85081";;"ZA DU SÉJOUR";"85170";"DOMPIERRE-SUR-YON";"Pylône autostable"; 18.0;"Société Privée SA"
427301;-1.45472;46.66556;"01° 27' 17.00'' Ouest, 46° 39' 56.00'' Nord";"85191";;"CHEM GUY BOURRIEAU";"85000";"LA ROCHE-SUR-YON";"Bâtiment"; 10.0;"Copropriété, Syndic, SCI"
435904;-2.03083;46.75806;"02° 01' 51.00'' Ouest, 46° 45' 29.00'' Nord";"85226";"LES BECS";"AV DE L'ALBATROS RÉSIDENCE LE CONSTELLATION - BÂTIMENT E LES OCÉANES";"85270";"SAINT-HILAIRE-DE-RIEZ";"Immeuble"; 31.0;"Copropriété, Syndic, SCI"
436058;-0.83417;46.43500;"00° 50' 03.00'' Ouest, 46° 26' 06.00'' Nord";"85092";"LE GÂTE BOURSE";"CHEM RURAL N°21";"85200";"FONTENAY-LE-COMTE";"Pylône autostable"; 44.0;"FPS TOWERS"
441515;-1.05083;46.47306;"01° 03' 03.00'' Ouest, 46° 28' 23.00'' Nord";"85159";"LES PLANTES";"ZONE ARTISANALE PRÉS D949";"85370";"NALLIERS";"Pylône autostable"; 36.0;"ORANGE"
441605;-1.99500;46.90639;"01° 59' 42.00'' Ouest, 46° 54' 23.00'' Nord";"85221";"LA HACHE";"20 R DEBORDEVERT D.59";"85230";"SAINT-GERVAIS";"Château d'eau - réservoir"; 70.0;"Syndicat des eaux, Adduction"
443902;-1.61306;46.68472;"01° 36' 47.00'' Ouest, 46° 41' 05.00'' Nord";"85016";"LA PICARDIÈRE";"R DE NANTES Z.A. LE CHATENAY";"85190";"BEAULIEU-SOUS-LA-ROCHE";"Pylône tubulaire"; 25.0;"ORANGE"
445734;-1.03389;46.86000;"01° 02' 02.00'' Ouest, 46° 51' 36.00'' Nord";"85109";"LA BUZENIÈRE";"R EDOUARD BRANLY ZI DE LA BUZENIÈRE";"85500";"LES HERBIERS";"Pylône autostable"; 47.0;"SFR"
445738;-1.00889;46.87944;"01° 00' 32.00'' Ouest, 46° 52' 46.00'' Nord";"85109";"LE SUPAS";"R DU BON ACCUEIL STADE MUNICIPAL MASSABIELLE";"85500";"LES HERBIERS";"Pylône tubulaire"; 30.0;"FPS TOWERS"
445864;-0.99444;46.90361;"00° 59' 40.00'' Ouest, 46° 54' 13.00'' Nord";"85109";"LE PUY CHAFFAUD";"ROUTE DE CHAMBRETAUD";"85500";"LES HERBIERS";"Château d'eau - réservoir"; 43.0;"Syndicat des eaux, Adduction"
446593;-2.05750;46.78889;"02° 03' 27.00'' Ouest, 46° 47' 20.00'' Nord";"85234";;"BD MAL LECLERC VERS CIMETIERE";"85160";"SAINT-JEAN-DE-MONTS";"Château d'eau - réservoir"; 55.0;"Syndicat des eaux, Adduction"
446892;-1.78444;46.49667;"01° 47' 04.00'' Ouest, 46° 29' 48.00'' Nord";"85194";;"6 R DE L HOTEL DE VILLE";"85100";"LES SABLES-D'OLONNE";"Bâtiment"; 10.0;"Commune, communauté de commune"
450003;-0.93167;46.79583;"00° 55' 54.00'' Ouest, 46° 47' 45.00'' Nord";"85031";;"11 R EUGÈNE CHARRIER";"85510";"LE BOUPERE";"Château d'eau - réservoir"; 41.0;"Syndicat des eaux, Adduction"
450820;-1.29361;46.33028;"01° 17' 37.00'' Ouest, 46° 19' 49.00'' Nord";"85001";;"PRÈS D.746 - R DES BÉCASSINES STADE DE L'AIGUILLON";"85460";"L'AIGUILLON-SUR-MER";"Pylône tubulaire"; 25.0;"Commune, communauté de commune"
450826;-1.31306;46.33444;"01° 18' 47.00'' Ouest, 46° 20' 04.00'' Nord";"85001";;"RTE DU PORT SOCIÉTÉ PLASTI-PÊCHE";"85460";"L'AIGUILLON-SUR-MER";"Bâtiment"; 17.0;"Société Privée SA"
451288;-1.32278;46.34389;"01° 19' 22.00'' Ouest, 46° 20' 38.00'' Nord";"85104";"LES SABLES";"BEL AIR";"85580";"GRUES";"Château d'eau - réservoir"; 54.0;"Syndicat des eaux, Adduction"
453025;-1.70333;46.51417;"01° 42' 12.00'' Ouest, 46° 30' 51.00'' Nord";"85060";"TAFFENEAU";"CENTRE DE COMPOSTAGE";"85180";"CHATEAU-D'OLONNE";"Pylône autostable"; 63.0;"Altitude Telecom"
453029;-2.24250;46.97333;"02° 14' 33.00'' Ouest, 46° 58' 24.00'' Nord";"85106";;"IMP DE LA FASSONIÈRE";"85680";"LA GUERINIERE";"Pylône autostable"; 42.0;"Altitude Telecom"
453033;-2.33000;46.69444;"02° 19' 48.00'' Ouest, 46° 41' 40.00'' Nord";"85113";;"ROUTE DU SÉMAPHORE";"85350";"L'ILE-D'YEU";"Pylône autostable"; 44.0;"Autres"
453037;-1.42500;46.67944;"01° 25' 30.00'' Ouest, 46° 40' 46.00'' Nord";"85191";"LE GRAND PAVOIS";"PL VICTOIRES";"85000";"LA ROCHE-SUR-YON";"Immeuble"; 56.0;"Copropriété, Syndic, SCI"
453337;-1.72944;46.70306;"01° 43' 46.00'' Ouest, 46° 42' 11.00'' Nord";"85070";"LA BATE MOUCLE";"LES LANDES DE LA TOURNERIE VC N°108-TERRAIN COMMUNAL";"85220";"COEX";"Pylône autostable"; 40.0;"Commune, communauté de commune"
453347;-1.02111;46.89500;"01° 01' 16.00'' Ouest, 46° 53' 42.00'' Nord";"85109";;"LA MÉANCIÈRE";"85500";"LES HERBIERS";"Pylône autostable"; 45.0;"Altitude Telecom"
453375;-0.76083;46.49583;"00° 45' 39.00'' Ouest, 46° 29' 45.00'' Nord";"85167";;"LES PATIS";"85200";"L'ORBRIE";"Château d'eau - réservoir"; 75.0;"Altitude Telecom"
453382;-1.06611;46.50417;"01° 03' 58.00'' Ouest, 46° 30' 15.00'' Nord";"85199";"LA BATE MOUCLE";;"85210";"SAINT-AUBIN-LA-PLAINE";"Pylône autostable"; 41.0;"Commune, communauté de commune"
453383;-1.86389;46.86028;"01° 51' 50.00'' Ouest, 46° 51' 37.00'' Nord";"85047";"LA PETITE BROSSE";"D 32 - R DES ARTISANS";"85300";"CHALLANS";"Pylône autostable"; 65.0;"TDF"
453390;-1.33861;46.85361;"01° 20' 19.00'' Ouest, 46° 51' 13.00'' Nord";"85072";"L'ABREUVOIR";;"85260";"LA COPECHAGNIERE";"Pylône autostable"; 42.0;"Commune, communauté de commune"
453391;-0.91111;46.85889;"00° 54' 40.00'' Ouest, 46° 51' 32.00'' Nord";"85242";"LA RENAUDIERE";;"85590";"SAINT-MARS-LA-REORTHE";"Pylône autostable"; 40.0;"Altitude Telecom"
453398;-0.94556;46.33000;"00° 56' 44.00'' Ouest, 46° 19' 48.00'' Nord";"85111";;"PL DE L'EGLISE";"85770";"L'ILE-D'ELLE";"Monument religieux"; 36.0;"Commune, communauté de commune"
453412;-1.13833;46.68611;"01° 08' 18.00'' Ouest, 46° 41' 10.00'' Nord";"85232";"LES PETITES MAISONS";"PAC LE SABLON";"85480";"SAINT-HILAIRE-LE-VOUHIS";"Pylône autostable"; 40.0;"Altitude Telecom"
453416;-0.98111;46.95417;"00° 58' 52.00'' Ouest, 46° 57' 15.00'' Nord";"85302";"LA HAUTE FRESNAYE";"ROUTE DE SAINT MALO";"85130";"LA VERRIE";"Pylône autostable"; 40.0;"Altitude Telecom"
453420;-0.79639;46.76556;"00° 47' 47.00'' Ouest, 46° 45' 56.00'' Nord";"85182";"LE PUY LOSE";"D.49 - PRÈS DU RÉSERVOIR TOUR TDF";"85700";"POUZAUGES";"Tour hertzienne"; 76.0;"TDF"
453424;-1.38917;46.50889;"01° 23' 21.00'' Ouest, 46° 30' 32.00'' Nord";"85277";"LE CHAMP DES LANDES";"LE MOULIN MOIZEAU CHÂTEAU D'EAU";"85540";"SAINT-VINCENT-SUR-GRAON";"Château d'eau - réservoir"; 65.0;"Commune, communauté de commune"
455489;-1.25222;46.96056;"01° 15' 08.00'' Ouest, 46° 57' 38.00'' Nord";"85107";;"TERRAIN COMMUNAL BORDAGE JAUNOIS - R DE L'INDUST";"85600";"LA GUYONNIERE";"Pylône autostable"; 40.0;"Commune, communauté de commune"
455956;-1.01556;46.68778;"01° 00' 56.00'' Ouest, 46° 41' 16.00'' Nord";"85051";"ST MARS DES PRES";"LE FRENE";"85110";"CHANTONNAY";"Château d'eau - réservoir"; 77.0;"Syndicat des eaux, Adduction"
456017;-1.30972;46.70444;"01° 18' 35.00'' Ouest, 46° 42' 16.00'' Nord";"85089";"LA BORDERIE";"R DU CH D'EAU D 101";"85280";"LA FERRIERE";"Château d'eau - réservoir"; 75.2;"Syndicat des eaux, Adduction"
458117;-2.06333;46.78472;"02° 03' 48.00'' Ouest, 46° 47' 05.00'' Nord";"85234";;"STADE - AV DE LA FORÊT";"85160";"SAINT-JEAN-DE-MONTS";"Pylône autostable"; 45.0;"Altitude Telecom"
458787;-1.76778;46.49111;"01° 46' 04.00'' Ouest, 46° 29' 28.00'' Nord";"85194";"LES ROSES";"BD PASTEUR";"85100";"LES SABLES-D'OLONNE";"Pylône autostable"; 46.0;"TDF"
458819;-1.44417;46.34444;"01° 26' 39.00'' Ouest, 46° 20' 40.00'' Nord";"85294";;"LE VIEUX MOULIN";"85360";"LA TRANCHE-SUR-MER";"Pylône autostable"; 55.0;"TDF"
458843;-1.70917;46.61111;"01° 42' 33.00'' Ouest, 46° 36' 40.00'' Nord";"85298";"LA GUIONNIÈRE";"LE MOULIN DU RETAIL";"85150";"VAIRE";"Pylône haubané"; 76.0;"TDF"
459490;-1.38083;46.66194;"01° 22' 51.00'' Ouest, 46° 39' 43.00'' Nord";"85191";"LES LANDES";"L'HERBAUDE";"85000";"LA ROCHE-SUR-YON";"Pylône autostable"; 81.0;"TDF"
459504;-1.40806;46.66500;"01° 24' 29.00'' Ouest, 46° 39' 54.00'' Nord";"85191";;"IMP ENTRE LES RUES JOSEPH BARAT / GABORIT RÉSERVOIR DU MOULIN ROUGE";"85000";"LA ROCHE-SUR-YON";"Château d'eau - réservoir"; 56.0;"Commune, communauté de commune"
459550;-1.42889;46.34806;"01° 25' 44.00'' Ouest, 46° 20' 53.00'' Nord";"85294";"LES JONCS";"R DU PERTHUIS BRETON";"85360";"LA TRANCHE-SUR-MER";"Pylône autostable"; 37.0;"ORANGE Services Fixes"
462561;-1.38500;46.73361;"01° 23' 06.00'' Ouest, 46° 44' 01.00'' Nord";"85089";"LE CHAMPS DE LA GIRAUDIERE";"R DES SOURCES";"85280";"LA FERRIERE";"Pylône autostable"; 41.0;"TDF"
462647;-1.25583;46.35750;"01° 15' 21.00'' Ouest, 46° 21' 27.00'' Nord";"85255";"LES CHANCHES";"VC 201 STADE";"85580";"SAINT-MICHEL-EN-L'HERM";"Pylône autostable"; 34.0;"TDF"
466597;-1.43333;46.69083;"01° 26' 00.00'' Ouest, 46° 41' 27.00'' Nord";"85191";;"IMP MARC SEGUIN ZI NORD";"85000";"LA ROCHE-SUR-YON";"Château d'eau - réservoir"; 55.0;"Commune, communauté de commune"
467653;-0.69556;46.69583;"00° 41' 44.00'' Ouest, 46° 41' 45.00'' Nord";"85264";;"R DES SAULNIERS";"85120";"SAINT-PIERRE-DU-CHEMIN";"Pylône tubulaire"; 20.0;"ORANGE"
469003;-1.43139;46.67222;"01° 25' 53.00'' Ouest, 46° 40' 20.00'' Nord";"85191";;"56 R MOLIÈRE";"85000";"LA ROCHE-SUR-YON";"Bâtiment"; 35.0;"Société Privée SA"
470013;-1.47028;46.72111;"01° 28' 13.00'' Ouest, 46° 43' 16.00'' Nord";"85155";"LA POIRIERE";;"85000";"MOUILLERON-LE-CAPTIF";"Pylône autostable"; 39.0;"TDF"
470463;-1.45556;46.55472;"01° 27' 20.00'' Ouest, 46° 33' 17.00'' Nord";"85026";"LE JARRIBOULIN";"CHEM DE LA MOUSSOIRE";"85430";"LA BOISSIERE-DES-LANDES";"Pylône autostable"; 50.0;"SFR"
471653;-1.06333;46.68000;"01° 03' 48.00'' Ouest, 46° 40' 48.00'' Nord";"85051";"LA CHARDIÈRE";"28 R DES FRÊNES";"85110";"CHANTONNAY";"Pylône autostable"; 46.0;"TDF"
472091;-1.38806;46.41333;"01° 23' 17.00'' Ouest, 46° 24' 48.00'' Nord";"85004";"LE MOULIN DE MORICQ";"CHATEAU D'EAU";"85750";"ANGLES";"Château d'eau - réservoir"; 43.0;"Syndicat des eaux, Adduction"
472118;-0.89083;46.88944;"00° 53' 27.00'' Ouest, 46° 53' 22.00'' Nord";"85082";"LES LANDES DE LA CHEVRIÈRE";"D 11";"85590";"LES EPESSES";"Pylône autostable"; 38.0;"BOUYGUES"
472215;-0.74028;46.65194;"00° 44' 25.00'' Ouest, 46° 39' 07.00'' Nord";"85059";;"5 R DES JACOBINS";"85120";"LA CHATAIGNERAIE";"Château d'eau - réservoir"; 38.0;"Syndicat des eaux, Adduction"
472293;-1.27417;46.66917;"01° 16' 27.00'' Ouest, 46° 40' 09.00'' Nord";"85046";"LE GRAND PRE";;"85310";"LA CHAIZE-LE-VICOMTE";"Pylône autostable"; 39.2;"FPS TOWERS"
473102;-1.31222;46.97611;"01° 18' 44.00'' Ouest, 46° 58' 34.00'' Nord";"85146";;"PL ST JEAN BAPTISTE";"85600";"MONTAIGU";"Monument religieux"; 34.0;"Commune, communauté de commune"
473268;-1.28472;46.94444;"01° 17' 05.00'' Ouest, 46° 56' 40.00'' Nord";"85217";"LE CUMERCLAY";"R DU TONNELIER";"85600";"SAINT-GEORGES-DE-MONTAIGU";"Pylône autostable"; 34.0;"TDF"
473345;-1.87917;46.84028;"01° 52' 45.00'' Ouest, 46° 50' 25.00'' Nord";"85047";;"BD  JEAN YOLE STADE MUNICIPAL";"85300";"CHALLANS";"Pylône tubulaire"; 35.0;"ORANGE"
473351;-1.39639;46.34361;"01° 23' 47.00'' Ouest, 46° 20' 37.00'' Nord";"85294";;"AV ST ANNE CAMPING DES PRÉVEILS";"85360";"LA TRANCHE-SUR-MER";"Château d'eau - réservoir"; 23.0;"Association"
475330;-1.16694;46.85306;"01° 10' 01.00'' Ouest, 46° 51' 11.00'' Nord";"85215";"LE PLESSIS RICHARD";"A DU GRAND MOULIN";"85250";"SAINT-FULGENT";"Pylône autostable"; 40.0;"TDF"
477185;-0.94917;47.00056;"00° 56' 57.00'' Ouest, 47° 00' 02.00'' Nord";"85151";;"R DE L INDUSTRIE LE CHIRON";"85290";"MORTAGNE-SUR-SEVRE";"Château d'eau - réservoir"; 47.0;"Syndicat des eaux, Adduction"
478815;-1.36972;46.69306;"01° 22' 11.00'' Ouest, 46° 41' 35.00'' Nord";"85191";"LE MOULIN DES CHAUSSIÈRES";"R DE DION BOUTON ZI LES AJONCS";"85000";"LA ROCHE-SUR-YON";"Pylône autostable"; 26.0;"SFR"
478831;-1.50083;46.77333;"01° 30' 03.00'' Ouest, 46° 46' 24.00'' Nord";"85178";;"R DE LA CROIX BOUET  STADE MUNICIPAL DE L'IDONNIERE";"85170";"LE POIRE-SUR-VIE";"Pylône autostable"; 36.0;"SFR"
479382;-1.00222;46.90139;"01° 00' 08.00'' Ouest, 46° 54' 05.00'' Nord";"85109";"LA VACHONNIERE";"RN 160";"85500";"LES HERBIERS";"Pylône autostable"; 45.0;"BOUYGUES"
480883;-1.73639;46.49111;"01° 44' 11.00'' Ouest, 46° 29' 28.00'' Nord";"85060";;"12 R JACQUARD";"85180";"CHATEAU-D'OLONNE";"Pylône autostable"; 85.0;"Autres"
481314;-1.50806;46.42611;"01° 30' 29.00'' Ouest, 46° 25' 34.00'' Nord";"85127";"LES VIOLETTES";;"85560";"LONGEVILLE-SUR-MER";"Château d'eau - réservoir"; 63.5;"Syndicat des eaux, Adduction"
483391;-0.99528;46.96056;"00° 59' 43.00'' Ouest, 46° 57' 38.00'' Nord";"85302";;"PLACE SAPINAUD EGLISE DE LA VERRIE";"85130";"LA VERRIE";"Monument religieux"; 36.0;"Commune, communauté de commune"
484675;-2.00917;46.74778;"02° 00' 33.00'' Ouest, 46° 44' 52.00'' Nord";"85226";"LES VASES";;"85270";"SAINT-HILAIRE-DE-RIEZ";"Château d'eau - réservoir"; 72.0;"Syndicat des eaux, Adduction"
484709;-0.89028;46.96667;"00° 53' 25.00'' Ouest, 46° 58' 00.00'' Nord";"85238";"LA TRIQUE";"R DES MARTYRS CHATEAU D'EAU";"85290";"SAINT-LAURENT-SUR-SEVRE";"Château d'eau - réservoir"; 54.0;"Syndicat des eaux, Adduction"
486571;-1.89611;46.80361;"01° 53' 46.00'' Ouest, 46° 48' 13.00'' Nord";"85284";"LE MOULIN NEUF";"RTE DE CHALLANS CHATEAU D'EAU PRÈS D69";"85300";"SOULLANS";"Château d'eau - réservoir"; 72.0;"Syndicat des eaux, Adduction"
492259;-1.95806;46.71000;"01° 57' 29.00'' Ouest, 46° 42' 36.00'' Nord";"85226";;"6 R DE L'ATLANTIQUE";"85270";"SAINT-HILAIRE-DE-RIEZ";"Château d'eau - réservoir"; 65.5;"Syndicat des eaux, Adduction"
492690;-1.43111;46.67917;"01° 25' 52.00'' Ouest, 46° 40' 45.00'' Nord";"85191";;"R GUTEMBERG CITÉ JEAN YOLE BAT A";"85000";"LA ROCHE-SUR-YON";"Bâtiment"; 41.0;"Société HLM"
494215;-1.17667;46.45889;"01° 10' 36.00'' Ouest, 46° 27' 32.00'' Nord";"85128";;"R PASTEUR CITE BIRON BAT B";"85400";"LUCON";"Bâtiment"; 35.4;"Société HLM"
495238;-0.81083;46.47722;"00° 48' 39.00'' Ouest, 46° 28' 38.00'' Nord";"85176";"CHAMPS CREPINS";"CHEM N°14";"85200";"PISSOTTE";"Château d'eau - réservoir"; 60.5;"Syndicat des eaux, Adduction"
498992;-1.85111;46.63639;"01° 51' 04.00'' Ouest, 46° 38' 11.00'' Nord";"85035";"FIEF DU MOULIN";"PRES DE  LA TREVILLERE";"85470";"BRETIGNOLLES-SUR-MER";"Château d'eau - réservoir"; 69.9;"Syndicat des eaux, Adduction"
500078;-0.78306;46.46278;"00° 46' 59.00'' Ouest, 46° 27' 46.00'' Nord";"85092";"LES MOULINS LIOTS";"R GEORGES POMPIDOU";"85200";"FONTENAY-LE-COMTE";"Bâtiment"; 48.0;"Société HLM"
501516;-1.50694;46.77111;"01° 30' 25.00'' Ouest, 46° 46' 16.00'' Nord";"85178";;"BD DES DEUX MOULINS";"85170";"LE POIRE-SUR-VIE";"Pylône tubulaire"; 26.0;"ORANGE"
504469;-1.21944;46.52833;"01° 13' 10.00'' Ouest, 46° 31' 42.00'' Nord";"85135";"BEAULIEU";"R DES ONDES";"85320";"MAREUIL-SUR-LAY-DISSAIS";"Pylône autostable"; 45.0;"TDF"
506173;-1.29278;46.56194;"01° 17' 34.00'' Ouest, 46° 33' 43.00'' Nord";"85061";"LA CHOLETIERE";;"85320";"CHATEAU-GUIBERT";"Château d'eau - réservoir"; 86.0;"Syndicat des eaux, Adduction"
509005;-1.05889;46.94083;"01° 03' 32.00'' Ouest, 46° 56' 27.00'' Nord";"85097";"LE CAILLON";"STADE MUNICIPAL";"85130";"LA GAUBRETIERE";"Pylône tubulaire"; 34.0;"TDF"
512958;-0.98361;46.86472;"00° 59' 01.00'' Ouest, 46° 51' 53.00'' Nord";"85109";"LA GIRARDIERE";"LE FIEF DES MERLATIERES LA ROCHE THEMER";"85500";"LES HERBIERS";"Pylône autostable"; 43.0;"TDF"
514503;-1.61306;46.46056;"01° 36' 47.00'' Ouest, 46° 27' 38.00'' Nord";"85288";;"LES MOULINS";"85440";"TALMONT-SAINT-HILAIRE";"Pylône autostable"; 48.0;"TDF"
516202;-2.35806;46.72083;"02° 21' 29.00'' Ouest, 46° 43' 15.00'' Nord";"85113";"PORT JOINVILLE";"RTE DES EAUX";"85350";"L'ILE-D'YEU";"Château d'eau - réservoir"; 61.3;"Syndicat des eaux, Adduction"
517145;-1.02528;46.70417;"01° 01' 31.00'' Ouest, 46° 42' 15.00'' Nord";"85051";"PUYBELLIARD";"LA BRÉAUDIÈRE - LE PINÇON CHEM DE L'EPINETTE";"85110";"CHANTONNAY";"Pylône tubulaire"; 25.0;"ORANGE"
518568;-1.42972;46.77306;"01° 25' 47.00'' Ouest, 46° 46' 23.00'' Nord";"85019";"LE PETIT BOURBON";"CHATEAU D'EAU DANS LA ZAC";"85170";"BELLEVILLE-SUR-VIE";"Château d'eau - réservoir"; 78.0;"Syndicat des eaux, Adduction"
520268;-1.49694;46.63639;"01° 29' 49.00'' Ouest, 46° 38' 11.00'' Nord";"85069";"LA PETITE RICHARDIÈRE";"LA POLKA RD 80";"85430";"LES CLOUZEAUX";"Pylône tubulaire"; 32.0;"SFR"
520349;-1.33333;46.67861;"01° 19' 60.00'' Ouest, 46° 40' 43.00'' Nord";"85046";;"LA CHAPELLIERE";"85310";"LA CHAIZE-LE-VICOMTE";"Pylône tubulaire"; 40.0;"Sociétés d'Autoroutes"
520881;-0.60056;46.36889;"00° 36' 02.00'' Ouest, 46° 22' 08.00'' Nord";"85020";;"R DES MERCIERS";"85490";"BENET";"Château d'eau - réservoir"; 58.0;"Syndicat des eaux, Adduction"
521681;-1.15444;46.62778;"01° 09' 16.00'' Ouest, 46° 37' 40.00'' Nord";"85034";"LE PONTREAU";"ECH CHANTONAY BOURNEZEAU A 83 /PK 65";"85480";"BOURNEZEAU";"Pylône autostable"; 62.0;"Sociétés d'Autoroutes"
521692;-1.22417;46.82833;"01° 13' 27.00'' Ouest, 46° 49' 42.00'' Nord";"85064";"GRAND QUARTIER";"AUTOROUTE A83 PK 41.5";"85140";"CHAUCHE";"Pylône autostable"; 64.0;"Sociétés d'Autoroutes"
530259;-1.56861;46.41111;"01° 34' 07.00'' Ouest, 46° 24' 40.00'' Nord";"85114";"LES HÉRONDAIS";"CHEM DE LA RAGNETTE STATION D'ÉPURATION";"85520";"JARD-SUR-MER";"Pylône tubulaire"; 30.0;"ORANGE"
532224;-2.24972;46.97472;"02° 14' 59.00'' Ouest, 46° 58' 29.00'' Nord";"85106";"LES MANDELIERS";"USINE DE TRAITEMENT DES ORDURES";"85680";"LA GUERINIERE";"Pylône haubané"; 44.0;"SFR"
534159;-1.99111;46.97361;"01° 59' 28.00'' Ouest, 46° 58' 25.00'' Nord";"85029";;"IMP DE LA REYNERIE";"85230";"BOUIN";"Pylône autostable"; 27.0;"SFR"
534181;-2.10167;46.88694;"02° 06' 06.00'' Ouest, 46° 53' 13.00'' Nord";"85012";"LE PETIT BOISILLON";"ZA DU RAMPY";"85550";"LA BARRE-DE-MONTS";"Pylône autostable"; 32.0;"ORANGE"
534191;-1.82111;46.60083;"01° 49' 16.00'' Ouest, 46° 36' 03.00'' Nord";"85243";"LE CLOS";;"85470";"BREM-SUR-MER";"Pylône autostable"; 37.0;"SFR"
539176;-0.81972;46.47833;"00° 49' 11.00'' Ouest, 46° 28' 42.00'' Nord";"85092";;"R LOUIS MARIE LESCURE";"85200";"FONTENAY-LE-COMTE";"Pylône autostable"; 79.0;"TDF"
539209;-1.73472;46.81944;"01° 44' 05.00'' Ouest, 46° 49' 10.00'' Nord";"85204";"LE MOULIN NEUF";"D.2 - V.C. DU CHAMP ROUX";"85670";"SAINT-CHRISTOPHE-DU-LIGNERON";"Tour hertzienne"; 88.0;"TDF"
544083;-1.17333;46.45333;"01° 10' 24.00'' Ouest, 46° 27' 12.00'' Nord";"85128";;"CHEM DU FRÊNE STADE EUGÈNE BEAUSSIRE";"85400";"LUCON";"Pylône tubulaire"; 28.0;"ORANGE"
547033;-2.15917;46.90778;"02° 09' 33.00'' Ouest, 46° 54' 28.00'' Nord";"85011";;"13 R DE L'ESTACADE";"85630";"BARBATRE";"Château d'eau - réservoir"; 56.0;"Syndicat des eaux, Adduction"
547492;-0.91500;46.84361;"00° 54' 54.00'' Ouest, 46° 50' 37.00'' Nord";"85257";"LES JUSTICES";"STATION TDF LES HERBIERS";"85700";"SAINT-MICHEL-MONT-MERCURE";"Pylône autostable"; 45.0;"TDF"
547971;-0.80278;46.46361;"00° 48' 10.00'' Ouest, 46° 27' 49.00'' Nord";"85092";;"20 R DU PORT CENTRAL FT";"85200";"FONTENAY-LE-COMTE";"Immeuble"; 21.0;"ORANGE Services Fixes"
551740;-1.32667;46.97000;"01° 19' 36.00'' Ouest, 46° 58' 12.00'' Nord";"85027";;"ZA DE MIRVILLE";"85600";"BOUFFERE";"Pylône autostable"; 30.0;"ORANGE"
551797;-1.14917;46.47139;"01° 08' 57.00'' Ouest, 46° 28' 17.00'' Nord";"85128";"TORTRON";"CHEM DE BEL-AIR";"85400";"LUCON";"Pylône autostable"; 52.0;"ORANGE Services Fixes"
556825;-1.22333;46.98000;"01° 13' 24.00'' Ouest, 46° 58' 48.00'' Nord";"85295";;"8 R DU MENHIR";"85600";"TREIZE-SEPTIERS";"Pylône autostable"; 34.0;"TDF"
556973;-1.84583;46.75500;"01° 50' 45.00'' Ouest, 46° 45' 18.00'' Nord";"85071";"LA GÎTE";"TERRAINS COMMUNAUX LA VOLETTE";"85220";"COMMEQUIERS";"Pylône tubulaire"; 40.0;"ORANGE"
564182;-1.90139;46.71611;"01° 54' 05.00'' Ouest, 46° 42' 58.00'' Nord";"85088";"LES BARRIÈRES";"R DE LA TUCASSERIE COMPLEXE SPORTIF LES BARRIÈRES";"85800";"LE FENOUILLER";"Pylône tubulaire"; 23.0;"ORANGE"
565891;-1.58583;46.41750;"01° 35' 09.00'' Ouest, 46° 25' 03.00'' Nord";"85114";"LES HORMEAUX";"60, RTE DE MADORO COMPLEXE SPORTIF";"85520";"JARD-SUR-MER";"Pylône autostable"; 36.0;"ORANGE"
566411;-0.96222;46.75806;"00° 57' 44.00'' Ouest, 46° 45' 29.00'' Nord";"85266";;"R DES GRANDS MOUNTAINS ZA GARAGE MONNEREAU J. SARL";"85110";"SAINT-PROUANT";"Pylône tubulaire"; 30.0;"ORANGE"
567000;-1.89111;46.63639;"01° 53' 28.00'' Ouest, 46° 38' 11.00'' Nord";"85035";;"R DE L'HERBE VERTE";"85470";"BRETIGNOLLES-SUR-MER";"Pylône tubulaire"; 21.0;"ORANGE"
571472;-0.77917;46.49528;"00° 46' 45.00'' Ouest, 46° 29' 43.00'' Nord";"85167";"LE PUY CHABOT";;"85200";"L'ORBRIE";"Pylône haubané"; 62.7;"TDF"
579989;-1.32083;47.01611;"01° 19' 15.00'' Ouest, 47° 00' 58.00'' Nord";"85224";"LE MOULIN DU BUTAIS";"N 137";"85600";"SAINT-HILAIRE-DE-LOULAY";"Pylône autostable"; 44.0;"FPS TOWERS"
580477;-0.79750;46.46222;"00° 47' 51.00'' Ouest, 46° 27' 44.00'' Nord";"85092";;"102 R DE LA RÉPUBLIQUE STADE MUNICIPAL";"85200";"FONTENAY-LE-COMTE";"Pylône autostable"; 26.0;"Commune, communauté de commune"
584797;-1.51639;46.56972;"01° 30' 59.00'' Ouest, 46° 34' 11.00'' Nord";"85161";"LE VIVIER";"D.36 ZONE ARTISANALE DU VIVIER";"85430";"NIEUL-LE-DOLENT";"Pylône autostable"; 30.0;"ORANGE"
584827;-1.07917;46.52917;"01° 04' 45.00'' Ouest, 46° 31' 45.00'' Nord";"85223";"LE CHAMP CHEVREAU";"VOIE COMMUNALE N°202 PRÈS N.137";"85210";"SAINTE-HERMINE";"Pylône autostable"; 31.0;"ORANGE"
584833;-1.26639;47.07000;"01° 15' 59.00'' Ouest, 47° 04' 12.00'' Nord";"85076";"LE PATIS - LA CAILLERIE";"VOIE COMMUNALE N° 102";"85610";"CUGAND";"Pylône autostable"; 30.0;"ORANGE"
585294;-1.61444;46.54333;"01° 36' 52.00'' Ouest, 46° 32' 36.00'' Nord";"85103";"LA FLORENCIÈRE";"PRÈS SILO";"85440";"GROSBREUIL";"Pylône autostable"; 32.0;"ORANGE"
585725;-1.11444;46.56528;"01° 06' 52.00'' Ouest, 46° 33' 55.00'' Nord";"85261";"LE COTEAU";"RTE DU PETIT ST LINAIRE";"85320";"SAINTE-PEXINE";"Pylône autostable"; 43.0;"ORANGE"
589357;-0.72806;46.64583;"00° 43' 41.00'' Ouest, 46° 38' 45.00'' Nord";"85289";;"R DES TROIS MOULINS";"85120";"LA TARDIERE";"Château d'eau - réservoir"; 46.0;"Syndicat des eaux, Adduction"
603613;-0.90917;46.86944;"00° 54' 33.00'' Ouest, 46° 52' 10.00'' Nord";"85242";"LA PERVERIE";"CHEM RURAL D.79";"85590";"SAINT-MARS-LA-REORTHE";"Mât béton"; 22.0;"TDF"
606655;-1.50972;46.93861;"01° 30' 35.00'' Ouest, 46° 56' 19.00'' Nord";"85190";;"ALLÉE DE LA CURE";"85620";"ROCHESERVIERE";"Monument religieux"; 42.0;"Commune, communauté de commune"
608282;-1.73556;46.75583;"01° 44' 08.00'' Ouest, 46° 45' 21.00'' Nord";"85006";;"R DU CHÂTEAU TÉNEMENT DE LA ROUSSIÈRE";"85220";"APREMONT";"Château d'eau - réservoir"; 81.0;"Syndicat des eaux, Adduction"
608310;-1.46167;46.59306;"01° 27' 42.00'' Ouest, 46° 35' 35.00'' Nord";"85008";"LA MÉTAIRIE";"ZA D'ORDEVILLE";"85430";"AUBIGNY";"Pylône autostable"; 36.0;"ORANGE Services Fixes"
609114;-0.86500;46.91944;"00° 51' 54.00'' Ouest, 46° 55' 10.00'' Nord";"85296";"LE GRAND LOPIN";"CHEM DE LA GRANDE JARRIE";"85590";"TREIZE-VENTS";"Pylône autostable"; 40.0;"ORANGE"
609348;-1.51472;46.98639;"01° 30' 53.00'' Ouest, 46° 59' 11.00'' Nord";"85262";"LA ROULIÈRE";"R DU FIEF LOUIS";"85660";"SAINT-PHILBERT-DE-BOUAINE";"Pylône tubulaire"; 40.0;"TDF"
609587;-1.03861;46.60806;"01° 02' 19.00'' Ouest, 46° 36' 29.00'' Nord";"85188";;"RTE DE ST-MARTIN LARS";"85210";"LA REORTHE";"Pylône autostable"; 46.0;"SFR"
609916;-0.92750;46.89167;"00° 55' 39.00'' Ouest, 46° 53' 30.00'' Nord";"85082";"LE PUY DU FOU";;"85590";"LES EPESSES";"Bâtiment"; 32.0;"Association"
611753;-1.87250;46.84056;"01° 52' 21.00'' Ouest, 46° 50' 26.00'' Nord";"85047";;"R ST DOMINIQUE";"85300";"CHALLANS";"Château d'eau - réservoir"; 37.3;"Commune, communauté de commune"
612041;-1.79778;46.49722;"01° 47' 52.00'' Ouest, 46° 29' 50.00'' Nord";"85194";;"PL DR CANTETEAU";"85100";"LES SABLES-D'OLONNE";"Monument religieux"; 29.0;"Commune, communauté de commune"
612059;-2.13028;46.85139;"02° 07' 49.00'' Ouest, 46° 51' 05.00'' Nord";"85164";"PAYS DE MONTS";"LA PARÉE GROLLIER GR8 STATION D'ÉPURATION";"85690";"NOTRE-DAME-DE-MONTS";"Pylône tubulaire"; 32.0;"ORANGE"
619305;-1.01361;46.87111;"01° 00' 49.00'' Ouest, 46° 52' 16.00'' Nord";"85109";;"17 PL DE L' EGLISE AGENCE FT";"85500";"LES HERBIERS";"Bâtiment"; 4.0;"ORANGE Services Fixes"
619752;-1.00444;46.86222;"01° 00' 16.00'' Ouest, 46° 51' 44.00'' Nord";"85109";"LA GUERCHE";"R CLÉMENT ADER";"85500";"LES HERBIERS";"Pylône tubulaire"; 30.0;"ORANGE"
619870;-1.42111;46.77833;"01° 25' 16.00'' Ouest, 46° 46' 42.00'' Nord";"85019";;"D.101 ZONE ARTISANALE DU GRAND PLI LE GALEZEAU";"85170";"BELLEVILLE-SUR-VIE";"Pylône tubulaire"; 25.0;"ORANGE"
625923;-2.09972;46.83889;"02° 05' 59.00'' Ouest, 46° 50' 20.00'' Nord";"85164";"GRAND CROIX";;"85690";"NOTRE-DAME-DE-MONTS";"Château d'eau - réservoir"; 90.0;"Commune, communauté de commune"
640146;-1.05028;46.68722;"01° 03' 01.00'' Ouest, 46° 41' 14.00'' Nord";"85051";;"R GUTENBERG EGLISE ST PIERRE";"85110";"CHANTONNAY";"Monument religieux"; 42.0;"Commune, communauté de commune"
642299;-1.42056;46.84861;"01° 25' 14.00'' Ouest, 46° 50' 55.00'' Nord";"85208";"L'AUBEPIN";"VOIE COMMUNALE N° 134";"85170";"SAINT-DENIS-LA-CHEVASSE";"Pylône autostable"; 32.0;"ORANGE"
644257;-0.88306;46.83167;"00° 52' 59.00'' Ouest, 46° 49' 54.00'' Nord";"85257";;"PL DE L ÉGLISE";"85700";"SAINT-MICHEL-MONT-MERCURE";"Monument religieux"; 52.0;"Commune, communauté de commune"
645639;-1.58528;46.81750;"01° 35' 07.00'' Ouest, 46° 49' 03.00'' Nord";"85210";"LE FONTENIT";"LE REMIJOT";"85670";"SAINT-ETIENNE-DU-BOIS";"Pylône tubulaire"; 33.0;"ORANGE"
646716;-0.98639;46.93917;"00° 59' 11.00'' Ouest, 46° 56' 21.00'' Nord";"85302";"LA GOUPILLIÈRE";"PRÈS N160";"85130";"LA VERRIE";"Pylône autostable"; 35.0;"ORANGE"
646834;-1.42889;46.49778;"01° 25' 44.00'' Ouest, 46° 29' 52.00'' Nord";"85156";;"R DES FORÊTS TERRAIN DE SPORTS";"85540";"MOUTIERS-LES-MAUXFAITS";"Pylône tubulaire"; 20.5;"Commune, communauté de commune"
647220;-1.65972;46.60722;"01° 39' 35.00'' Ouest, 46° 36' 26.00'' Nord";"85152";;"R DE LA GARE D.21 LA GARE";"85150";"LA MOTHE-ACHARD";"Pylône autostable"; 40.0;"ORANGE Services Fixes"
654236;-1.54028;46.41111;"01° 32' 25.00'' Ouest, 46° 24' 40.00'' Nord";"85278";;"CHEM DES ROULETTES PARKING DU GOULET";"85520";"SAINT-VINCENT-SUR-JARD";"Pylône tubulaire"; 22.0;"ORANGE"
654944;-1.04278;46.93000;"01° 02' 34.00'' Ouest, 46° 55' 48.00'' Nord";"85097";"L'EGONNIÈRE";"RD 27";"85130";"LA GAUBRETIERE";"Pylône autostable"; 45.0;"SFR"
655548;-1.43694;46.65417;"01° 26' 13.00'' Ouest, 46° 39' 15.00'' Nord";"85191";;"75 BD DE L'INDUSTRIE";"85000";"LA ROCHE-SUR-YON";"Pylône autostable"; 36.0;"ORANGE"
656264;-1.41472;46.66833;"01° 24' 53.00'' Ouest, 46° 40' 06.00'' Nord";"85191";"LES OUDAIRIES";"BD  STÉPHANE MOREAU HOP LES OUDAIRIES";"85000";"LA ROCHE-SUR-YON";"Bâtiment"; 28.0;"Etablissement de soins"
659043;-1.51861;46.67889;"01° 31' 07.00'' Ouest, 46° 40' 44.00'' Nord";"85300";"LA GARLIÈRE";"ZONE ARTISANALE CR DE LA PINSONNIÈRE";"85190";"VENANSAULT";"Pylône autostable"; 40.0;"SFR"
659669;-1.19917;47.01917;"01° 11' 57.00'' Ouest, 47° 01' 09.00'' Nord";"85039";"LA POINTE À PITRE";"23 R DE LA POINTE À PITRE D.755 LES UMETELS";"85530";"LA BRUFFIERE";"Pylône tubulaire"; 29.0;"ORANGE"
666505;-0.95250;46.48250;"00° 57' 09.00'' Ouest, 46° 28' 57.00'' Nord";"85158";"GRAND VANZAY";"A 83 - PK 88.2";"85370";"MOUZEUIL-SAINT-MARTIN";"Pylône autostable"; 49.3;"Sociétés d'Autoroutes"
667930;-1.99889;46.97444;"01° 59' 56.00'' Ouest, 46° 58' 28.00'' Nord";"85029";;"PL DE L'EGLISE EGLISE";"85230";"BOUIN";"Monument religieux"; 54.0;"Commune, communauté de commune"
668671;-0.78111;46.67250;"00° 46' 52.00'' Ouest, 46° 40' 21.00'' Nord";"85067";"LA GOURAUDIÈRE";"CHEM COMMUNAL N° 3 TENEMENT DE LA VÉSINIÈRE";"85390";"CHEFFOIS";"Pylône autostable"; 30.0;"ORANGE"
668890;-1.72111;46.55528;"01° 43' 16.00'' Ouest, 46° 33' 19.00'' Nord";"85250";;"RTE DES SABLES ZI PRÈS N 160";"85150";"SAINT-MATHURIN";"Pylône tubulaire"; 35.0;"ORANGE"
668939;-2.02417;46.91333;"02° 01' 27.00'' Ouest, 46° 54' 48.00'' Nord";"85018";"L'ORMEAU";"ZI DE BEAUVOIR USINE BÉNÉTEAU";"85230";"BEAUVOIR-SUR-MER";"Pylône autostable"; 30.0;"ORANGE"
669286;-1.44111;46.67194;"01° 26' 28.00'' Ouest, 46° 40' 19.00'' Nord";"85191";;"R VILLEBOIS MAREUIL  STADE";"85000";"LA ROCHE-SUR-YON";"Pylône autostable"; 39.0;"FPS TOWERS"
674357;-1.52056;46.93028;"01° 31' 14.00'' Ouest, 46° 55' 49.00'' Nord";"85190";"LA GRANGE AU BARON";;"85620";"ROCHESERVIERE";"Château d'eau - réservoir"; 31.0;"Syndicat des eaux, Adduction"
674944;-1.16833;46.75250;"01° 10' 06.00'' Ouest, 46° 45' 09.00'' Nord";"85202";"LE CHAMP DES ACQUÉREURS";"A 83 / PK 51 - SENS NANTES/NIORT";"85110";"SAINTE-CECILE";"Pylône autostable"; 64.3;"Sociétés d'Autoroutes"
685836;-1.06611;46.78750;"01° 03' 58.00'' Ouest, 46° 47' 15.00'' Nord";"85153";"LES GARENNES";"ZI LE CHAMPS DU BREUIL";"85640";"MOUCHAMPS";"Pylône autostable"; 34.0;"FPS TOWERS"
686478;-1.23139;46.96806;"01° 13' 53.00'' Ouest, 46° 58' 05.00'' Nord";"85107";;"LA GRILLÈRE";"85600";"LA GUYONNIERE";"Tour hertzienne"; 80.0;"TDF"
689077;-1.71000;46.51556;"01° 42' 36.00'' Ouest, 46° 30' 56.00'' Nord";"85060";"LES TAFFENEAUX";;"85180";"CHATEAU-D'OLONNE";"Pylône haubané"; 54.0;"Towercast"
691170;-1.47722;46.71083;"01° 28' 38.00'' Ouest, 46° 42' 39.00'' Nord";"85098";"LE BEZIAIS";"RD 100";"85190";"LA GENETOUZE";"Pylône haubané"; 66.0;"Towercast"
693173;-1.73083;46.85889;"01° 43' 51.00'' Ouest, 46° 51' 32.00'' Nord";"85086";"LES LANDES";"D.90";"85670";"FALLERON";"Pylône autostable"; 44.3;"FPS TOWERS"
694946;-1.74167;46.70250;"01° 44' 30.00'' Ouest, 46° 42' 09.00'' Nord";"85070";;"RUE DE LA GARE SAINTE THERESE";"85220";"COEX";"Pylône autostable"; 39.5;"FPS TOWERS"
697161;-1.16556;46.73500;"01° 09' 56.00'' Ouest, 46° 44' 06.00'' Nord";"85246";"LE BROTEAU";"D. 60";"85140";"SAINT-MARTIN-DES-NOYERS";"Pylône autostable"; 48.0;"ORANGE Services Fixes"
700667;-1.78389;46.76167;"01° 47' 02.00'' Ouest, 46° 45' 42.00'' Nord";"85071";"LA JOUERE";;"85220";"COMMEQUIERS";"Pylône autostable"; 21.0;"Titulaire programme Radio/TV"
700848;-1.22694;46.90972;"01° 13' 37.00'' Ouest, 46° 54' 35.00'' Nord";"85065";"LE CHAMP DU BORDAGE";;"85250";"CHAVAGNES-EN-PAILLERS";"Château d'eau - réservoir"; 70.0;"Syndicat des eaux, Adduction"
700942;-0.74139;46.43833;"00° 44' 29.00'' Ouest, 46° 26' 18.00'' Nord";"85244";"LA MARE AUX GROLLES";"RTE DE MORTEVIEILLES";"85200";"SAINT-MARTIN-DE-FRAIGNEAU";"Pylône autostable"; 49.0;"SFR"
701033;-1.28972;46.87722;"01° 17' 23.00'' Ouest, 46° 52' 38.00'' Nord";"85038";"AIRE DES BROUZILS";"A.83 - PK 34 - AIRE DE REPOS ROUTE DES ESTUAIRES - SENS NORD-SUD";"85260";"LES BROUZILS";"Pylône autostable"; 50.2;"Sociétés d'Autoroutes"
702603;-1.15694;46.64500;"01° 09' 25.00'' Ouest, 46° 38' 42.00'' Nord";"85034";"LE BOIS BRULÉ";;"85480";"BOURNEZEAU";"Pylône autostable"; 36.0;"SFR"
702665;-1.56278;46.64194;"01° 33' 46.00'' Ouest, 46° 38' 31.00'' Nord";"85118";"LA PATERRE";"RTE DE LA POMMERAIE";"85150";"LANDERONDE";"Pylône autostable"; 35.0;"SFR"
707684;-1.23306;46.77028;"01° 13' 59.00'' Ouest, 46° 46' 13.00'' Nord";"85084";;"RUE DE LA GAUVIN AV ST HUBERT";"85140";"LES ESSARTS";"Pylône autostable"; 35.0;"ORANGE"
713149;-0.92250;46.88722;"00° 55' 21.00'' Ouest, 46° 53' 14.00'' Nord";"85082";"LE GRAND PARC DU PUY DU FOU";"LE CHAMP DU PARC";"85590";"LES EPESSES";"Pylône tubulaire"; 12.0;"ORANGE"
713610;-1.52917;46.50000;"01° 31' 45.00'' Ouest, 46° 30' 00.00'' Nord";"85179";;"R DES JUSTICES";"85440";"POIROUX";"Pylône autostable"; 40.0;"SFR"
717940;-1.21972;46.52833;"01° 13' 11.00'' Ouest, 46° 31' 42.00'' Nord";"85135";"LES TESSONNES";;"85320";"MAREUIL-SUR-LAY-DISSAIS";"Pylône autostable"; 30.0;"ORANGE"
719440;-0.81306;46.77750;"00° 48' 47.00'' Ouest, 46° 46' 39.00'' Nord";"85182";"LE PUY CRAPAUD";;"85700";"POUZAUGES";"Pylône autostable"; 32.0;"EDF ou GDF"
721403;-1.24333;46.61639;"01° 14' 36.00'' Ouest, 46° 36' 59.00'' Nord";"85291";;"R DES CHATAIGNIERS  STADE MUNICIPAL";"85480";"THORIGNY";"Pylône autostable"; 27.0;"FPS TOWERS"
722849;-1.39444;46.57972;"01° 23' 40.00'' Ouest, 46° 34' 47.00'' Nord";"85160";;"PRÈS D.85 PASSAGE À NIVEAU 69";"85310";"NESMY";"Pylône autostable"; 36.0;"ORANGE"
724497;-1.15500;46.68444;"01° 09' 18.00'' Ouest, 46° 41' 04.00'' Nord";"85232";;"A 83 PK 58,6 SENS NIORT NANTES";"85480";"SAINT-HILAIRE-LE-VOUHIS";"Pylône autostable"; 49.2;"Sociétés d'Autoroutes"
733975;-1.43944;46.65361;"01° 26' 22.00'' Ouest, 46° 39' 13.00'' Nord";"85191";;"76 BD DE L'INDUSTRIE";"85000";"LA ROCHE-SUR-YON";"Bâtiment"; 41.0;"Société Privée SA"
737018;-1.65889;46.61806;"01° 39' 32.00'' Ouest, 46° 37' 05.00'' Nord";"85152";;"PL DE L HOTEL DE VILLE";"85150";"LA MOTHE-ACHARD";"Bâtiment"; 10.0;"Commune, communauté de commune"
737189;-1.31694;46.81056;"01° 19' 01.00'' Ouest, 46° 48' 38.00'' Nord";"85064";"LA HAUTE GROSSIÈRE";"CHEM DE LA CROISÉE DES LANDES";"85140";"CHAUCHE";"Pylône autostable"; 36.0;"ORANGE"
737986;-1.62556;46.74694;"01° 37' 32.00'' Ouest, 46° 44' 49.00'' Nord";"85003";;"R RENÉ COUZINET ZONE D'ESPACE VIE ATLANTIQUE";"85190";"AIZENAY";"Pylône tubulaire"; 35.0;"ORANGE"
738235;-1.52222;46.98389;"01° 31' 20.00'' Ouest, 46° 59' 02.00'' Nord";"85262";"LE BAS BEAUVAIS";"R DE LA MAIRIE CENTRAL FT";"85660";"SAINT-PHILBERT-DE-BOUAINE";"Pylône autostable"; 36.0;"ORANGE Services Fixes"
738342;-1.41806;46.35611;"01° 25' 05.00'' Ouest, 46° 21' 22.00'' Nord";"85294";;"D747/ROUTE D'ANGLES RÉSERVOIR LE FORCIN";"85360";"LA TRANCHE-SUR-MER";"Château d'eau - réservoir"; 72.0;"Syndicat des eaux, Adduction"
739279;-1.25056;46.89306;"01° 15' 02.00'' Ouest, 46° 53' 35.00'' Nord";"85065";;"PL DES JUSTES EGLISE";"85250";"CHAVAGNES-EN-PAILLERS";"Monument religieux"; 36.0;"Commune, communauté de commune"
742640;-1.41278;46.66278;"01° 24' 46.00'' Ouest, 46° 39' 46.00'' Nord";"85191";;"R PROUD'HON LE MOULIN VERT";"85000";"LA ROCHE-SUR-YON";"Pylône autostable"; 35.0;"TDF"
743175;-2.26917;47.01139;"02° 16' 09.00'' Ouest, 47° 00' 41.00'' Nord";"85163";"LA HOUSSINIÈRE";"CHEM DE L'ECHELLE AU PETIT BEAUVOIR";"85330";"NOIRMOUTIER-EN-L'ILE";"Château d'eau - réservoir"; 55.0;"Syndicat des eaux, Adduction"
744827;-0.73111;46.32500;"00° 43' 52.00'' Ouest, 46° 19' 30.00'' Nord";"85078";"LA DEVISE";;"85420";"DAMVIX";"Pylône autostable"; 44.0;"Conseil Départemental"
745215;-1.90278;46.69000;"01° 54' 10.00'' Ouest, 46° 41' 24.00'' Nord";"85222";;"R DES COUVREURS";"85800";"SAINT-GILLES-CROIX-DE-VIE";"Pylône autostable"; 57.0;"Towercast"
745991;-1.81028;46.51361;"01° 48' 37.00'' Ouest, 46° 30' 49.00'' Nord";"85194";"LA RENAIE";"QUARTIER CHAUME";"85100";"LES SABLES-D'OLONNE";"Pylône autostable"; 83.0;"TDF"
749861;-1.57972;46.61139;"01° 34' 47.00'' Ouest, 46° 36' 41.00'' Nord";"85211";;"3 PL MARECHAL DE LATTRE DE TASSIGNY";"85150";"SAINTE-FLAIVE-DES-LOUPS";"Monument religieux"; 26.0;"Commune, communauté de commune"
755185;-1.34139;46.46000;"01° 20' 29.00'' Ouest, 46° 27' 36.00'' Nord";"85206";"LA MORICIÈRE";"D.949 - R RAOUL DE ROCHEBRUNE EN FACE DU CIMETIÈRE";"85540";"SAINT-CYR-EN-TALMONDAIS";"Château d'eau - réservoir"; 75.0;"Syndicat des eaux, Adduction"
756854;-1.85389;46.84056;"01° 51' 14.00'' Ouest, 46° 50' 26.00'' Nord";"85047";"LA REMONIÈRE";"D 948 - R DE LA ROCHE-SUR-YON LES VIOLLIÈRES";"85300";"CHALLANS";"Pylône tubulaire"; 28.0;"ORANGE"
756856;-1.16000;46.46250;"01° 09' 36.00'' Ouest, 46° 27' 45.00'' Nord";"85128";"LE RAITEAU";"R TRAVOT COOPÉRATIVE AGRICOLE C.A.V.A.C.";"85400";"LUCON";"Bâtiment"; 30.0;"Coopérative Agricole, Vinicole"
756895;-1.31389;46.71361;"01° 18' 50.00'' Ouest, 46° 42' 49.00'' Nord";"85089";;"47 R NATIONALE";"85280";"LA FERRIERE";"Bâtiment"; 3.0;"Commune, communauté de commune"
757262;-1.30444;46.97028;"01° 18' 16.00'' Ouest, 46° 58' 13.00'' Nord";"85146";;"R DE L'AURORE CITÉ DE L'AURORE";"85600";"MONTAIGU";"Bâtiment"; 42.0;"Société HLM"
770329;-1.05139;46.55361;"01° 03' 05.00'' Ouest, 46° 33' 13.00'' Nord";"85223";;"R ST AUBIN STADE ANDRE ROUSSEAU";"85210";"SAINTE-HERMINE";"Pylône tubulaire"; 22.0;"FPS TOWERS"
783028;-1.35306;46.95778;"01° 21' 11.00'' Ouest, 46° 57' 28.00'' Nord";"85027";;"ECHANGEUR DE MONTAIGU A 83";"85600";"BOUFFERE";"Pylône autostable"; 49.2;"Sociétés d'Autoroutes"
793022;-1.58361;46.74500;"01° 35' 01.00'' Ouest, 46° 44' 42.00'' Nord";"85003";;"ZA LA FORET - ROUTE DU POIRÉ D6 LES TROIS CHÊNES";"85190";"AIZENAY";"Pylône autostable"; 34.8;"SFR"
809197;-1.72972;46.47778;"01° 43' 47.00'' Ouest, 46° 28' 40.00'' Nord";"85060";"TOUVENT";"R DES VIEILLES RETZ LES COUROLLES";"85180";"CHATEAU-D'OLONNE";"Pylône autostable"; 28.0;"ORANGE"
810303;-0.84389;46.77528;"00° 50' 38.00'' Ouest, 46° 46' 31.00'' Nord";"85182";"LA GRANDE FOURNIÈRE";"R DU STADE ANDRÉ JACOB - D 43";"85700";"POUZAUGES";"Pylône tubulaire"; 28.0;"ORANGE"
810793;-0.82639;46.78500;"00° 49' 35.00'' Ouest, 46° 47' 06.00'' Nord";"85182";"LA BUTTE FROIDE";"R DE L' AUBRETIÈRE";"85700";"POUZAUGES";"Pylône tubulaire"; 30.0;"ORANGE"
816437;-0.81139;46.55028;"00° 48' 41.00'' Ouest, 46° 33' 01.00'' Nord";"85033";;"LA CROIX DE L' OUCHE D30";"85200";"BOURNEAU";"Pylône autostable"; 38.0;"ORANGE"
816482;-0.73222;46.39056;"00° 43' 56.00'' Ouest, 46° 23' 26.00'' Nord";"85265";"LA PORTE DE L'ILE";"R DE LA LOGETTE";"85420";"SAINT-PIERRE-LE-VIEUX";"Pylône autostable"; 31.0;"ORANGE"
816512;-1.49333;46.47472;"01° 29' 36.00'' Ouest, 46° 28' 29.00'' Nord";"85010";"LES FORGES";"CHEM DU CIMETIÈRE";"85440";"AVRILLE";"Pylône autostable"; 38.0;"ORANGE Services Fixes"
816656;-1.70722;46.63917;"01° 42' 26.00'' Ouest, 46° 38' 21.00'' Nord";"85236";;"R DU CIMETIÈRE";"85150";"SAINT-JULIEN-DES-LANDES";"Pylône tubulaire"; 31.0;"ORANGE"
818698;-2.24694;47.00194;"02° 14' 49.00'' Ouest, 47° 00' 07.00'' Nord";"85163";;"R RICHER PRÈS D.948";"85330";"NOIRMOUTIER-EN-L'ILE";"Pylône autostable"; 44.0;"ORANGE Services Fixes"
818702;-2.08139;46.79250;"02° 04' 53.00'' Ouest, 46° 47' 33.00'' Nord";"85234";"LA PAREE JESUS";"DOMAINE GREEN WOOD";"85160";"SAINT-JEAN-DE-MONTS";"Pylône autostable"; 44.7;"ORANGE Services Fixes"
818733;-1.59944;46.74111;"01° 35' 58.00'' Ouest, 46° 44' 28.00'' Nord";"85003";;"R DES ARTISANS Z.I. DU BOIS MARIE";"85190";"AIZENAY";"Pylône autostable"; 30.0;"EDF ou GDF"
819323;-0.66972;46.64000;"00° 40' 11.00'' Ouest, 46° 38' 24.00'' Nord";"85037";"LA CROIX GRILLON";"CHATEAU D'EAU";"85120";"BREUIL-BARRET";"Château d'eau - réservoir"; 52.0;"Syndicat des eaux, Adduction"
819501;-2.23278;47.00806;"02° 13' 58.00'' Ouest, 47° 00' 29.00'' Nord";"85163";;"R DE LA VICTOIRE STADE MUNICIPAL";"85330";"NOIRMOUTIER-EN-L'ILE";"Pylône tubulaire"; 20.0;"ORANGE"
819503;-0.93944;46.98750;"00° 56' 22.00'' Ouest, 46° 59' 15.00'' Nord";"85151";"LA RAÎNETTE";"N.160 - LIGNE S.N.C.F. Z.I. LA LOUISIÈRE STÉ CAR VEN";"85290";"MORTAGNE-SUR-SEVRE";"Pylône tubulaire"; 30.0;"ORANGE"
819516;-1.75583;46.48639;"01° 45' 21.00'' Ouest, 46° 29' 11.00'' Nord";"85194";;"AVENUE RHIN ET DANUBE STADE DES RUDELIÈRES";"85100";"LES SABLES-D'OLONNE";"Pylône tubulaire"; 20.0;"ORANGE"
819546;-1.44028;46.67056;"01° 26' 25.00'' Ouest, 46° 40' 14.00'' Nord";"85191";;"R DE ST ANDRÉ D'ORNAY";"85000";"LA ROCHE-SUR-YON";"Pylône tubulaire"; 36.0;"ORANGE"
819553;-1.85444;46.62806;"01° 51' 16.00'' Ouest, 46° 37' 41.00'' Nord";"85035";;"R DU CLOCHER";"85470";"BRETIGNOLLES-SUR-MER";"Monument religieux"; 25.0;"Commune, communauté de commune"
819557;-1.45222;46.66528;"01° 27' 08.00'' Ouest, 46° 39' 55.00'' Nord";"85191";;"R DES PLATANES MAGASIN CARREFOUR";"85000";"LA ROCHE-SUR-YON";"Pylône tubulaire"; 25.0;"ORANGE"
819576;-1.88278;46.64972;"01° 52' 58.00'' Ouest, 46° 38' 59.00'' Nord";"85035";"BASSE RIVOIRE";;"85470";"BRETIGNOLLES-SUR-MER";"Pylône autostable"; 30.0;"ORANGE"
819578;-2.18167;46.94444;"02° 10' 54.00'' Ouest, 46° 56' 40.00'' Nord";"85011";;"PL. DE L'EGLISE EGLISE";"85630";"BARBATRE";"Monument religieux"; 20.0;"Commune, communauté de commune"
819583;-1.94444;46.70333;"01° 56' 40.00'' Ouest, 46° 42' 12.00'' Nord";"85222";;"R DE LA RABALETTE STADE";"85800";"SAINT-GILLES-CROIX-DE-VIE";"Pylône autostable"; 25.0;"ORANGE"
819585;-1.12056;46.96722;"01° 07' 14.00'' Ouest, 46° 58' 02.00'' Nord";"85119";;"R PIERRE DE COUBERTIN STADE MUNICIPAL";"85130";"LES LANDES-GENUSSON";"Pylône autostable"; 30.0;"ORANGE"
819590;-2.06333;46.78500;"02° 03' 48.00'' Ouest, 46° 47' 06.00'' Nord";"85234";;"CHEM DES PLUMETS STADE MUNICIPAL";"85160";"SAINT-JEAN-DE-MONTS";"Pylône tubulaire"; 25.0;"ORANGE"
819592;-2.02583;46.79167;"02° 01' 33.00'' Ouest, 46° 47' 30.00'' Nord";"85234";"ZAC DU CLOUSIS";"14 R DES ESSEPES RÉSEAU PRO";"85160";"SAINT-JEAN-DE-MONTS";"Pylône tubulaire"; 25.0;"Société Privée SA"
819608;-1.91861;46.69806;"01° 55' 07.00'' Ouest, 46° 41' 53.00'' Nord";"85088";"LA CHABOSSONNIÈRE";"RTE DE NANTES  D 38B";"85800";"LE FENOUILLER";"Pylône autostable"; 22.0;"ORANGE"
819610;-1.43028;46.70194;"01° 25' 49.00'' Ouest, 46° 42' 07.00'' Nord";"85191";"BELLEVUE";"RTE DE NANTES CCAL BELLEVUE";"85000";"LA ROCHE-SUR-YON";"Pylône tubulaire"; 25.0;"ORANGE"
819612;-1.95500;46.74500;"01° 57' 18.00'' Ouest, 46° 44' 42.00'' Nord";"85226";"LE PISSOT";"2 R DU PERRIER";"85270";"SAINT-HILAIRE-DE-RIEZ";"Pylône tubulaire"; 22.0;"ORANGE"
819617;-1.94194;46.72528;"01° 56' 31.00'' Ouest, 46° 43' 31.00'' Nord";"85226";;"RTE DE LA MARZELLE TERRAIN DES SPORTS DU BOUTEILLON";"85270";"SAINT-HILAIRE-DE-RIEZ";"Pylône tubulaire"; 25.0;"ORANGE"
819621;-2.21472;46.96472;"02° 12' 53.00'' Ouest, 46° 57' 53.00'' Nord";"85106";"LES SABLES D'OR";"STADE MUNICIPAL LES DUNES DE TRESSON";"85680";"LA GUERINIERE";"Pylône tubulaire"; 20.0;"ORANGE"
819625;-1.68750;46.47667;"01° 41' 15.00'' Ouest, 46° 28' 36.00'' Nord";"85288";"LA MALBRANDE";"CHAMPS DE COURSE";"85440";"TALMONT-SAINT-HILAIRE";"Pylône tubulaire"; 26.0;"ORANGE"
819627;-1.77417;46.51028;"01° 46' 27.00'' Ouest, 46° 30' 37.00'' Nord";"85166";;"R DE CHATEAUBRIANT";"85340";"OLONNE-SUR-MER";"Pylône autostable"; 27.0;"ORANGE"
819631;-1.42306;46.67889;"01° 25' 23.00'' Ouest, 46° 40' 44.00'' Nord";"85191";;"IMP DES CENT JOURS CITÉ LA GARENNE - BÂT. A";"85000";"LA ROCHE-SUR-YON";"Immeuble"; 33.0;"Société HLM"
819646;-1.43556;46.66250;"01° 26' 08.00'' Ouest, 46° 39' 45.00'' Nord";"85191";"LA VERGNE";"R TROUSSEAU RÉSIDENCE LA LIBERTÉ BÂT B.";"85000";"LA ROCHE-SUR-YON";"Immeuble"; 22.0;"Société HLM"
819655;-2.30333;47.02389;"02° 18' 12.00'' Ouest, 47° 01' 26.00'' Nord";"85163";"L' HERBAUDIÈRE";"CHEM DU PORT DE PÊCHE PYLÔNE DE LA MARINE";"85330";"NOIRMOUTIER-EN-L'ILE";"Pylône autostable"; 43.0;"Autres"
819665;-2.05222;46.78083;"02° 03' 08.00'' Ouest, 46° 46' 51.00'' Nord";"85234";;"AV DES DEMOISELLES CAMPING DES SIRÈNES";"85160";"SAINT-JEAN-DE-MONTS";"Pylône autostable"; 19.0;"ORANGE"
819667;-1.40167;46.66028;"01° 24' 06.00'' Ouest, 46° 39' 37.00'' Nord";"85191";;"R HÉLIODORE DURAND EGLISE ST PIERRE";"85000";"LA ROCHE-SUR-YON";"Monument religieux"; 30.0;"Commune, communauté de commune"
819673;-1.43056;46.67056;"01° 25' 50.00'' Ouest, 46° 40' 14.00'' Nord";"85191";;"14 R SALVATORE ALLENDE CENTRAL TÉLÉPHONIQUE";"85000";"LA ROCHE-SUR-YON";"Bâtiment"; 33.0;"ORANGE Services Fixes"
819677;-2.12944;46.81444;"02° 07' 46.00'' Ouest, 46° 48' 52.00'' Nord";"85234";"LE PETIT SOCHARD";"RTE DE NOTRE DAME DE MONTS HIPPODROME DE L' ATLANTIQUE";"85160";"SAINT-JEAN-DE-MONTS";"Pylône tubulaire"; 21.0;"ORANGE"
819732;-1.76194;46.53639;"01° 45' 43.00'' Ouest, 46° 32' 11.00'' Nord";"85166";;"ALLÉE P.DE COUBERTIN STADE M. GUILBAUD";"85340";"OLONNE-SUR-MER";"Pylône tubulaire"; 31.0;"ORANGE"
820788;-1.25583;46.47417;"01° 15' 21.00'' Ouest, 46° 28' 27.00'' Nord";"85036";"LES PETITES GUIGNERIES";"CHEM DE LA GARE";"85320";"LA BRETONNIERE-LA-CLAYE";"Pylône autostable"; 40.0;"ORANGE"
820882;-2.35056;46.72500;"02° 21' 02.00'' Ouest, 46° 43' 30.00'' Nord";"85113";;"R DU COIN DU CHAT D.22A - PORT JOINVILLE";"85350";"L'ILE-D'YEU";"Pylône autostable"; 15.0;"ORANGE Services Fixes"
820889;-1.32194;46.92333;"01° 19' 19.00'' Ouest, 46° 55' 24.00'' Nord";"85217";"LA CHAPELIÈRE";"CHEM RURAL - D.86";"85600";"SAINT-GEORGES-DE-MONTAIGU";"Pylône autostable"; 33.0;"ORANGE"
820893;-2.14111;46.82917;"02° 08' 28.00'' Ouest, 46° 49' 45.00'' Nord";"85164";;"AV DES ROSES AUTOCOM FT";"85690";"NOTRE-DAME-DE-MONTS";"Pylône autostable"; 24.0;"ORANGE"
820895;-1.78472;46.49917;"01° 47' 05.00'' Ouest, 46° 29' 57.00'' Nord";"85194";;"36 AV NICOT CENTRAL TÉLÉPHONIQUE";"85100";"LES SABLES-D'OLONNE";"Bâtiment"; 30.0;"ORANGE Services Fixes"
820903;-1.99056;46.73861;"01° 59' 26.00'' Ouest, 46° 44' 19.00'' Nord";"85226";"LES MIMOSAS";"D 123";"85270";"SAINT-HILAIRE-DE-RIEZ";"Pylône autostable"; 41.0;"ORANGE Services Fixes"
832558;-1.50222;46.87556;"01° 30' 08.00'' Ouest, 46° 52' 32.00'' Nord";"85129";"LA JAVATIÈRE";;"85170";"LES LUCS-SUR-BOULOGNE";"Pylône autostable"; 48.0;"SFR"
834707;-1.49250;46.50389;"01° 29' 33.00'' Ouest, 46° 30' 14.00'' Nord";"85179";"LES LOGES";"LE BOIS DE LA GARDE STADE MUNICIPAL ST AVAUGOURD DES LANDES";"85440";"POIROUX";"Pylône tubulaire"; 25.0;"FPS TOWERS"
835631;-1.64556;46.47278;"01° 38' 44.00'' Ouest, 46° 28' 22.00'' Nord";"85288";"LA MICHELIÈRE";;"85440";"TALMONT-SAINT-HILAIRE";"Pylône autostable"; 42.0;"TDF"
839366;-1.20444;46.81361;"01° 12' 16.00'' Ouest, 46° 48' 49.00'' Nord";"85064";"LA CLEMENCIERE";;"85140";"CHAUCHE";"Pylône haubané"; 34.0;"EDF ou GDF"
839978;-1.16556;46.99778;"01° 09' 56.00'' Ouest, 46° 59' 52.00'' Nord";"85039";"LES QUATRE ROUTES";;"85530";"LA BRUFFIERE";"Château d'eau - réservoir"; 79.0;"Syndicat des eaux, Adduction"
840891;-1.26556;46.42917;"01° 15' 56.00'' Ouest, 46° 25' 45.00'' Nord";"85117";"LA FACHE";;"85400";"LAIROUX";"Pylône autostable"; 30.0;"EDF ou GDF"
840893;-1.00917;46.64472;"01° 00' 33.00'' Ouest, 46° 38' 41.00'' Nord";"85051";"LA CHÂTAIGNERAIE AUX CÔTEAUX";;"85110";"CHANTONNAY";"Château d'eau - réservoir"; 76.0;"Syndicat des eaux, Adduction"
842465;-1.71111;46.61111;"01° 42' 40.00'' Ouest, 46° 36' 40.00'' Nord";"85298";"LE MOULIN RETAIL";;"85150";"VAIRE";"Pylône autostable"; 30.0;"EDF ou GDF"
845334;-0.65861;46.60056;"00° 39' 31.00'' Ouest, 46° 36' 02.00'' Nord";"85229";"LES QUATRE MOULINS";;"85120";"SAINT-HILAIRE-DE-VOUST";"Pylône autostable"; 46.0;"Conseil Départemental"
850074;-1.00250;46.90167;"01° 00' 09.00'' Ouest, 46° 54' 06.00'' Nord";"85109";"LE MONT DES ALOUETTES";;"85500";"LES HERBIERS";"Mât béton"; 13.0;"EDF ou GDF"
861066;-1.94222;46.69611;"01° 56' 32.00'' Ouest, 46° 41' 46.00'' Nord";"85222";;"QUAI MARCEL BERNARD COOPÉRATIVE MARITIME SILOS À GLACE";"85800";"SAINT-GILLES-CROIX-DE-VIE";"Bâtiment"; 17.0;"Coopérative Agricole, Vinicole"
861118;-1.32417;46.66556;"01° 19' 27.00'' Ouest, 46° 39' 56.00'' Nord";"85046";"ZI DE LA FOLIE";"LES SENSIS ENTREPRISE BÉNÉTEAU";"85310";"LA CHAIZE-LE-VICOMTE";"Bâtiment"; 13.0;"Société Privée SA"
870280;-1.93222;46.70139;"01° 55' 56.00'' Ouest, 46° 42' 05.00'' Nord";"85222";;"STADE DE LA VIE";"85800";"SAINT-GILLES-CROIX-DE-VIE";"Pylône autostable"; 31.0;"SFR"
900118;-0.92139;46.46778;"00° 55' 17.00'' Ouest, 46° 28' 04.00'' Nord";"85174";;"PYLONE ASF ANCIEN PEAGE ZER NIORT";"85570";"PETOSSE";"Pylône autostable"; 28.0;"Sociétés d'Autoroutes"
911598;-1.42083;46.67917;"01° 25' 15.00'' Ouest, 46° 40' 45.00'' Nord";"85191";;"14, R WAGRAM RÉSIDENCE L'EMERAUDE";"85000";"LA ROCHE-SUR-YON";"Immeuble"; 30.5;"Copropriété, Syndic, SCI"
920190;-1.71056;46.51028;"01° 42' 38.00'' Ouest, 46° 30' 37.00'' Nord";"85060";"BEAUSÉJOUR";"BEAUSÉJOUR";"85180";"CHATEAU-D'OLONNE";"Pylône autostable"; 42.0;"TDF"
932191;-1.44000;46.66250;"01° 26' 24.00'' Ouest, 46° 39' 45.00'' Nord";"85191";;"59 IMP AMPÈRE";"85000";"LA ROCHE-SUR-YON";"Pylône tubulaire"; 25.0;"IFW-FREE"
932193;-1.88750;46.85056;"01° 53' 15.00'' Ouest, 46° 51' 02.00'' Nord";"85047";;"BD  CLEMENCEAU 45";"85300";"CHALLANS";"Pylône tubulaire"; 15.0;"IFW-FREE"
932195;-1.45306;46.65333;"01° 27' 11.00'' Ouest, 46° 39' 12.00'' Nord";"85191";;"CHEM DE L'ORNAY";"85000";"LA ROCHE-SUR-YON";"Pylône tubulaire"; 27.0;"IFW-FREE"
940777;-1.89250;46.84583;"01° 53' 33.00'' Ouest, 46° 50' 45.00'' Nord";"85047";;"41, BD DU BOIS DU BREUIL";"85300";"CHALLANS";"Bâtiment"; 7.0;"EDF ou GDF"
940819;-1.02528;46.87278;"01° 01' 31.00'' Ouest, 46° 52' 22.00'' Nord";"85109";;"RUE DU GRAND ROUET";"85500";"LES HERBIERS";"Bâtiment"; 5.0;"EDF ou GDF"
940830;-1.44917;46.68333;"01° 26' 57.00'' Ouest, 46° 40' 60.00'' Nord";"85191";;"ROND POINT DE L'ATLANTIQUE";"85000";"LA ROCHE-SUR-YON";"Bâtiment"; 33.0;"EDF ou GDF"
940832;-1.44361;46.65861;"01° 26' 37.00'' Ouest, 46° 39' 31.00'' Nord";"85191";;"11 RUE RENÉ COTY";"85000";"LA ROCHE-SUR-YON";"Bâtiment"; 5.0;"EDF ou GDF"
953175;-1.43056;46.66833;"01° 25' 50.00'' Ouest, 46° 40' 06.00'' Nord";"85191";;"119 BD ARISTIDE BRIAND";"85000";"LA ROCHE-SUR-YON";"Immeuble"; 31.5;"Etat, Ministère"
980938;-1.42639;46.70083;"01° 25' 35.00'' Ouest, 46° 42' 03.00'' Nord";"85191";;"ZI STE ANNE ROUTE DE NANTES";"85000";"LA ROCHE-SUR-YON";"Bâtiment"; 15.0;"Société Privée SA"
981071;-1.32111;46.33111;"01° 19' 16.00'' Ouest, 46° 19' 52.00'' Nord";"85307";;"AVENUE DE L OCEAN";"85460";"LA FAUTE-SUR-MER";"Bâtiment"; 15.0;"Commune, communauté de commune"
991390;-1.31944;46.37139;"01° 19' 10.00'' Ouest, 46° 22' 17.00'' Nord";"85104";"LES PLANDISES";"D44";"85580";"GRUES";"Bâtiment"; 11.0;"EDF ou GDF"
997204;-1.44167;46.67139;"01° 26' 30.00'' Ouest, 46° 40' 17.00'' Nord";"85191";;"RUE VILLEBOIS MAREUIL";"85000";"LA ROCHE-SUR-YON";"Pylône tubulaire"; 40.1;"Commune, communauté de commune"
1010886;-1.30500;46.37667;"01° 18' 18.00'' Ouest, 46° 22' 36.00'' Nord";"85104";;"LES PRES SAINTE MARIE";"85580";"GRUES";"Bâtiment"; 18.0;"Société Privée SA"
1010888;-1.04556;46.47222;"01° 02' 44.00'' Ouest, 46° 28' 20.00'' Nord";"85159";;"LES PLANTES D 949";"85370";"NALLIERS";"Bâtiment"; 15.0;"Société Privée SA"
1010890;-1.30861;46.90500;"01° 18' 31.00'' Ouest, 46° 54' 18.00'' Nord";"85038";;"LE PLESSIS";"85260";"LES BROUZILS";"Bâtiment"; 24.0;"Société Privée SA"
1027117;-1.15417;47.00222;"01° 09' 15.00'' Ouest, 47° 00' 08.00'' Nord";"85039";"LES ETONNELIÈRES";"D 753";"85530";"LA BRUFFIERE";"Bâtiment"; 5.0;"EDF ou GDF"
1027128;-1.76056;46.53278;"01° 45' 38.00'' Ouest, 46° 31' 58.00'' Nord";"85166";"LA JOSÉPHINE";"RUE DU MARÉCHAL JOFFRE POSTE ELECTRIQUE";"85340";"OLONNE-SUR-MER";"Bâtiment"; 5.0;"EDF ou GDF"
1027138;-1.89000;46.69556;"01° 53' 24.00'' Ouest, 46° 41' 44.00'' Nord";"85222";;"CHEMIN DU CHAMP DE BUZIN";"85800";"SAINT-GILLES-CROIX-DE-VIE";"Bâtiment"; 7.0;"EDF ou GDF"
1027519;-1.23667;46.64472;"01° 14' 12.00'' Ouest, 46° 38' 41.00'' Nord";"85093";"BEAUPUY";"D60";"85480";"FOUGERE";"Bâtiment"; 6.0;"EDF ou GDF"
1027527;-1.24528;46.76111;"01° 14' 43.00'' Ouest, 46° 45' 40.00'' Nord";"85084";"LE PONT BONNEAU";"ZONE INDUSTRIELLE LA BELLE ENTRÉE D 160";"85140";"LES ESSARTS";"Bâtiment"; 6.0;"EDF ou GDF"
1027541;-2.04167;46.92500;"02° 02' 30.00'' Ouest, 46° 55' 30.00'' Nord";"85018";"LA VALNIERE";"LES BÈCHES ZONE ARTISANALE";"85230";"BEAUVOIR-SUR-MER";"Bâtiment"; 6.0;"EDF ou GDF"
1028003;-1.60417;46.80667;"01° 36' 15.00'' Ouest, 46° 48' 24.00'' Nord";"85169";"LA BARRETIERE";"ROUTE DE BEAUFOU";"85670";"PALLUAU";"Mât"; 15.0;"EDF ou GDF"
1028270;-1.85972;46.84889;"01° 51' 35.00'' Ouest, 46° 50' 56.00'' Nord";"85047";"L'HOMMEAU";"BOULEVARD JEAN MONET D 1753";"85300";"CHALLANS";"Bâtiment"; 8.0;"EDF ou GDF"
1028278;-1.50583;47.00000;"01° 30' 21.00'' Ouest, 47° 00' 00.00'' Nord";"85262";"LES LANDES";"D937";"85660";"SAINT-PHILBERT-DE-BOUAINE";"Mât"; 9.0;"EDF ou GDF"
1028319;-2.05389;46.79389;"02° 03' 14.00'' Ouest, 46° 47' 38.00'' Nord";"85234";;"ROUTE DE CHALLANS";"85160";"SAINT-JEAN-DE-MONTS";"Bâtiment"; 15.0;"EDF ou GDF"
1028386;-2.23833;46.97278;"02° 14' 18.00'' Ouest, 46° 58' 22.00'' Nord";"85106";"LES PLACES";"CHEMIN DES PLACES";"85680";"LA GUERINIERE";"Bâtiment"; 5.0;"EDF ou GDF"
1028388;-1.33833;46.97444;"01° 20' 18.00'' Ouest, 46° 58' 28.00'' Nord";"85027";"LA TUILERIE DE BOUFFERE";"D753";"85600";"BOUFFERE";"Bâtiment"; 8.0;"EDF ou GDF"
1028390;-1.43306;46.68944;"01° 25' 59.00'' Ouest, 46° 41' 22.00'' Nord";"85191";"LES BAZINIERES";"RUE MONGE ZI NORD";"85000";"LA ROCHE-SUR-YON";"Bâtiment"; 6.0;"EDF ou GDF"
1028400;-1.17389;46.47000;"01° 10' 26.00'' Ouest, 46° 28' 12.00'' Nord";"85128";;"63 CHEMIN DES 13 PAS POSTE ELECTRIQUE";"85400";"LUCON";"Mât"; 6.0;"EDF ou GDF"
1029418;-0.61444;46.38667;"00° 36' 52.00'' Ouest, 46° 23' 12.00'' Nord";"85020";"LES GRANDES MARES";"LE CLOUSIS MAROTIN";"85490";"BENET";"Bâtiment"; 5.0;"EDF ou GDF"
1029420;-1.72556;46.49361;"01° 43' 32.00'' Ouest, 46° 29' 37.00'' Nord";"85060";"LE PUITS ROCHAIS";"RUE LOUIS LAGRANGE";"85180";"CHATEAU-D'OLONNE";"Bâtiment"; 6.0;"EDF ou GDF"
1029422;-0.89639;46.94139;"00° 53' 47.00'' Ouest, 46° 56' 29.00'' Nord";"85238";"LE BOIS CHABOT";"D752";"85290";"SAINT-LAURENT-SUR-SEVRE";"Bâtiment"; 6.0;"EDF ou GDF"
1029425;-1.65028;46.62611;"01° 39' 01.00'' Ouest, 46° 37' 34.00'' Nord";"85152";"LES ALBERGES";"LES GARANDELIERES";"85150";"LA MOTHE-ACHARD";"Bâtiment"; 8.0;"EDF ou GDF"
1029427;-0.72556;46.64750;"00° 43' 32.00'' Ouest, 46° 38' 51.00'' Nord";"85289";"LES TROIS MOULINS";"RUE DU BOURG BATARD";"85120";"LA TARDIERE";"Bâtiment"; 7.0;"EDF ou GDF"
1029434;-0.97639;46.46639;"00° 58' 35.00'' Ouest, 46° 27' 59.00'' Nord";"85158";;"PETIT VIGNEAU D 949";"85370";"MOUZEUIL-SAINT-MARTIN";"Bâtiment"; 6.0;"EDF ou GDF"
1029450;-1.03806;46.70472;"01° 02' 17.00'' Ouest, 46° 42' 17.00'' Nord";"85051";"PUYBELLIARD";"AVENUE JACQUES BERREAU";"85110";"CHANTONNAY";"Bâtiment"; 8.0;"EDF ou GDF"
1029454;-1.01944;46.88194;"01° 01' 10.00'' Ouest, 46° 52' 55.00'' Nord";"85109";"LA VERDURE";"RUE DE LA VALLEE";"85500";"LES HERBIERS";"Mât"; 9.0;"EDF ou GDF"
1029471;-1.14000;46.45944;"01° 08' 24.00'' Ouest, 46° 27' 34.00'' Nord";"85128";"FERME NEUVE";"1 RUE DE LA MILLÉ";"85400";"LUCON";"Bâtiment"; 4.0;"EDF ou GDF"
1035224;-1.47361;46.42972;"01° 28' 25.00'' Ouest, 46° 25' 47.00'' Nord";"85127";;"LIEUDIT LES PERCHES";"85560";"LONGEVILLE-SUR-MER";"Mât métallique"; 11.3;"Société Privée SA"
1056326;-2.38194;46.71750;"02° 22' 55.00'' Ouest, 46° 43' 03.00'' Nord";"85113";;"GRAND PHARE PORT JOINVILLE";"85350";"L'ILE-D'YEU";"Phare"; 39.0;"Phares et balises"
1083387;-1.43806;46.67611;"01° 26' 17.00'' Ouest, 46° 40' 34.00'' Nord";"85191";;"173 BD MARÉCHAL LECLERC";"85000";"LA ROCHE-SUR-YON";"Bâtiment"; 21.0;"Société Privée SA"
1083737;-1.52778;46.64639;"01° 31' 40.00'' Ouest, 46° 38' 47.00'' Nord";"85300";;"ROUTE NATIONALE 160 LES CLOUSEAUX LA GENDRONNIERE";"85190";"VENANSAULT";"Pylône autostable"; 30.0;"Société Privée SA"
1168894;-1.76194;46.82389;"01° 45' 43.00'' Ouest, 46° 49' 26.00'' Nord";"85204";;"PLACE DE L'EGLISE EGLISE";"85670";"SAINT-CHRISTOPHE-DU-LIGNERON";"Monument religieux"; 29.0;"Commune, communauté de commune"
1174386;-1.47556;46.38889;"01° 28' 32.00'' Ouest, 46° 23' 20.00'' Nord";"85127";"LES CONCHES";"CHEMIN DE LA POINTE DU FIEF LE CREUX À BERNARD";"85560";"LONGEVILLE-SUR-MER";"Pylône autostable"; 30.0;"ORANGE"
1185450;-1.04222;46.80444;"01° 02' 32.00'' Ouest, 46° 48' 16.00'' Nord";"85153";"LA LANDE";"D48";"85640";"MOUCHAMPS";"Bâtiment"; 10.0;"Société Privée SA"
1206993;-1.63972;46.74583;"01° 38' 23.00'' Ouest, 46° 44' 45.00'' Nord";"85003";;"LA BOBINIERE";"85190";"AIZENAY";"Bâtiment"; 26.0;"Société Privée SA"
1287714;-1.43306;46.68583;"01° 25' 59.00'' Ouest, 46° 41' 09.00'' Nord";"85191";;"101 RUE MONGE";"85000";"LA ROCHE-SUR-YON";"Pylône autostable"; 33.0;"ORANGE"
1301773;-1.76139;46.53556;"01° 45' 41.00'' Ouest, 46° 32' 08.00'' Nord";"85166";;"ALLEE PIERRE DE COUBERTIN";"85340";"OLONNE-SUR-MER";"Pylône tubulaire"; 33.0;"IFW-FREE"
1316770;-0.75083;46.65417;"00° 45' 03.00'' Ouest, 46° 39' 15.00'' Nord";"85059";;"43 AVENUE GEORGES CLÉMENCEAU";"85120";"LA CHATAIGNERAIE";"Bâtiment"; 5.0;"Société Privée SA"
1325920;-1.80472;46.49000;"01° 48' 17.00'' Ouest, 46° 29' 24.00'' Nord";"85194";"PHARE DE L'ARMANDÈCHE";"RTE DE LA CORNICHE LA CHAUME";"85100";"LES SABLES-D'OLONNE";"Phare"; 39.0;"Phares et balises"
1327016;-1.28472;46.94472;"01° 17' 05.00'' Ouest, 46° 56' 41.00'' Nord";"85217";;"RUE DES TONNELIERS LE CUMERCLAY";"85600";"SAINT-GEORGES-DE-MONTAIGU";"Pylône tubulaire"; 28.0;"ORANGE"
1335643;-0.75556;46.49167;"00° 45' 20.00'' Ouest, 46° 29' 30.00'' Nord";"85256";"LA JONCHÈRE";;"85200";"SAINT-MICHEL-LE-CLOUCQ";"Pylône autostable"; 32.0;"Société Privée SA"
1353439;-1.54972;46.49139;"01° 32' 59.00'' Ouest, 46° 29' 29.00'' Nord";"85179";;"FINFARINE";"85440";"POIROUX";"Bâtiment"; 7.0;"Société Privée SA"
1353441;-1.68889;46.51444;"01° 41' 20.00'' Ouest, 46° 30' 52.00'' Nord";"85214";;"RUE DU CHAIGNEAU RÉSERVOIRS D'EAU POTABLE - SAUR";"85150";"SAINTE-FOY";"Bâtiment"; 7.0;"Société Privée SA"
1381850;-1.53222;46.71222;"01° 31' 56.00'' Ouest, 46° 42' 44.00'' Nord";"85300";"LES RIVIÈRES";"CHEMIN RURAL DE LA CROIX SAINT MARTIN ZA DE LA FRANCE";"85190";"VENANSAULT";"Pylône autostable"; 38.0;"ORANGE"
1381870;-1.82556;46.75861;"01° 49' 32.00'' Ouest, 46° 45' 31.00'' Nord";"85071";"LE PATIS DE LA CLAIE";"LA VERGNE";"85220";"COMMEQUIERS";"Pylône tubulaire"; 40.0;"TDF"
1387419;-0.86944;46.36194;"00° 52' 10.00'' Ouest, 46° 21' 43.00'' Nord";"85303";"LES SIX MOULINS";"LA CARRIÈRE";"85770";"VIX";"Pylône autostable"; 34.0;"TDF"
1395494;-1.01111;46.46667;"01° 00' 40.00'' Ouest, 46° 28' 00.00'' Nord";"85159";"LES FORTINIERES";"PRÈS D 949";"85370";"NALLIERS";"Pylône tubulaire"; 40.0;"TDF"
1399283;-0.80972;46.56500;"00° 48' 35.00'' Ouest, 46° 33' 54.00'' Nord";"85033";;"LA FOY";"85200";"BOURNEAU";"Pylône autostable"; 49.0;"TDF"
1415462;-1.40056;46.86944;"01° 24' 02.00'' Ouest, 46° 52' 10.00'' Nord";"85272";;"LA CHEVASSE";"85260";"SAINT-SULPICE-LE-VERDON";"Pylône autostable"; 40.0;"TDF"
1434232;-0.93806;46.79444;"00° 56' 17.00'' Ouest, 46° 47' 40.00'' Nord";"85031";;"17  RUE GEORGES CLÉMENCEAU";"85510";"LE BOUPERE";"Bâtiment"; 20.0;"Société Privée SA"
1434236;-1.05917;46.70667;"01° 03' 33.00'' Ouest, 46° 42' 24.00'' Nord";"85051";"LES TROIS PIGEONS";"ROUTE DE NANTES ZI";"85110";"CHANTONNAY";"Bâtiment"; 20.0;"Société Privée SA"
1437258;-1.83833;46.83389;"01° 50' 18.00'' Ouest, 46° 50' 02.00'' Nord";"85047";;"CHEM DE LA BARDONNIÈRE PARC D'ACTIVITÉS INDUSTRIELLES DE LA BLOIRE";"85300";"CHALLANS";"Pylône autostable"; 47.0;"SFR"
1441437;-1.52750;46.64722;"01° 31' 39.00'' Ouest, 46° 38' 50.00'' Nord";"85300";"LES MOULINETS";"RN 160";"85190";"VENANSAULT";"Pylône autostable"; 37.0;"TDF"
1442179;-1.45222;46.68083;"01° 27' 08.00'' Ouest, 46° 40' 51.00'' Nord";"85191";;"RUE ANDRÉ BRETAUD BASSIN D'ORAGE";"85000";"LA ROCHE-SUR-YON";"Pylône autostable"; 25.0;"ORANGE"
1444356;-1.61278;46.72583;"01° 36' 46.00'' Ouest, 46° 43' 33.00'' Nord";"85003";"LA PETITE MARRONNIERE";"RTE DE MARTINET";"85190";"AIZENAY";"Pylône autostable"; 30.0;"TDF"
1453862;-0.78889;46.43722;"00° 47' 20.00'' Ouest, 46° 26' 14.00'' Nord";"85092";;"RUE DE CHAMBOUIN";"85200";"FONTENAY-LE-COMTE";"Bâtiment"; 10.0;"Société Privée SA"
1456401;-0.75472;46.63694;"00° 45' 17.00'' Ouest, 46° 38' 13.00'' Nord";"85005";"LA LÈVRAUDIÈRE";"FPV INDUSTRIES";"85120";"ANTIGNY";"Bâtiment"; 17.0;"Société Privée SA"
1456821;-1.60000;46.86583;"01° 36' 00.00'' Ouest, 46° 51' 57.00'' Nord";"85210";"LE GRAVÉ";"LE GRAND PÉ D 978";"85670";"SAINT-ETIENNE-DU-BOIS";"Pylône autostable"; 30.0;"TDF"
1464940;-1.94417;46.70444;"01° 56' 39.00'' Ouest, 46° 42' 16.00'' Nord";"85226";;"ZI DES MARES";"85270";"SAINT-HILAIRE-DE-RIEZ";"Bâtiment"; 12.0;"Société Privée SA"
1465559;-1.44000;46.59583;"01° 26' 24.00'' Ouest, 46° 35' 45.00'' Nord";"85160";"LE LANDREAU";;"85310";"NESMY";"Pylône autostable"; 38.0;"FPS TOWERS"
1466899;-1.85278;46.76556;"01° 51' 10.00'' Ouest, 46° 45' 56.00'' Nord";"85071";"LA MORIGNIERE";"ZI LES AURES";"85220";"COMMEQUIERS";"Bâtiment"; 14.0;"Société Privée SA"
1466903;-1.81167;46.69389;"01° 48' 42.00'' Ouest, 46° 41' 38.00'' Nord";"85268";"LE TRAC";"D6 CHÂTEAU D'EAU";"85220";"SAINT-REVEREND";"Château d'eau - réservoir"; 66.0;"Syndicat des eaux, Adduction"
1471227;-1.50861;46.73472;"01° 30' 31.00'' Ouest, 46° 44' 05.00'' Nord";"85098";"LE GD CHAMBOURG";"STATION D'EPURATION";"85190";"LA GENETOUZE";"Pylône autostable"; 34.0;"FPS TOWERS"
1474218;-1.78444;46.51472;"01° 47' 04.00'' Ouest, 46° 30' 53.00'' Nord";"85166";;"ALLEE TITOUAN LAMAZOU ZAC DE FONSAUZE";"85340";"OLONNE-SUR-MER";"Pylône autostable"; 46.0;"SFR"
1474607;-1.91139;46.68111;"01° 54' 41.00'' Ouest, 46° 40' 52.00'' Nord";"85222";;"RUE DE LA ROUSSELOTIÈRE";"85800";"SAINT-GILLES-CROIX-DE-VIE";"Pylône autostable"; 33.0;"ORANGE"
1475899;-1.45417;46.68472;"01° 27' 15.00'' Ouest, 46° 41' 05.00'' Nord";"85191";"LA TALONNIÈRE";"ACTI'OUEST ZONE DE L'HORBETOUX";"85000";"LA ROCHE-SUR-YON";"Pylône autostable"; 27.0;"SFR"
1480695;-1.48778;46.43306;"01° 29' 16.00'' Ouest, 46° 25' 59.00'' Nord";"85127";;"ROUTE DE POIROUX ROUTE D105 POSTE SOURCE LONGEVILLE";"85560";"LONGEVILLE-SUR-MER";"Mât métallique"; 11.0;"Société Privée SA"
1485697;-0.79778;46.46139;"00° 47' 52.00'' Ouest, 46° 27' 41.00'' Nord";"85092";;"STADE";"85200";"FONTENAY-LE-COMTE";"Pylône autostable"; 26.0;"Commune, communauté de commune"
1502870;-1.41278;46.66833;"01° 24' 46.00'' Ouest, 46° 40' 06.00'' Nord";"85191";;"HOPITAL BOULEVARD STEPHANE MOREAU";"85000";"LA ROCHE-SUR-YON";"Immeuble"; 53.0;"Etablissement de soins"
1508629;-1.17833;46.45889;"01° 10' 42.00'' Ouest, 46° 27' 32.00'' Nord";"85128";;"R PASTEUR CITÉ PIERRE NAU";"85400";"LUCON";"Bâtiment"; 36.0;"Société HLM"
1509636;-0.78333;46.45583;"00° 47' 00.00'' Ouest, 46° 27' 21.00'' Nord";"85092";;"46 R CAPITALE DU BAS POITOU";"85200";"FONTENAY-LE-COMTE";"Bâtiment"; 6.8;"Société Privée SA"
1511251;-1.62444;46.65028;"01° 37' 28.00'' Ouest, 46° 39' 01.00'' Nord";"85218";"LE MOULINET";"STADE LE MOULINET";"85150";"SAINT-GEORGES-DE-POINTINDOUX";"Pylône autostable"; 39.0;"FPS TOWERS"
1511372;-1.11944;46.95806;"01° 07' 10.00'' Ouest, 46° 57' 29.00'' Nord";"85119";;"9 R DU POITOU CHUET";"85130";"LES LANDES-GENUSSON";"Pylône autostable"; 34.0;"FPS TOWERS"
1514238;-1.34333;46.82500;"01° 20' 36.00'' Ouest, 46° 49' 30.00'' Nord";"85208";"DURCOT";;"85170";"SAINT-DENIS-LA-CHEVASSE";"Pylône autostable"; 34.0;"FPS TOWERS"
1516306;-1.75167;46.51500;"01° 45' 06.00'' Ouest, 46° 30' 54.00'' Nord";"85166";;"4 RUE JACQUES MONOD";"85340";"OLONNE-SUR-MER";"Immeuble"; 22.0;"Etablissement de soins"
1524055;-1.59583;46.79806;"01° 35' 45.00'' Ouest, 46° 47' 53.00'' Nord";"85055";"LE PAS DE BOEUF";"PRES DE LES ATHUIS";"85670";"LA CHAPELLE-PALLUAU";"Pylône autostable"; 43.0;"FPS TOWERS"
1530336;-1.43694;46.67611;"01° 26' 13.00'' Ouest, 46° 40' 34.00'' Nord";"85191";;"175 BLD MARECHAL LECLERC";"85000";"LA ROCHE-SUR-YON";"Pylône tubulaire"; 16.0;"ORANGE"
1531702;-1.87444;46.83667;"01° 52' 28.00'' Ouest, 46° 50' 12.00'' Nord";"85047";;"70, ROUTE DES SABLES CABINET DE SÉNOLOGIE";"85300";"CHALLANS";"Pylône autostable"; 11.0;"Société Privée SA"
1531729;-1.88000;46.83611;"01° 52' 48.00'' Ouest, 46° 50' 10.00'' Nord";"85047";;"1, RUE NEWTON PATC SCHWEITZER CABINET DE RADIOLOGIE";"85300";"CHALLANS";"Pylône autostable"; 11.0;"Société Privée SA"
1537424;-1.16667;46.89028;"01° 10' 00.00'' Ouest, 46° 53' 25.00'' Nord";"85215";"LA FREITIERE";;"85250";"SAINT-FULGENT";"Château d'eau - réservoir"; 57.0;"Syndicat des eaux, Adduction"
1538739;-1.42500;46.74333;"01° 25' 30.00'' Ouest, 46° 44' 36.00'' Nord";"85081";;"34 R ERIC TABARLY ZI L'ERAUDIERE";"85170";"DOMPIERRE-SUR-YON";"Pylône autostable"; 31.0;"Société Privée SA"
1543069;-1.87278;46.84750;"01° 52' 22.00'' Ouest, 46° 50' 51.00'' Nord";"85047";;"BOULEVARD GUERIN CENTRE HOSPITALIER";"85300";"CHALLANS";"Immeuble"; 35.0;"Etablissement de soins"
1543396;-1.89944;46.85389;"01° 53' 58.00'' Ouest, 46° 51' 14.00'' Nord";"85047";"L'AUVARDIÈRE";"PRÈS CENTRE COMMERCIAL LECLERC";"85300";"CHALLANS";"Pylône tubulaire"; 28.0;"ORANGE"
1546545;-1.42806;46.66944;"01° 25' 41.00'' Ouest, 46° 40' 10.00'' Nord";"85191";;"5 RUE LAFAYETTE";"85000";"LA ROCHE-SUR-YON";"Immeuble"; 27.0;"Commune, communauté de commune"
1554801;-1.89278;46.93528;"01° 53' 34.00'' Ouest, 46° 56' 07.00'' Nord";"85024";"L'HOMMEAU";"2 RTE CHATEAUNEUF TERRAIN DE CAMPING BOIS JOILI";"85710";"BOIS-DE-CENE";"Pylône autostable"; 33.0;"FPS TOWERS"
1574221;-1.03222;46.86361;"01° 01' 56.00'' Ouest, 46° 51' 49.00'' Nord";"85109";;"AV DES SABLES ZI LE BIGNON D 160";"85500";"LES HERBIERS";"Bâtiment"; 13.0;"Société Privée SA"
1575784;-1.79250;46.49750;"01° 47' 33.00'' Ouest, 46° 29' 51.00'' Nord";"85194";;"2 QUAI D'ALLÉGEMENT QUAI DE LA JAUGE SILO CAVAC";"85100";"LES SABLES-D'OLONNE";"Silo"; 43.0;"Coopérative Agricole, Vinicole"
1583938;-1.88750;46.78500;"01° 53' 15.00'' Ouest, 46° 47' 06.00'' Nord";"85284";;"CHEMIN DES CORDES";"85300";"SOULLANS";"Pylône autostable"; 50.0;"RTE"
1583943;-1.41222;46.63500;"01° 24' 44.00'' Ouest, 46° 38' 06.00'' Nord";"85191";;"ROUTE DE LA VERGNE BABOUIN";"85000";"LA ROCHE-SUR-YON";"Pylône autostable"; 64.0;"RTE"
1593159;-1.43000;46.66833;"01° 25' 48.00'' Ouest, 46° 40' 06.00'' Nord";"85191";;"ESPLANADE JEANNIE MAZURELLE";"85000";"LA ROCHE-SUR-YON";"Bâtiment"; 30.0;"Commune, communauté de commune"
1608892;-1.21889;46.52833;"01° 13' 08.00'' Ouest, 46° 31' 42.00'' Nord";"85135";"LES TESSONNES";"SITE ITAS TIM";"85320";"MAREUIL-SUR-LAY-DISSAIS";"Pylône autostable"; 49.0;"Itas Tim"
1621177;-1.25694;47.05833;"01° 15' 25.00'' Ouest, 47° 03' 30.00'' Nord";"85076";"LA MOUCHERIE";"RD 763";"85610";"CUGAND";"Bâtiment"; 10.0;"Société Privée SA"
1623740;-1.01972;46.87083;"01° 01' 11.00'' Ouest, 46° 52' 15.00'' Nord";"85109";;"RUE CHATEAU GAILLARD CENTRAL FT";"85500";"LES HERBIERS";"Bâtiment"; 21.1;"ORANGE"
1656975;-1.42806;46.49778;"01° 25' 41.00'' Ouest, 46° 29' 52.00'' Nord";"85156";;"RUE DES FORETS - STADE";"85540";"MOUTIERS-LES-MAUXFAITS";"Pylône tubulaire"; 22.0;"FPS TOWERS"
1660082;-2.04389;46.92417;"02° 02' 38.00'' Ouest, 46° 55' 27.00'' Nord";"85018";"LES BÈCHES";"ZA LA JAILLÈE";"85230";"BEAUVOIR-SUR-MER";"Pylône autostable"; 28.0;"FPS TOWERS"
1674774;-1.82778;46.90167;"01° 49' 40.00'' Ouest, 46° 54' 06.00'' Nord";"85096";"LA RICHARDIÈRE";"VC N°331 PRÈS D90";"85710";"LA GARNACHE";"Pylône autostable"; 32.5;"ORANGE"
1678071;-0.87389;46.92556;"00° 52' 26.00'' Ouest, 46° 55' 32.00'' Nord";"85240";"POUPET";"THÉATRE DE VERDURE";"85590";"SAINT-MALO-DU-BOIS";"Mât métallique"; 12.0;"ORANGE"
1687190;-1.49778;46.84806;"01° 29' 52.00'' Ouest, 46° 50' 53.00'' Nord";"85129";;"R DE LA NOUE GRENET";"85170";"LES LUCS-SUR-BOULOGNE";"Pylône autostable"; 32.0;"ORANGE"
1689508;-0.72583;46.64611;"00° 43' 33.00'' Ouest, 46° 38' 46.00'' Nord";"85289";;"RUE DU BOURG BATARD";"85120";"LA TARDIERE";"Pylône autostable"; 38.3;"Copropriété, Syndic, SCI"
1690719;-1.85944;46.84889;"01° 51' 34.00'' Ouest, 46° 50' 56.00'' Nord";"85047";;"BD JEAN MONNET D 1753";"85300";"CHALLANS";"Pylône autostable"; 22.0;"RTE"
1691128;-1.51861;46.68028;"01° 31' 07.00'' Ouest, 46° 40' 49.00'' Nord";"85300";;"8 RUE LOUIS LUMIERE";"85190";"VENANSAULT";"Pylône autostable"; 38.3;"IFW-FREE"
1696290;-1.67472;46.77778;"01° 40' 29.00'' Ouest, 46° 46' 40.00'' Nord";"85130";"LA BROSSE";;"85190";"MACHE";"Pylône autostable"; 36.0;"ORANGE"
1696436;-1.32361;46.66583;"01° 19' 25.00'' Ouest, 46° 39' 57.00'' Nord";"85046";;"ZI LA FOLIE";"85310";"LA CHAIZE-LE-VICOMTE";"Pylône autostable"; 24.0;"Société Privée SA"
1696558;-1.79167;46.50444;"01° 47' 30.00'' Ouest, 46° 30' 16.00'' Nord";"85194";"PORT OLONA";"QUAI AMIRAL DE LA GRAVIERE";"85100";"LES SABLES-D'OLONNE";"Pylône tubulaire"; 12.6;"BOUYGUES"
1702736;-1.15278;46.59111;"01° 09' 10.00'' Ouest, 46° 35' 28.00'' Nord";"85175";"LE CHAMP DU CERIZELET";;"85320";"LES PINEAUX";"Pylône autostable"; 48.0;"Particulier"
1703581;-1.22389;46.65694;"01° 13' 26.00'' Ouest, 46° 39' 25.00'' Nord";"85093";"LE SUCHAUD";"VC 231";"85480";"FOUGERE";"Pylône autostable"; 46.4;"Coopérative Agricole, Vinicole"
1703591;-1.48222;46.39278;"01° 28' 56.00'' Ouest, 46° 23' 34.00'' Nord";"85127";"LA MAISONNETTE";"RUE DES LUMAS LES CONCHES";"85560";"LONGEVILLE-SUR-MER";"Pylône tubulaire"; 26.6;"SFR"
1703739;-1.68667;46.47722;"01° 41' 12.00'' Ouest, 46° 28' 38.00'' Nord";"85288";"LA GRANDE MALBRANDE";"HIPPODROME DE MALBRANDE";"85440";"TALMONT-SAINT-HILAIRE";"Pylône tubulaire"; 30.0;"Commune, communauté de commune"
1705231;-1.29194;46.87389;"01° 17' 31.00'' Ouest, 46° 52' 26.00'' Nord";"85065";"LA DURANDERIE";;"85250";"CHAVAGNES-EN-PAILLERS";"Pylône autostable"; 43.1;"ORANGE"
1706681;-1.37444;46.57722;"01° 22' 28.00'' Ouest, 46° 34' 38.00'' Nord";"85043";;"LA RAVONNIERE";"85310";"CHAILLE-SOUS-LES-ORMEAUX";"Pylône autostable"; 28.0;"FPS TOWERS"
1707441;-1.37694;46.90278;"01° 22' 37.00'' Ouest, 46° 54' 10.00'' Nord";"85108";;"RUE DE LA VIGNE ROUGE - STADE";"85260";"L'HERBERGEMENT";"Pylône autostable"; 32.0;"FPS TOWERS"
1707495;-0.66944;46.47556;"00° 40' 10.00'' Ouest, 46° 28' 32.00'' Nord";"85227";"LA GARAUDINIERE";"V COMMUNALE PRES DES LOGES";"85240";"SAINT-HILAIRE-DES-LOGES";"Pylône autostable"; 39.0;"FPS TOWERS"
1708736;-1.61500;46.53639;"01° 36' 54.00'' Ouest, 46° 32' 11.00'' Nord";"85103";;"BASSIN DE LAGUNAGE  VOIE COMMUNALE";"85440";"GROSBREUIL";"Pylône autostable"; 27.0;"SFR"
1708761;-1.71389;46.56472;"01° 42' 50.00'' Ouest, 46° 33' 53.00'' Nord";"85250";;"PLACE DE L'EGLISE";"85150";"SAINT-MATHURIN";"Monument religieux"; 39.4;"Commune, communauté de commune"
1711001;-1.94528;46.70333;"01° 56' 43.00'' Ouest, 46° 42' 12.00'' Nord";"85222";;"RUE DE LA RABALETTE";"85800";"SAINT-GILLES-CROIX-DE-VIE";"Pylône tubulaire"; 26.2;"IFW-FREE"
1711288;-1.30139;46.58861;"01° 18' 05.00'' Ouest, 46° 35' 19.00'' Nord";"85213";"LES MOLLAIRES";"CHEM RURAL";"85310";"SAINT-FLORENT-DES-BOIS";"Pylône autostable"; 27.0;"ORANGE Services Fixes"
1719398;-1.29556;46.56000;"01° 17' 44.00'' Ouest, 46° 33' 36.00'' Nord";"85061";"LA CHOLETIÈRE";"CHEM D'EXPLOITATION";"85320";"CHATEAU-GUIBERT";"Pylône autostable"; 50.3;"SFR"
1719409;-1.39139;46.42083;"01° 23' 29.00'' Ouest, 46° 25' 15.00'' Nord";"85116";"LES ERONCES";"ROUTE DE LA ROCHE";"85540";"LA JONCHERE";"Pylône autostable"; 27.8;"SFR"
1722314;-1.78750;46.50278;"01° 47' 15.00'' Ouest, 46° 30' 10.00'' Nord";"85194";;"VILLAGE DU VENDÉE GLOBE BOULEVARD DE L'ILE VERTIME";"85100";"LES SABLES-D'OLONNE";"Mât"; 12.0;"ORANGE"
1725380;-1.37861;46.90111;"01° 22' 43.00'' Ouest, 46° 54' 04.00'' Nord";"85108";;"RUE DE LA VIGNE ROUGE";"85260";"L'HERBERGEMENT";"Bâtiment"; 22.0;"Particulier"
1725681;-1.67611;46.45028;"01° 40' 34.00'' Ouest, 46° 27' 01.00'' Nord";"85288";"BEL-AIR";"RTE DE BEAUREGARD VC VERS BOURGENAY PRISE FALLERON";"85440";"TALMONT-SAINT-HILAIRE";"Pylône autostable"; 21.3;"ORANGE"
1725725;-0.86028;46.67806;"00° 51' 37.00'' Ouest, 46° 40' 41.00'' Nord";"85154";"LES  MARES";;"85390";"MOUILLERON-EN-PAREDS";"Pylône autostable"; 32.8;"FPS TOWERS"
1726462;-1.19250;47.00611;"01° 11' 33.00'' Ouest, 47° 00' 22.00'' Nord";"85039";"LA GRANDE BRETONNIÈRE";;"85530";"LA BRUFFIERE";"Pylône autostable"; 35.0;"SFR"
1734399;-0.88722;46.61972;"00° 53' 14.00'' Ouest, 46° 37' 11.00'' Nord";"85292";"GRAS AGNEAUX";"D 19";"85410";"THOUARSAIS-BOUILDROUX";"Pylône autostable"; 27.7;"FPS TOWERS"
1734403;-1.47000;46.56583;"01° 28' 12.00'' Ouest, 46° 33' 57.00'' Nord";"85008";"LE BOSQUET";"RD 12";"85430";"AUBIGNY";"Château d'eau - réservoir"; 77.0;"Syndicat des eaux, Adduction"
1734470;-0.90583;46.49778;"00° 54' 21.00'' Ouest, 46° 29' 52.00'' Nord";"85174";"POIVILLE";"LE CHAIL CHEM D'EXPLOITATION DE POIVILLE";"85570";"PETOSSE";"Pylône autostable"; 30.0;"ORANGE"
1736112;-1.10139;46.85333;"01° 06' 05.00'' Ouest, 46° 51' 12.00'' Nord";"85144";"LE CORMIER";"R DES VENDANGES LES MÉTIVEREAUX";"85500";"MESNARD-LA-BAROTIERE";"Pylône autostable"; 30.0;"ORANGE"
1736126;-1.13778;46.38333;"01° 08' 16.00'' Ouest, 46° 22' 60.00'' Nord";"85049";;"1 ROUTE DE LUÇON MAGASIN BIGMAT";"85450";"CHAMPAGNE-LES-MARAIS";"Pylône autostable"; 32.8;"ORANGE"
1739789;-1.20639;46.81361;"01° 12' 23.00'' Ouest, 46° 48' 49.00'' Nord";"85084";"LE CLÉMENCIÈRE";"RD 13";"85140";"LES ESSARTS";"Pylône tubulaire"; 28.0;"ORANGE"
1750288;-1.61472;46.54833;"01° 36' 53.00'' Ouest, 46° 32' 54.00'' Nord";"85103";;"LA PETITE LUCTIÈRE";"85440";"GROSBREUIL";"Pylône autostable"; 35.0;"ORANGE"
1750292;-0.96750;46.53028;"00° 58' 03.00'' Ouest, 46° 31' 49.00'' Nord";"85274";"LE CHAMP ST PÈRE";"LA VALLÉE CHAVIGNEAU";"85570";"SAINT-VALERIEN";"Pylône autostable"; 42.5;"ORANGE"
1755250;-1.41500;46.64250;"01° 24' 54.00'' Ouest, 46° 38' 33.00'' Nord";"85191";;"6 RUE WATT";"85000";"LA ROCHE-SUR-YON";"Pylône autostable"; 30.0;"ORANGE"
1755254;-1.15250;46.80139;"01° 09' 09.00'' Ouest, 46° 48' 05.00'' Nord";"85212";;"CHEM DE LA BÉDAUDIÈRE";"85140";"SAINTE-FLORENCE";"Pylône autostable"; 45.5;"ORANGE"
1767282;-0.91028;46.95306;"00° 54' 37.00'' Ouest, 46° 57' 11.00'' Nord";"85238";;"RTE DE LA GARE";"85290";"SAINT-LAURENT-SUR-SEVRE";"Bâtiment"; 14.4;"Société Privée SA"
1768036;-1.45861;46.74139;"01° 27' 31.00'' Ouest, 46° 44' 29.00'' Nord";"85178";;"SAINT JEAN";"85170";"LE POIRE-SUR-VIE";"Bâtiment"; 35.0;"Société Privée SA"
1781704;-1.84417;46.89889;"01° 50' 39.00'' Ouest, 46° 53' 56.00'' Nord";"85096";;"CHEM  ZA LES TERRES NOIRES";"85710";"LA GARNACHE";"Pylône autostable"; 32.0;"SFR"
1781935;-1.83500;46.61389;"01° 50' 06.00'' Ouest, 46° 36' 50.00'' Nord";"85243";;"RUE DE LA CHAIZE";"85470";"BREM-SUR-MER";"Pylône tubulaire"; 36.3;"IFW-FREE"
1782395;-1.80917;46.88361;"01° 48' 33.00'' Ouest, 46° 53' 01.00'' Nord";"85096";"LES GLAUDIÈRES";"RTE DPT. N°90";"85710";"LA GARNACHE";"Pylône autostable"; 30.0;"SFR"
1782410;-1.93889;46.86861;"01° 56' 20.00'' Ouest, 46° 52' 07.00'' Nord";"85280";;"ROUTE DE LA FÉNICIÈRE DÉCHETTERIE";"85300";"SALLERTAINE";"Pylône autostable"; 32.0;"SFR"
1782438;-1.90361;46.69167;"01° 54' 13.00'' Ouest, 46° 41' 30.00'' Nord";"85222";;"3 R DES COUVREURS ZI DE LA BÉGAUDIÈRE";"85800";"SAINT-GILLES-CROIX-DE-VIE";"Pylône autostable"; 47.2;"SFR"
1786228;-1.76056;46.53694;"01° 45' 38.00'' Ouest, 46° 32' 13.00'' Nord";"85166";"LE MOULIN DES ROSES";"R LEO LAGRANGE STADE MARCEL GUILBAUD";"85340";"OLONNE-SUR-MER";"Pylône autostable"; 34.0;"FPS TOWERS"
1787755;-1.96250;46.72250;"01° 57' 45.00'' Ouest, 46° 43' 21.00'' Nord";"85226";;"CHEM DES GARENNES STADE DE LA FORÊT";"85270";"SAINT-HILAIRE-DE-RIEZ";"Pylône autostable"; 32.0;"SFR"
1789229;-1.85861;46.76472;"01° 51' 31.00'' Ouest, 46° 45' 53.00'' Nord";"85071";;"CHEMIN BONNE QUEUE";"85220";"COMMEQUIERS";"Pylône autostable"; 30.0;"SFR"
1791766;-1.65944;46.60333;"01° 39' 34.00'' Ouest, 46° 36' 12.00'' Nord";"85152";;"7 RUE  DE LA CAMAMINE PAC RENAULT";"85150";"LA MOTHE-ACHARD";"Pylône autostable"; 31.5;"SFR"
1792896;-1.86972;46.66583;"01° 52' 11.00'' Ouest, 46° 39' 57.00'' Nord";"85002";"LA CULASSE";;"85220";"L'AIGUILLON-SUR-VIE";"Pylône autostable"; 22.0;"Coopérative Agricole, Vinicole"
1800628;-1.69056;46.76861;"01° 41' 26.00'' Ouest, 46° 46' 07.00'' Nord";"85130";"LE PATIS DES LANDES";"VOIE COMMUNAL N°108";"85190";"MACHE";"Pylône autostable"; 32.0;"SFR"
1800632;-1.79028;46.64639;"01° 47' 25.00'' Ouest, 46° 38' 47.00'' Nord";"85120";"LA NOUÉ";"D 12";"85220";"LANDEVIEILLE";"Pylône autostable"; 30.6;"SFR"
1800769;-1.88306;46.79528;"01° 52' 59.00'' Ouest, 46° 47' 43.00'' Nord";"85284";;"RUE DES FRENES ZAC DE BRECHARD 1";"85300";"SOULLANS";"Pylône autostable"; 38.2;"IFW-FREE"
1803676;-1.38944;46.76278;"01° 23' 22.00'' Ouest, 46° 45' 46.00'' Nord";"85081";"LA CORNIÈRE";"D 101";"85170";"DOMPIERRE-SUR-YON";"Pylône autostable"; 45.4;"SFR"
1803923;-1.90806;46.69250;"01° 54' 29.00'' Ouest, 46° 41' 33.00'' Nord";"85222";;"RUE DES FORGERONS";"85800";"SAINT-GILLES-CROIX-DE-VIE";"Pylône autostable"; 31.8;"IFW-FREE"
1808248;-0.92972;46.90167;"00° 55' 47.00'' Ouest, 46° 54' 06.00'' Nord";"85082";"LE CERISIER";"LE GRAND CHARREAU";"85590";"LES EPESSES";"Pylône autostable"; 20.0;"SFR"
1808675;-0.96000;46.75083;"00° 57' 36.00'' Ouest, 46° 45' 03.00'' Nord";"85266";"LE FIEF DU GRAND CHAMP";"PONT DE MONSIREIGNE  ROUTE DE MONSIREIGNE";"85110";"SAINT-PROUANT";"Pylône tubulaire"; 27.0;"SFR"
1809278;-0.99083;46.90056;"00° 59' 27.00'' Ouest, 46° 54' 02.00'' Nord";"85109";"LE CHAFFAUD";;"85500";"LES HERBIERS";"Pylône haubané"; 86.0;"Société Privée SA"
1809331;-2.23361;47.00861;"02° 14' 01.00'' Ouest, 47° 00' 31.00'' Nord";"85163";;"AVENUE DU MARECHAL JOFFRE  STADE MUNICIPAL";"85330";"NOIRMOUTIER-EN-L'ILE";"Pylône tubulaire"; 23.0;"SFR"
1810416;-1.79806;46.64806;"01° 47' 53.00'' Ouest, 46° 38' 53.00'' Nord";"85120";"LA NATHALINIÈRE";"CHÂTEAU D'EAU";"85220";"LANDEVIEILLE";"Château d'eau - réservoir"; 83.0;"Commune, communauté de commune"
1811640;-1.20667;46.81389;"01° 12' 24.00'' Ouest, 46° 48' 50.00'' Nord";"85084";"LA CLÉMENCIÈRE";;"85140";"LES ESSARTS";"Pylône autostable"; 47.0;"SFR"
1811644;-0.86639;46.81722;"00° 51' 59.00'' Ouest, 46° 49' 02.00'' Nord";"85090";"LA BLAUDRIE";;"85700";"LA FLOCELLIERE";"Pylône autostable"; 33.0;"SFR"
1814903;-1.33028;46.97833;"01° 19' 49.00'' Ouest, 46° 58' 42.00'' Nord";"85224";;"BLV ALFRED DE VIGNY ZA LA MARIONNIÈRE";"85600";"SAINT-HILAIRE-DE-LOULAY";"Pylône autostable"; 53.0;"Société Privée SA"
1815382;-1.57667;46.60750;"01° 34' 36.00'' Ouest, 46° 36' 27.00'' Nord";"85211";;"RTE DE LA COURDIERE";"85150";"SAINTE-FLAIVE-DES-LOUPS";"Pylône tubulaire"; 31.3;"IFW-FREE"
1817992;-1.67694;46.44417;"01° 40' 37.00'' Ouest, 46° 26' 39.00'' Nord";"85288";;"10 R DU LAC BOURGENAY";"85440";"TALMONT-SAINT-HILAIRE";"Bâtiment"; 21.0;"Commune, communauté de commune"
1821795;-0.64778;46.66361;"00° 38' 52.00'' Ouest, 46° 39' 49.00'' Nord";"85037";;"BEAUVOIR D 30";"85120";"BREUIL-BARRET";"Château d'eau - réservoir"; 55.0;"Syndicat des eaux, Adduction"
1822514;-2.13722;46.82778;"02° 08' 14.00'' Ouest, 46° 49' 40.00'' Nord";"85164";"LA PARÉE NOTRE DAME";"AV DES SPORTS";"85690";"NOTRE-DAME-DE-MONTS";"Pylône autostable"; 23.0;"FPS TOWERS"
1823681;-1.87389;46.85056;"01° 52' 26.00'' Ouest, 46° 51' 02.00'' Nord";"85047";"LES PRES DU CHEM BAS";"BD VIAUD GRAND MARAIS";"85300";"CHALLANS";"Pylône autostable"; 44.3;"FPS TOWERS"
1823709;-1.90194;46.71611;"01° 54' 07.00'' Ouest, 46° 42' 58.00'' Nord";"85088";;"3 RUE DE LA TUCASSERIE";"85800";"LE FENOUILLER";"Pylône autostable"; 29.0;"FPS TOWERS"
1825067;-1.93250;46.70222;"01° 55' 57.00'' Ouest, 46° 42' 08.00'' Nord";"85222";"LES MARATES";"RUE DES MARAIS SALANTS";"85800";"SAINT-GILLES-CROIX-DE-VIE";"Pylône tubulaire"; 33.0;"CELLNEX"
1827011;-1.43972;46.65306;"01° 26' 23.00'' Ouest, 46° 39' 11.00'' Nord";"85191";;"71 R DU COMMERCE";"85000";"LA ROCHE-SUR-YON";"Pylône tubulaire"; 33.0;"CELLNEX"
1830028;-2.06389;46.78417;"02° 03' 50.00'' Ouest, 46° 47' 03.00'' Nord";"85234";;"AV DE LA FORET STADE MUNICIPAL";"85160";"SAINT-JEAN-DE-MONTS";"Pylône tubulaire"; 24.0;"BOUYGUES"
1830768;-1.25639;46.88083;"01° 15' 23.00'' Ouest, 46° 52' 51.00'' Nord";"85065";;"ZA LES CHÊNES";"85250";"CHAVAGNES-EN-PAILLERS";"Pylône autostable"; 31.8;"IFW-FREE"
1831366;-0.68667;46.52222;"00° 41' 12.00'' Ouest, 46° 31' 20.00'' Nord";"85094";"LE CHAMP MOINE";;"85240";"FOUSSAIS-PAYRE";"Pylône autostable"; 30.0;"SFR"
1831376;-1.29583;46.33056;"01° 17' 45.00'' Ouest, 46° 19' 50.00'' Nord";"85001";;"BD DU COMMUNAL STADE MUNICIPAL FERNAND SASTRE";"85460";"L'AIGUILLON-SUR-MER";"Pylône tubulaire"; 27.0;"SFR"
1832640;-1.23472;46.34250;"01° 14' 05.00'' Ouest, 46° 20' 33.00'' Nord";"85255";"LES COMMUNAUX";;"85580";"SAINT-MICHEL-EN-L'HERM";"Pylône autostable"; 37.6;"SFR"
1833830;-1.00306;46.86417;"01° 00' 11.00'' Ouest, 46° 51' 51.00'' Nord";"85109";"LA PÉPINIÈRE";"ZI DE LA GUERCHE CHAMPS DE LONGUENAY";"85500";"LES HERBIERS";"Pylône autostable"; 28.0;"SFR"
1834027;-1.43778;46.64250;"01° 26' 16.00'' Ouest, 46° 38' 33.00'' Nord";"85191";;"RTE DE LA TRANCHE SUR MER ZONE ACTIVITE SUD";"85000";"LA ROCHE-SUR-YON";"Bâtiment"; 18.0;"Société Privée SA"
1835630;-1.00750;46.50278;"01° 00' 27.00'' Ouest, 46° 30' 10.00'' Nord";"85209";"LA CABANE";"RTE DU GRAND MAGNIL RTE DÉPARTEMENTALE 10";"85210";"SAINT-ETIENNE-DE-BRILLOUET";"Pylône autostable"; 49.3;"SFR"
1839941;-1.20361;46.94889;"01° 12' 13.00'' Ouest, 46° 56' 56.00'' Nord";"85025";;"ZA SAINTE ANNE";"85600";"LA BOISSIERE-DE-MONTAIGU";"Pylône autostable"; 32.0;"SFR"
1840200;-1.28917;46.83833;"01° 17' 21.00'' Ouest, 46° 50' 18.00'' Nord";"85064";;"LA VRIGNAIS";"85140";"CHAUCHE";"Pylône autostable"; 32.0;"SFR"
1843391;-1.93972;46.86972;"01° 56' 23.00'' Ouest, 46° 52' 11.00'' Nord";"85280";;"17 RUE DE L'HERMINETTE";"85300";"SALLERTAINE";"Pylône tubulaire"; 31.2;"IFW-FREE"
1843479;-0.89111;46.55639;"00° 53' 28.00'' Ouest, 46° 33' 23.00'' Nord";"85137";;"BOIS DE L'EPAUD";"85570";"MARSAIS-SAINTE-RADEGONDE";"Château d'eau - réservoir"; 65.0;"Commune, communauté de commune"
1849465;-1.72250;46.65028;"01° 43' 21.00'' Ouest, 46° 39' 01.00'' Nord";"85236";"LES LANDES";;"85150";"SAINT-JULIEN-DES-LANDES";"Pylône autostable"; 32.0;"FPS TOWERS"
1853752;-1.43500;46.78861;"01° 26' 06.00'' Ouest, 46° 47' 19.00'' Nord";"85019";"LA GARE";;"85170";"BELLEVILLE-SUR-VIE";"Pylône tubulaire"; 32.0;"SFR"
1853817;-1.29750;46.40250;"01° 17' 51.00'' Ouest, 46° 24' 09.00'' Nord";"85104";;"AVENUE DU STADE";"85580";"GRUES";"Pylône tubulaire"; 27.0;"SFR"
1853821;-0.90417;46.64778;"00° 54' 15.00'' Ouest, 46° 38' 52.00'' Nord";"85014";"BEAUREGARD";;"85390";"BAZOGES-EN-PAREDS";"Pylône autostable"; 37.0;"SFR"
1853847;-0.62250;46.38500;"00° 37' 21.00'' Ouest, 46° 23' 06.00'' Nord";"85020";"LA CABANE À CHIRON";;"85490";"BENET";"Pylône autostable"; 50.5;"SFR"
1853855;-0.79139;46.57361;"00° 47' 29.00'' Ouest, 46° 34' 25.00'' Nord";"85305";"CHAMP DU MOULIN";"DÉPARTEMENTALE NUMERO 30";"85120";"VOUVANT";"Pylône autostable"; 27.0;"SFR"
1853871;-0.90889;46.43528;"00° 54' 32.00'' Ouest, 46° 26' 07.00'' Nord";"85177";"LES GRELLIÈRES";;"85770";"LE POIRE-SUR-VELLUIRE";"Pylône autostable"; 38.6;"SFR"
1855007;-1.16306;46.46639;"01° 09' 47.00'' Ouest, 46° 27' 59.00'' Nord";"85128";;"ZI DU RAITEAU";"85400";"LUCON";"Pylône autostable"; 49.0;"SFR"
1855692;-1.40611;46.65972;"01° 24' 22.00'' Ouest, 46° 39' 35.00'' Nord";"85191";;"ALL RAYMOND ARON STADE MUN EUGÈNE FERRÉ";"85000";"LA ROCHE-SUR-YON";"Pylône autostable"; 23.0;"FPS TOWERS"
1855696;-0.82778;46.52806;"00° 49' 40.00'' Ouest, 46° 31' 41.00'' Nord";"85281";"PETOSSE";"ROUTE COMMUNALE N°301";"85200";"SERIGNE";"Pylône autostable"; 27.0;"SFR"
1864374;-1.66083;46.60278;"01° 39' 39.00'' Ouest, 46° 36' 10.00'' Nord";"85152";;"12 RUE DE LA CAMAMINE";"85150";"LA MOTHE-ACHARD";"Bâtiment"; 9.0;"Société Privée SA"
1864397;-0.90278;46.87556;"00° 54' 10.00'' Ouest, 46° 52' 32.00'' Nord";"85082";;"RTE DE ST MARS LA REORTHE ZA LES BACHELIERS";"85590";"LES EPESSES";"Bâtiment"; 27.0;"Société Privée SA"
1865328;-1.18833;46.72306;"01° 11' 18.00'' Ouest, 46° 43' 23.00'' Nord";"85246";"LA MOINERIE";"ROUTE DE LA FERRIERE FABRIQUE LA MOINERIE";"85140";"SAINT-MARTIN-DES-NOYERS";"Pylône autostable"; 34.0;"CELLNEX"
1865361;-1.12833;46.81611;"01° 07' 42.00'' Ouest, 46° 48' 58.00'' Nord";"85301";"ZONE ECONOMIQUE DE VENDRENNES";"ZONE DE LA LANDE 1";"85250";"VENDRENNES";"Pylône autostable"; 43.0;"TDF"
1869401;-1.06889;46.53528;"01° 04' 08.00'' Ouest, 46° 32' 07.00'' Nord";"85223";"LES NOUES";"AVENUE BENJAMIN RABIER VENDEPOLE SUD ATLANTIQUE";"85210";"SAINTE-HERMINE";"Pylône autostable"; 37.7;"TDF"
1876629;-1.33056;46.97833;"01° 19' 50.00'' Ouest, 46° 58' 42.00'' Nord";"85224";;"RUE ALFRED DE VIGNY ZA LA MARIONNIERE";"85600";"SAINT-HILAIRE-DE-LOULAY";"Bâtiment"; 9.0;"Conseil Départemental"
1879431;-1.49500;46.84361;"01° 29' 42.00'' Ouest, 46° 50' 37.00'' Nord";"85129";;"PL MERCIER DE GRAMMONT EGLISE";"85170";"LES LUCS-SUR-BOULOGNE";"Monument religieux"; 38.0;"Commune, communauté de commune"
1881544;-1.41667;46.66750;"01° 25' 00.00'' Ouest, 46° 40' 03.00'' Nord";"85191";;"IMPASSE BELIN PARC DIRECTION DES ROUTES";"85000";"LA ROCHE-SUR-YON";"Bâtiment"; 28.0;"DDE"
1881546;-1.41806;46.66694;"01° 25' 05.00'' Ouest, 46° 40' 01.00'' Nord";"85191";;"IMPASSE BELIN PARC ATELIER DIR DES ROUTE";"85000";"LA ROCHE-SUR-YON";"Bâtiment"; 26.0;"DDE"
1881548;-1.42972;46.66500;"01° 25' 47.00'' Ouest, 46° 39' 54.00'' Nord";"85191";;"202 BLV ARISTIDE BRIAND";"85000";"LA ROCHE-SUR-YON";"Bâtiment"; 26.0;"DDE"
1881550;-1.43722;46.68917;"01° 26' 14.00'' Ouest, 46° 41' 21.00'' Nord";"85191";;"ROND POIND CHARLES SORIN CREI";"85000";"LA ROCHE-SUR-YON";"Pylône haubané"; 26.0;"DDE"
1881552;-1.87083;46.84639;"01° 52' 15.00'' Ouest, 46° 50' 47.00'' Nord";"85047";;"2 BLV GUERIN AGENCE ROUTIÈRE DÉPARTEMENTALE";"85300";"CHALLANS";"Bâtiment"; 9.0;"DDE"
1881554;-1.78556;46.52056;"01° 47' 08.00'' Ouest, 46° 31' 14.00'' Nord";"85166";;"25 ALLEE ALAIN GAUTIER";"85340";"OLONNE-SUR-MER";"Bâtiment"; 9.0;"DDE"
1881556;-1.16583;46.45917;"01° 09' 57.00'' Ouest, 46° 27' 33.00'' Nord";"85128";;"6 R DU 1ER DRAGON BP 249";"85400";"LUCON";"Bâtiment"; 10.0;"DDE"
1881558;-0.84333;46.77583;"00° 50' 36.00'' Ouest, 46° 46' 33.00'' Nord";"85182";;"11 R DU STADE ANDRE JACOB";"85700";"POUZAUGES";"Bâtiment"; 14.0;"DDE"
1881677;-1.02722;46.39778;"01° 01' 38.00'' Ouest, 46° 23' 52.00'' Nord";"85042";;"R JULIEN HILAIRE PETIT RÉSIDENCE LES PICTONS";"85450";"CHAILLE-LES-MARAIS";"Immeuble"; 18.0;"Société HLM"
1891812;-0.82472;46.52278;"00° 49' 29.00'' Ouest, 46° 31' 22.00'' Nord";"85281";"LE BEUGNON";"LE BOIS TRIE";"85200";"SERIGNE";"Pylône autostable"; 36.9;"IFW-FREE"
1892337;-1.42611;46.71333;"01° 25' 34.00'' Ouest, 46° 42' 48.00'' Nord";"85155";;"CHEM DE LA MORELLIÈRE";"85000";"MOUILLERON-LE-CAPTIF";"Pylône autostable"; 27.0;"SFR"
1899958;-1.80361;46.64694;"01° 48' 13.00'' Ouest, 46° 38' 49.00'' Nord";"85120";;"RUE DES ARTISANS";"85220";"LANDEVIEILLE";"Pylône tubulaire"; 25.9;"IFW-FREE"
1909302;-1.62306;46.83417;"01° 37' 23.00'' Ouest, 46° 50' 03.00'' Nord";"85210";"LA SEILLERIE";"LA BOUTIERE";"85670";"SAINT-ETIENNE-DU-BOIS";"Pylône autostable"; 31.8;"IFW-FREE"
1914985;-1.59500;46.83056;"01° 35' 42.00'' Ouest, 46° 49' 50.00'' Nord";"85210";;"RUE DU STADE EGLISE";"85670";"SAINT-ETIENNE-DU-BOIS";"Monument religieux"; 44.0;"Commune, communauté de commune"
1921069;-1.00194;46.96528;"01° 00' 07.00'' Ouest, 46° 57' 55.00'' Nord";"85302";;"1 AV DE L'EUROPE BATIMENT B";"85130";"LA VERRIE";"Bâtiment"; 12.0;"Société Privée SA"
1930681;-1.65861;46.60611;"01° 39' 31.00'' Ouest, 46° 36' 22.00'' Nord";"85152";;"ZONE ACTIVITES NORD RUE DU PONT ROUGE";"85150";"LA MOTHE-ACHARD";"Pylône autostable"; 36.9;"IFW-FREE"
1931284;-1.58556;46.74389;"01° 35' 08.00'' Ouest, 46° 44' 38.00'' Nord";"85003";;"ROUTE DU POIRE ZONE INDUSTRIELLE DE LA FORET";"85190";"AIZENAY";"Pylône autostable"; 36.9;"IFW-FREE"
1933801;-1.77944;46.73972;"01° 46' 46.00'' Ouest, 46° 44' 23.00'' Nord";"85006";"LA BELLE EAU";"RTE DÉPART. 107";"85220";"APREMONT";"Bâtiment"; 9.5;"Société Privée SA"
1936378;-1.15806;46.79611;"01° 09' 29.00'' Ouest, 46° 47' 46.00'' Nord";"85212";;"RN N°160 TRANSPORT MOUSSET";"85140";"SAINTE-FLORENCE";"Bâtiment"; 14.4;"Société Privée SA"
1938042;-1.39500;46.34389;"01° 23' 42.00'' Ouest, 46° 20' 38.00'' Nord";"85294";;"16 AV DE STE-ANNE CAMPING LES PRÉVEILS";"85360";"LA TRANCHE-SUR-MER";"Pylône tubulaire"; 25.9;"IFW-FREE"
1942302;-1.03861;46.69889;"01° 02' 19.00'' Ouest, 46° 41' 56.00'' Nord";"85051";;"5 RUE DE L'INDUSTRIE";"85110";"CHANTONNAY";"Pylône autostable"; 31.8;"IFW-FREE"
1942304;-0.77528;46.45806;"00° 46' 31.00'' Ouest, 46° 27' 29.00'' Nord";"85092";;"ALLEE DE LA CLE DE FER";"85200";"FONTENAY-LE-COMTE";"Pylône autostable"; 36.9;"IFW-FREE"
1942306;-0.75611;46.44167;"00° 45' 22.00'' Ouest, 46° 26' 30.00'' Nord";"85244";;"LE FIEF DU QUART";"85200";"SAINT-MARTIN-DE-FRAIGNEAU";"Pylône autostable"; 31.8;"IFW-FREE"
1944580;-1.04056;46.61056;"01° 02' 26.00'' Ouest, 46° 36' 38.00'' Nord";"85188";"LE CHAMPS MAROTTE";;"85210";"LA REORTHE";"Pylône autostable"; 36.9;"IFW-FREE"
1949706;-1.37056;46.69694;"01° 22' 14.00'' Ouest, 46° 41' 49.00'' Nord";"85191";;"R HENRI BESSEMER";"85000";"LA ROCHE-SUR-YON";"Bâtiment"; 12.0;"Société Privée SA"
1955020;-1.35194;46.96222;"01° 21' 07.00'' Ouest, 46° 57' 44.00'' Nord";"85027";"PA VENDEE SUD LOIRE";"R GUSTAVE EIFFEL";"85600";"BOUFFERE";"Bâtiment"; 13.5;"Société Privée SA"
1960548;-0.86639;46.81611;"00° 51' 59.00'' Ouest, 46° 48' 58.00'' Nord";"85090";;"ZI LA BLAUDERIE";"85700";"LA FLOCELLIERE";"Pylône autostable"; 36.9;"IFW-FREE"
1970733;-2.06500;46.78500;"02° 03' 54.00'' Ouest, 46° 47' 06.00'' Nord";"85234";;"AVENUE DE LA FORET";"85160";"SAINT-JEAN-DE-MONTS";"Pylône tubulaire"; 46.6;"TDF"
1983435;-1.73778;46.50222;"01° 44' 16.00'' Ouest, 46° 30' 08.00'' Nord";"85060";;"R DES ANCIENS COMBATTANTS";"85180";"CHATEAU-D'OLONNE";"Pylône tubulaire"; 27.0;"ORANGE"
1985108;-2.23278;47.00917;"02° 13' 58.00'' Ouest, 47° 00' 33.00'' Nord";"85163";;"AV DU MARECHAL JOFFRE STADE";"85330";"NOIRMOUTIER-EN-L'ILE";"Pylône tubulaire"; 22.8;"IFW-FREE"
1985200;-2.25000;47.00028;"02° 15' 00.00'' Ouest, 47° 00' 01.00'' Nord";"85163";;"22 RUE DE LA PRÉE AU DUC ESPACE HUBERT POIGNANT";"85330";"NOIRMOUTIER-EN-L'ILE";"Mât"; 12.0;"ORANGE"
1985202;-1.43444;46.71083;"01° 26' 04.00'' Ouest, 46° 42' 39.00'' Nord";"85155";;"RUE DU CLAIR BOCAGE ZONE RÉGIE DU VENDESPACE";"85000";"MOUILLERON-LE-CAPTIF";"Mât"; 12.0;"ORANGE"
1990146;-0.77972;46.83000;"00° 46' 47.00'' Ouest, 46° 49' 48.00'' Nord";"85180";"LA PAYNAUDIÈRE";;"85700";"LA POMMERAIE-SUR-SEVRE";"Pylône autostable"; 18.7;"ORANGE"
1990148;-0.94639;46.32944;"00° 56' 47.00'' Ouest, 46° 19' 46.00'' Nord";"85111";;"RUE DU PRIEURÉ";"85770";"L'ILE-D'ELLE";"Pylône tubulaire"; 22.0;"ORANGE Services Fixes"
1991392;-1.42750;46.67083;"01° 25' 39.00'' Ouest, 46° 40' 15.00'' Nord";"85191";;"PLACE NAPOLÉON";"85000";"LA ROCHE-SUR-YON";"Mât"; 12.0;"ORANGE"
1993731;-0.66694;46.54528;"00° 40' 01.00'' Ouest, 46° 32' 43.00'' Nord";"85094";"LE CHAMP DES SEPPES";;"85240";"FOUSSAIS-PAYRE";"Pylône autostable"; 36.9;"IFW-FREE"
1993733;-1.42611;46.70917;"01° 25' 34.00'' Ouest, 46° 42' 33.00'' Nord";"85191";;"ZA JACQUES YVES COUSTEAU";"85000";"LA ROCHE-SUR-YON";"Pylône tubulaire"; 36.2;"IFW-FREE"
1998699;-0.84694;46.67278;"00° 50' 49.00'' Ouest, 46° 40' 22.00'' Nord";"85154";"LA PRÉE DU PAVÉ";"RUE DU PAVÉ";"85390";"MOUILLERON-EN-PAREDS";"Mât"; 12.0;"ORANGE"
1998701;-0.79250;46.46250;"00° 47' 33.00'' Ouest, 46° 27' 45.00'' Nord";"85092";;"RUE DE NIORT";"85200";"FONTENAY-LE-COMTE";"Mât"; 12.0;"ORANGE"
2001778;-1.68333;46.48028;"01° 41' 00.00'' Ouest, 46° 28' 49.00'' Nord";"85288";;"IMP DES ARPENTS";"85440";"TALMONT-SAINT-HILAIRE";"Pylône tubulaire"; 36.2;"IFW-FREE"
2002417;-1.43306;46.80417;"01° 25' 59.00'' Ouest, 46° 48' 15.00'' Nord";"85279";"LES FLÈCHES";;"85170";"SALIGNY";"Pylône autostable"; 26.0;"ORANGE"
2002419;-1.58861;46.61750;"01° 35' 19.00'' Ouest, 46° 37' 03.00'' Nord";"85211";;"RUE DES ECUREUILS LA PETITE CHAUVIÈRE SERVICES TECHNIQUES MUNICIPAUX";"85150";"SAINTE-FLAIVE-DES-LOUPS";"Pylône autostable"; 38.0;"ORANGE"
2003017;-1.22667;46.65444;"01° 13' 36.00'' Ouest, 46° 39' 16.00'' Nord";"85093";"LANDES BLANCHES";;"85480";"FOUGERE";"Pylône autostable"; 36.9;"IFW-FREE"
2003055;-1.10417;46.47778;"01° 06' 15.00'' Ouest, 46° 28' 40.00'' Nord";"85216";;"RUE DES FONTAINES GIRAUDEAU LA THÉBLIÈRE";"85400";"SAINTE-GEMME-LA-PLAINE";"Pylône autostable"; 25.0;"ORANGE"
2003057;-1.04944;46.98417;"01° 02' 58.00'' Ouest, 46° 59' 03.00'' Nord";"85198";;"D53 - LA ROULLIÈRE LES GRANDES CHENETIÈRES";"85130";"SAINT-AUBIN-DES-ORMEAUX";"Pylône autostable"; 24.0;"ORANGE"
2003059;-1.11222;47.01028;"01° 06' 44.00'' Ouest, 47° 00' 37.00'' Nord";"85293";;"RUE ST LAZARE STADE MUNICIPAL DE TIFFAUGES";"85130";"TIFFAUGES";"Pylône tubulaire"; 20.5;"ORANGE"
2003758;-1.00722;46.50278;"01° 00' 26.00'' Ouest, 46° 30' 10.00'' Nord";"85209";;"ROUTE DU GRAND MAGNIL D10";"85210";"SAINT-ETIENNE-DE-BRILLOUET";"Pylône autostable"; 36.9;"IFW-FREE"
2003832;-1.23833;46.61500;"01° 14' 18.00'' Ouest, 46° 36' 54.00'' Nord";"85291";;"RUE DU PATUREAU";"85480";"THORIGNY";"Pylône autostable"; 25.0;"ORANGE"
2003834;-0.77167;46.74417;"00° 46' 18.00'' Ouest, 46° 44' 39.00'' Nord";"85147";;"RUE FREDERIC CHOPIN";"85700";"MONTOURNAIS";"Pylône tubulaire"; 28.0;"ORANGE"
2003836;-1.34528;46.51250;"01° 20' 43.00'' Ouest, 46° 30' 45.00'' Nord";"85050";;"RUE DES TOURTERELLES";"85540";"LE CHAMP-SAINT-PERE";"Pylône autostable"; 52.0;"ORANGE Services Fixes"
2003838;-0.95139;46.43889;"00° 57' 05.00'' Ouest, 46° 26' 20.00'' Nord";"85121";;"RUE DE LA PELGAUDERIE STADE";"85370";"LE LANGON";"Pylône autostable"; 26.3;"ORANGE Services Fixes"
2004676;-1.51306;46.62667;"01° 30' 47.00'' Ouest, 46° 37' 36.00'' Nord";"85069";;"RUE DES SPORTS STADE MUNICIPAL";"85430";"LES CLOUZEAUX";"Pylône autostable"; 24.0;"ORANGE"
2004678;-1.82778;46.66556;"01° 49' 40.00'' Ouest, 46° 39' 56.00'' Nord";"85002";;"RUE DU LOGIS RUE DU MARAIS";"85220";"L'AIGUILLON-SUR-VIE";"Pylône autostable"; 30.4;"ORANGE"
2004680;-1.31833;46.88472;"01° 19' 06.00'' Ouest, 46° 53' 05.00'' Nord";"85038";;"38 RUE DE LA COLONNE";"85260";"LES BROUZILS";"Pylône tubulaire"; 25.0;"ORANGE"
