Numéro du support;Longitude;Latitude;"Position";"Insee";"Lieu dit";"Adresse";"Code postal";"Commune";"Nature du support";Hauteur en m;"Propriétaire"
20076;1.26778;45.85750;"01° 16' 04.00'' Est, 45° 51' 27.00'' Nord";"87085";"MOULIN PINARD";;"87280";"LIMOGES";"Pylône autostable"; 30.0;"TDF"
20110;1.17611;46.34722;"01° 10' 34.00'' Est, 46° 20' 50.00'' Nord";"87087";"DU PIQUET";"CD NO 24 DU BELLAC";"87360";"LUSSAC-LES-EGLISES";"Pylône autostable"; 25.0;"ORANGE Services Fixes"
20114;1.09833;46.27806;"01° 05' 54.00'' Est, 46° 16' 41.00'' Nord";"87195";"LA CROIX DE LA GETTE";"ETANG DE BOS";"87360";"TERSANNES";"Pylône haubané"; 49.0;"ORANGE Services Fixes"
20192;1.39583;46.00750;"01° 23' 45.00'' Est, 46° 00' 27.00'' Nord";"87183";"LES BRULOUX - GRANDMONT";"D 78 CHEM DE ST SYLVESTRE À ST LÉGER";"87240";"SAINT-SYLVESTRE";"Pylône autostable"; 46.0;"ANFR"
87315;1.23389;45.84500;"01° 14' 02.00'' Est, 45° 50' 42.00'' Nord";"87085";;"3 ALLÉE LE TITIEN";"87280";"LIMOGES";"Immeuble"; 54.5;"Société HLM"
87379;1.19222;46.17917;"01° 11' 32.00'' Est, 46° 10' 45.00'' Nord";"87061";"LES ECHALIERS";;"87190";"DROUX";"Pylône autostable"; 40.0;"BOUYGUES"
106692;0.94028;46.11167;"00° 56' 25.00'' Est, 46° 06' 42.00'' Nord";"87097";"BOIS DE LA LANDE";"LES FOSSES";"87330";"MEZIERES-SUR-ISSOIRE";"Pylône autostable"; 30.0;"ORANGE"
240425;1.23139;45.84389;"01° 13' 53.00'' Est, 45° 50' 38.00'' Nord";"87085";;"2 ALLÉE KAHN";"87280";"LIMOGES";"Immeuble"; 28.0;"Société HLM"
277711;1.25889;45.85472;"01° 15' 32.00'' Est, 45° 51' 17.00'' Nord";"87085";;"5 ALLÉE COLETTE";"87280";"LIMOGES";"Immeuble"; 29.0;"Société HLM"
277713;1.26889;45.81778;"01° 16' 08.00'' Est, 45° 49' 04.00'' Nord";"87085";;"21 R DES PORTES FERRÉES";"87280";"LIMOGES";"Immeuble"; 21.0;"Société HLM"
278405;1.24083;45.83806;"01° 14' 27.00'' Est, 45° 50' 17.00'' Nord";"87085";;"AV ALBERT THOMAS";"87280";"LIMOGES";"Bâtiment"; 28.0;"Société Privée SA"
292194;1.29639;45.87833;"01° 17' 47.00'' Est, 45° 52' 42.00'' Nord";"87085";;"23 ALLÉE FABRE D'EGLANTINE";"87280";"LIMOGES";"Immeuble"; 30.0;"Société HLM"
292358;1.30111;45.84861;"01° 18' 04.00'' Est, 45° 50' 55.00'' Nord";"87085";;"72 RTE DU PALAIS CHATEAU D'EAU";"87280";"LIMOGES";"Château d'eau - réservoir"; 42.0;"Société Privée SA"
296468;1.24861;45.82722;"01° 14' 55.00'' Est, 45° 49' 38.00'' Nord";"87085";;"3 AV ST ELOI";"87280";"LIMOGES";"Immeuble"; 20.0;"Copropriété, Syndic, SCI"
299638;1.29111;45.83667;"01° 17' 28.00'' Est, 45° 50' 12.00'' Nord";"87114";"DOMAINE DES VIGNES";"2 AV DU PRÉSIDENT RENÉ COTY";"87350";"PANAZOL";"Pylône tubulaire"; 24.0;"ORANGE"
300265;1.27056;45.87861;"01° 16' 14.00'' Est, 45° 52' 43.00'' Nord";"87085";"LE MAUZELET";"8 R PANHARD LEVASSOR ZI NORD";"87280";"LIMOGES";"Pylône tubulaire"; 24.0;"ORANGE"
319098;1.22722;45.80833;"01° 13' 38.00'' Est, 45° 48' 30.00'' Nord";"87075";;"4 R LÉON BÉTOULLE";"87170";"ISLE";"Bâtiment"; 28.0;"Société HLM"
319100;1.28667;45.88056;"01° 17' 12.00'' Est, 45° 52' 50.00'' Nord";"87085";"LE PETIT THEIL";"R DU PETIT THEIL Z.I NORD";"87280";"LIMOGES";"Pylône tubulaire"; 21.0;"ORANGE"
328839;1.25778;45.82944;"01° 15' 28.00'' Est, 45° 49' 46.00'' Nord";"87085";;"25 PL DES BANCS";"87280";"LIMOGES";"Bâtiment"; 20.0;"Copropriété, Syndic, SCI"
333863;1.51444;45.94278;"01° 30' 52.00'' Est, 45° 56' 34.00'' Nord";"87157";"LE PONT DU DOGNON";"CAMPING MUNICIPAL CD 29";"87240";"SAINT-LAURENT-LES-EGLISES";"Mât"; 10.0;"ORANGE"
338467;1.25611;45.83000;"01° 15' 22.00'' Est, 45° 49' 48.00'' Nord";"87085";;"PL DE LA MOTTE AGENCE FT";"87280";"LIMOGES";"Bâtiment"; 20.3;"Particulier"
353764;1.17500;46.21806;"01° 10' 30.00'' Est, 46° 13' 05.00'' Nord";"87089";;"BEAUSEJOUR 8 AVE G SAND";"87190";"MAGNAC-LAVAL";"Château d'eau - réservoir"; 35.0;"Syndicat des eaux, Adduction"
356182;1.50472;45.62778;"01° 30' 17.00'' Est, 45° 37' 40.00'' Nord";"87146";"LE GRAND CHAMP DE CHASSAGNAS";;"87380";"SAINT-GERMAIN-LES-BELLES";"Pylône tubulaire"; 13.0;"Société Privée SA"
391706;1.26139;45.82111;"01° 15' 41.00'' Est, 45° 49' 16.00'' Nord";"87085";;"19 BIS AV DE LA RÉVOLUTION";"87280";"LIMOGES";"Immeuble"; 34.0;"EDF ou GDF"
391710;1.53361;45.82083;"01° 32' 01.00'' Est, 45° 49' 15.00'' Nord";"87161";"CHASSAGNAT";;"87400";"SAINT-LEONARD-DE-NOBLAT";"Pylône autostable"; 41.0;"EDF ou GDF"
391712;1.70444;45.68944;"01° 42' 16.00'' Est, 45° 41' 22.00'' Nord";"87064";"VILLEMONTEIX";;"87120";"EYMOUTIERS";"Pylône autostable"; 46.0;"EDF ou GDF"
395879;1.44972;46.03583;"01° 26' 59.00'' Est, 46° 02' 09.00'' Nord";"87159";"LES FANÈRES";"LES FANÈRES";"87340";"SAINT-LEGER-LA-MONTAGNE";"Pylône autostable"; 40.0;"EDF ou GDF"
395881;1.30167;45.81028;"01° 18' 06.00'' Est, 45° 48' 37.00'' Nord";"87065";;"13 R LOUIS ARMAND ZA LE PONTEIX";"87220";"FEYTIAT";"Bâtiment"; 12.0;"EDF ou GDF"
396483;1.23333;45.84472;"01° 14' 00.00'' Est, 45° 50' 41.00'' Nord";"87085";;"18 R OLIVIER DE SERRES";"87280";"LIMOGES";"Immeuble"; 55.0;"Société HLM"
398234;1.29917;45.87611;"01° 17' 57.00'' Est, 45° 52' 34.00'' Nord";"87085";"BEAUBREUIL";"4 ALLÉE FABRE D'EGLANTINE";"87280";"LIMOGES";"Immeuble"; 48.0;"Société HLM"
424137;1.12417;46.16028;"01° 07' 27.00'' Est, 46° 09' 37.00'' Nord";"87061";"LE PETIT MONT";"VOIE COMMUNALE";"87190";"DROUX";"Pylône autostable"; 30.0;"ORANGE"
428491;1.29111;45.86333;"01° 17' 28.00'' Est, 45° 51' 48.00'' Nord";"87085";;"2 R COLOMBIA";"87000";"LIMOGES";"Pylône tubulaire"; 22.0;"ORANGE"
435834;1.42889;46.32472;"01° 25' 44.00'' Est, 46° 19' 29.00'' Nord";"87182";"PEU DES QUATRE VENTS";;"87160";"SAINT-SULPICE-LES-FEUILLES";"Pylône autostable"; 43.0;"HIVORY"
437450;1.18889;45.88556;"01° 11' 20.00'' Est, 45° 53' 08.00'' Nord";"87050";"LES PIÈCES DE LESSINE";;"87270";"COUZEIX";"Pylône autostable"; 28.0;"ATC FRANCE"
437738;1.24361;45.84139;"01° 14' 37.00'' Est, 45° 50' 29.00'' Nord";"87085";;"1 À 7 R DES PALMIERS";"87000";"LIMOGES";"Immeuble"; 25.0;"Copropriété, Syndic, SCI"
438071;1.28111;46.13556;"01° 16' 52.00'' Est, 46° 08' 08.00'' Nord";"87041";"LES GACHES";"R DU CHÂTEAU D'EAU PL DU 19 MARS 1962";"87290";"CHATEAUPONSAC";"Château d'eau - réservoir"; 28.0;"Commune, communauté de commune"
440613;1.30611;45.81528;"01° 18' 22.00'' Est, 45° 48' 55.00'' Nord";"87065";"LA VIGNE DE CRÉZIN";"R DE LA PORCELAINE ZI DU PONTEIX";"87220";"FEYTIAT";"Pylône tubulaire"; 30.0;"ORANGE"
441222;1.30306;45.63278;"01° 18' 11.00'' Est, 45° 37' 58.00'' Nord";"87176";"LA TRAPPE";"CHEM RURAL";"87800";"SAINT-PRIEST-LIGOURE";"Pylône autostable"; 35.0;"ATC FRANCE"
443624;1.04667;46.12139;"01° 02' 48.00'' Est, 46° 07' 17.00'' Nord";"87011";;"14 PL DE LA REPUBLIQUE";"87300";"BELLAC";"Bâtiment"; 14.0;"Particulier"
443823;1.09806;46.21056;"01° 05' 53.00'' Est, 46° 12' 38.00'' Nord";"87059";"LAMONT";"CHÂTEAU D'EAU DE LAMONT";"87210";"LE DORAT";"Château d'eau - réservoir"; 41.0;"Commune, communauté de commune"
446292;1.06528;46.12250;"01° 03' 55.00'' Est, 46° 07' 21.00'' Nord";"87011";"LES MÉZIÈRES";"AVENUE DE LA LIBÉRATION";"87300";"BELLAC";"Pylône autostable"; 38.0;"ORANGE Services Fixes"
447356;1.22417;46.18611;"01° 13' 27.00'' Est, 46° 11' 10.00'' Nord";"87057";"LE MARMENOUX";;"87190";"DOMPIERRE-LES-EGLISES";"Pylône autostable"; 39.0;"TDF"
447447;1.59333;45.71500;"01° 35' 36.00'' Est, 45° 42' 54.00'' Nord";"87040";"LE CHALARD";;"87130";"CHATEAUNEUF-LA-FORET";"Pylône autostable"; 35.0;"TDF"
449345;1.20444;45.55167;"01° 12' 16.00'' Est, 45° 33' 06.00'' Nord";"87187";"BOURDELAS";"MARCHÉ À BESTIAUX ZA BOURDELAS";"87500";"SAINT-YRIEIX-LA-PERCHE";"Pylône tubulaire"; 30.0;"ORANGE"
449481;1.23139;45.82889;"01° 13' 53.00'' Est, 45° 49' 44.00'' Nord";"87085";;"R DU PUY LAS RODAS";"87000";"LIMOGES";"Pylône autostable"; 74.0;"TDF"
450273;1.28222;45.80583;"01° 16' 56.00'' Est, 45° 48' 21.00'' Nord";"87085";;"10 R LÉON WALRAS  SOCIÉTÉ MILLER GRAPHICS";"87000";"LIMOGES";"Pylône tubulaire"; 25.0;"ORANGE"
450482;1.31250;45.78028;"01° 18' 45.00'' Est, 45° 46' 49.00'' Nord";"87205";"LE BAS FAURE";"LE PETIT L'AGE VOIE COM PRÈS DU CHÂTEAU D'EAU";"87110";"LE VIGEN";"Tour hertzienne"; 94.0;"TDF"
452387;1.24639;45.76722;"01° 14' 47.00'' Est, 45° 46' 02.00'' Nord";"87048";"LE PRE MARTIN VEYRINAS";;"87920";"CONDAT-SUR-VIENNE";"Pylône autostable"; 35.0;"TDF"
455960;0.88528;45.87972;"00° 53' 07.00'' Est, 45° 52' 47.00'' Nord";"87154";"CODILLE";"PEYRISSAT";"87200";"SAINT-JUNIEN";"Pylône autostable"; 44.0;"TDF"
456949;1.30056;46.20583;"01° 18' 02.00'' Est, 46° 12' 21.00'' Nord";"87180";"PEU GRAND";"RTE DE ST SORNIN LEULAC À CHANTEGRELLE";"87290";"SAINT-SORNIN-LEULAC";"Pylône autostable"; 30.0;"HIVORY"
457881;1.22722;45.80750;"01° 13' 38.00'' Est, 45° 48' 27.00'' Nord";"87075";"LES BAYLES";"6 R LEON BETOULLE";"87170";"ISLE";"Immeuble"; 29.7;"Copropriété, Syndic, SCI"
465843;1.42528;45.91889;"01° 25' 31.00'' Est, 45° 55' 08.00'' Nord";"87167";"LE BOST";"VOIE COMMUNALE N° 5 B";"87400";"SAINT-MARTIN-TERRESSUS";"Pylône autostable"; 40.0;"TDF"
468848;1.29194;46.09361;"01° 17' 31.00'' Est, 46° 05' 37.00'' Nord";"87041";"FOURNACHOUX";;"87290";"CHATEAUPONSAC";"Pylône autostable"; 51.0;"TDF"
468915;1.28861;45.77833;"01° 17' 19.00'' Est, 45° 46' 42.00'' Nord";"87205";"LA CROIX DE L'ARBRE";"CHEM DÉPARTEMENTAL N° 704";"87110";"LE VIGEN";"Pylône autostable"; 56.0;"TDF"
472757;1.21222;45.80833;"01° 12' 44.00'' Est, 45° 48' 30.00'' Nord";"87075";;"R DE L'AIGUILLE D 74 CHÂTEAU D'EAU";"87170";"ISLE";"Château d'eau - réservoir"; 23.0;"Syndicat des eaux, Adduction"
472784;1.21278;45.81750;"01° 12' 46.00'' Est, 45° 49' 03.00'' Nord";"87075";;"R JEAN PERRIN ETS LASSINCE";"87170";"ISLE";"Pylône tubulaire"; 30.0;"ORANGE"
475383;0.85750;45.91222;"00° 51' 27.00'' Est, 45° 54' 44.00'' Nord";"87154";"PLAUD";"PRÈS D21A";"87200";"SAINT-JUNIEN";"Pylône autostable"; 28.0;"RTE"
477630;1.28750;45.82861;"01° 17' 15.00'' Est, 45° 49' 43.00'' Nord";"87114";"LES VIGNES";"R CLÉMENCEAU";"87350";"PANAZOL";"Pylône autostable"; 45.0;"TDF"
478851;1.14306;45.80056;"01° 08' 35.00'' Est, 45° 48' 02.00'' Nord";"87001";"LES RIVAUDS";"IMP DU RELAIS";"87700";"AIXE-SUR-VIENNE";"Mât béton"; 27.0;"TDF"
483274;1.29944;45.87000;"01° 17' 58.00'' Est, 45° 52' 12.00'' Nord";"87085";;"R DE FOUGERAS";"87000";"LIMOGES";"Pylône autostable"; 85.0;"TDF"
484745;1.12694;45.84889;"01° 07' 37.00'' Est, 45° 50' 56.00'' Nord";"87201";;"PL DE L'EGLISE";"87430";"VERNEUIL-SUR-VIENNE";"Monument religieux"; 29.0;"Commune, communauté de commune"
486868;1.22306;45.87667;"01° 13' 23.00'' Est, 45° 52' 36.00'' Nord";"87050";"COYOL";;"87270";"COUZEIX";"Pylône autostable"; 36.0;"ORANGE"
487474;1.13722;46.05889;"01° 08' 14.00'' Est, 46° 03' 32.00'' Nord";"87012";"LA GOURINOTE";"CHEM RURAL - VC N°201";"87300";"BERNEUIL";"Château d'eau - réservoir"; 26.0;"Syndicat des eaux, Adduction"
498637;1.40694;45.95444;"01° 24' 25.00'' Est, 45° 57' 16.00'' Nord";"87002";;"R MARYSE BASTIÉ - LA GARE";"87240";"AMBAZAC";"Pylône autostable"; 31.0;"TDF"
498841;1.04306;46.11250;"01° 02' 35.00'' Est, 46° 06' 45.00'' Nord";"87011";"LE GUI NOIR";;"87300";"BELLAC";"Pylône autostable"; 46.0;"TDF"
498981;1.14861;45.86056;"01° 08' 55.00'' Est, 45° 51' 38.00'' Nord";"87201";"MOULIN DE TRANCHEPIE";;"87430";"VERNEUIL-SUR-VIENNE";"Pylône autostable"; 44.0;"TDF"
499412;1.22750;45.92361;"01° 13' 39.00'' Est, 45° 55' 25.00'' Nord";"87038";"CHANTELAUVE";"RTE DÉPART. 7";"87270";"CHAPTELAT";"Pylône autostable"; 44.0;"TDF"
505181;1.34000;45.78222;"01° 20' 24.00'' Est, 45° 46' 56.00'' Nord";"87019";"LES CHEVAILLES";;"87220";"BOISSEUIL";"Château d'eau - réservoir"; 64.0;"Syndicat des eaux, Adduction"
507154;1.29917;45.87194;"01° 17' 57.00'' Est, 45° 52' 19.00'' Nord";"87085";"BEAUBREUIL";"CHÂTEAU D'EAU DE BAUBREUIL AV DU CHÂTEAU D'EAU, CROISEMENT DE LA D142";"87000";"LIMOGES";"Château d'eau - réservoir"; 57.6;"Commune, communauté de commune"
508807;1.19139;46.00417;"01° 11' 29.00'' Est, 46° 00' 15.00'' Nord";"87103";"MIGOULET";"RTE DU HAMEAU DE MIGOULET";"87140";"NANTIAT";"Pylône autostable"; 65.0;"TDF"
508837;1.51056;45.56500;"01° 30' 38.00'' Est, 45° 33' 54.00'' Nord";"87120";"BEAUSOLEIL";;"87380";"LA PORCHERIE";"Tour hertzienne"; 58.0;"TDF"
510806;1.20500;45.52000;"01° 12' 18.00'' Est, 45° 31' 12.00'' Nord";"87187";"LES FIEUX";"AV DE LA GARE";"87500";"SAINT-YRIEIX-LA-PERCHE";"Pylône autostable"; 37.0;"BOUYGUES"
512316;1.10194;45.87611;"01° 06' 07.00'' Est, 45° 52' 34.00'' Nord";"87201";"BEAUVALET";"RTE DU HAMEAU DE BAGOULES";"87430";"VERNEUIL-SUR-VIENNE";"Pylône autostable"; 50.0;"TDF"
514524;1.43444;45.80750;"01° 26' 04.00'' Est, 45° 48' 27.00'' Nord";"87070";"LES CROUZETTES";;"87400";"LA GENEYTOUSE";"Pylône autostable"; 42.0;"ORANGE Services Fixes"
516129;0.83694;45.83361;"00° 50' 13.00'' Est, 45° 50' 01.00'' Nord";"87126";"LA GROSILLE";;"87600";"ROCHECHOUART";"Pylône tubulaire"; 52.0;"TDF"
518442;0.89972;45.87583;"00° 53' 59.00'' Est, 45° 52' 33.00'' Nord";"87154";"JARATY - CHEZ BEILLOU";;"87200";"SAINT-JUNIEN";"Pylône autostable"; 47.0;"TDF"
518607;1.47778;45.83972;"01° 28' 40.00'' Est, 45° 50' 23.00'' Nord";"87161";"LA VIGNE SAUVAGE";"RELAIS TV TDF LE PENAUD";"87400";"SAINT-LEONARD-DE-NOBLAT";"Pylône autostable"; 37.0;"TDF"
518674;1.10806;46.14583;"01° 06' 29.00'' Est, 46° 08' 45.00'' Nord";"87017";"MASFRANT";;"87300";"BLANZAC";"Pylône autostable"; 35.0;"TDF"
520872;1.37028;45.84833;"01° 22' 13.00'' Est, 45° 50' 54.00'' Nord";"87156";"PETIT BONNEFONT";;"87590";"SAINT-JUST-LE-MARTEL";"Pylône autostable"; 35.0;"TDF"
520966;1.24639;45.81833;"01° 14' 47.00'' Est, 45° 49' 06.00'' Nord";"87085";;"1, 3, 5 R ANDRÉ MESSAGER";"87000";"LIMOGES";"Immeuble"; 44.0;"Société HLM"
522892;1.37056;46.12889;"01° 22' 14.00'' Est, 46° 07' 44.00'' Nord";"87014";"LA GARE";"PRES DE L' INTERSEC  D711 ET  D220 LA CROIX DU BREUIL";"87250";"BESSINES-SUR-GARTEMPE";"Pylône autostable"; 47.0;"TDF"
523033;1.22222;45.76556;"01° 13' 20.00'' Est, 45° 45' 56.00'' Nord";"87021";"LA FRUGERIE";"CHEM RURAL";"87110";"BOSMIE-L'AIGUILLE";"Pylône tubulaire"; 34.0;"ORANGE Services Fixes"
523125;0.96500;45.76472;"00° 57' 54.00'' Est, 45° 45' 53.00'' Nord";"87158";"LES GENTES";;"87310";"SAINT-LAURENT-SUR-GORRE";"Pylône autostable"; 24.0;"ORANGE"
535495;0.81972;45.87500;"00° 49' 11.00'' Est, 45° 52' 30.00'' Nord";"87131";"AUSSEDAT-REY";"USINE À PAPIER INTERNATIONAL PAPER";"87720";"SAILLAT-SUR-VIENNE";"Bâtiment"; 68.3;"Société Privée SA"
536858;1.03083;46.02583;"01° 01' 51.00'' Est, 46° 01' 33.00'' Nord";"87018";"BACHELLERIE";;"87300";"BLOND";"Tour hertzienne"; 40.0;"Aviation Civile"
539083;1.22833;45.51361;"01° 13' 42.00'' Est, 45° 30' 49.00'' Nord";"87187";;"R DES GIROFLÉES CHATEAU D'EAU DU STADE";"87500";"SAINT-YRIEIX-LA-PERCHE";"Château d'eau - réservoir"; 48.0;"Syndicat des eaux, Adduction"
544608;1.19750;45.50583;"01° 11' 51.00'' Est, 45° 30' 21.00'' Nord";"87187";;"R DU COLONEL GARREAU DE LA MICHENIE";"87500";"SAINT-YRIEIX-LA-PERCHE";"Pylône tubulaire"; 30.0;"ORANGE"
559425;1.33583;45.81500;"01° 20' 09.00'' Est, 45° 48' 54.00'' Nord";"87065";"LA CROIX ROUGE";"47 AV DE LA LIBÉRATION STADE PIERRE LACORE";"87220";"FEYTIAT";"Pylône tubulaire"; 32.0;"HIVORY"
563513;0.90111;45.87667;"00° 54' 04.00'' Est, 45° 52' 36.00'' Nord";"87154";;"CHEM COMMUNAL N°87 PYLÔNE RTE N°41";"87200";"SAINT-JUNIEN";"Pylône autostable"; 34.0;"RTE"
563519;0.88528;45.88139;"00° 53' 07.00'' Est, 45° 52' 53.00'' Nord";"87154";;"CHEM DE THONNISSERIE PYLÔNE RTE N°36";"87200";"SAINT-JUNIEN";"Pylône autostable"; 34.0;"RTE"
564241;1.02833;45.90167;"01° 01' 42.00'' Est, 45° 54' 06.00'' Nord";"87110";"LE LOUBIER";;"87520";"ORADOUR-SUR-GLANE";"Pylône autostable"; 49.0;"ATC FRANCE"
571497;1.25694;45.82833;"01° 15' 25.00'' Est, 45° 49' 42.00'' Nord";"87085";;"40 BD GAMBETTA";"87000";"LIMOGES";"Immeuble"; 29.0;"Copropriété, Syndic, SCI"
572074;1.65083;45.65028;"01° 39' 03.00'' Est, 45° 39' 01.00'' Nord";"87194";"MEILLAC";;"87130";"SUSSAC";"Pylône autostable"; 46.0;"TDF"
572116;1.82889;45.80972;"01° 49' 44.00'' Est, 45° 48' 35.00'' Nord";"87117";"PUY LENTY";"CHEMIN BEL";"87470";"PEYRAT-LE-CHATEAU";"Pylône autostable"; 35.0;"TDF"
574286;1.81056;45.78389;"01° 48' 38.00'' Est, 45° 47' 02.00'' Nord";"87117";"PAIN POT";"GRAND GRAMMONT ABRI COMMUNAL";"87470";"PEYRAT-LE-CHATEAU";"Pylône autostable"; 25.0;"ORANGE Services Fixes"
581296;1.06500;46.12306;"01° 03' 54.00'' Est, 46° 07' 23.00'' Nord";"87011";"LES MÉZIÈRES";"CHÂTEAU D'EAU";"87300";"BELLAC";"Château d'eau - réservoir"; 29.0;"Commune, communauté de commune"
582190;1.22222;45.51250;"01° 13' 20.00'' Est, 45° 30' 45.00'' Nord";"87187";"LA SEYNIE";;"87500";"SAINT-YRIEIX-LA-PERCHE";"Pylône autostable"; 45.0;"ORANGE"
587355;1.28944;45.75583;"01° 17' 22.00'' Est, 45° 45' 21.00'' Nord";"87205";"MAISON NEUVE";"AV DU VIADUC (CD704 LE VIGEN LIMOGES) CHEM D' ACCÈS AU POSTE ÉLECTRIQUE SITE SFR 870225";"87110";"LE VIGEN";"Pylône autostable"; 30.0;"HIVORY"
588744;1.11583;45.87194;"01° 06' 57.00'' Est, 45° 52' 19.00'' Nord";"87202";"LA BOUTEILLE";"PRÈS N.141";"87520";"VEYRAC";"Pylône autostable"; 40.0;"ORANGE"
593134;1.41917;46.04000;"01° 25' 09.00'' Est, 46° 02' 24.00'' Nord";"87159";"LE GROS CHEYROUX";"FONT SOUS RIVE";"87340";"SAINT-LEGER-LA-MONTAGNE";"Pylône autostable"; 45.0;"Conseil Départemental"
597140;1.16972;45.93389;"01° 10' 11.00'' Est, 45° 56' 02.00'' Nord";"87107";"LE MAS DU PUY";;"87510";"NIEUL";"Pylône autostable"; 42.0;"TDF"
597680;1.21694;45.67028;"01° 13' 01.00'' Est, 45° 40' 13.00'' Nord";"87106";"LE PLANTADIS NORD";"VC 8";"87800";"NEXON";"Pylône autostable"; 44.0;"ATC FRANCE"
603171;1.23139;45.82583;"01° 13' 53.00'' Est, 45° 49' 33.00'' Nord";"87085";;"CITÉ HENRI LAFARGE";"87000";"LIMOGES";"Immeuble"; 55.0;"Société HLM"
603607;1.75250;45.73222;"01° 45' 09.00'' Est, 45° 43' 56.00'' Nord";"87064";"LE CHATEAU ST PIERRE";"RTE DU CHATEAU";"87120";"EYMOUTIERS";"Pylône autostable"; 44.0;"TDF"
606242;1.25111;45.85028;"01° 15' 04.00'' Est, 45° 51' 01.00'' Nord";"87085";;"R LA BRUYÈRE ADM : 98 R DES TUILLIÈRES";"87000";"LIMOGES";"Immeuble"; 19.0;"Copropriété, Syndic, SCI"
607207;1.16361;45.96028;"01° 09' 49.00'' Est, 45° 57' 37.00'' Nord";"87118";"LA CHATAIGNERAIE";;"87510";"PEYRILHAC";"Pylône autostable"; 35.0;"HIVORY"
607229;1.34278;46.03417;"01° 20' 34.00'' Est, 46° 02' 03.00'' Nord";"87122";"PUY COR";"D.103 - PRÈS N.20 CENTRAL TÉLÉPHONIQUE";"87640";"RAZES";"Pylône autostable"; 32.0;"ORANGE Services Fixes"
610952;1.39139;45.95361;"01° 23' 29.00'' Est, 45° 57' 13.00'' Nord";"87002";"LA CROIX DE MURET";"ALLÉE DE MURET";"87240";"AMBAZAC";"Pylône tubulaire"; 39.0;"ORANGE"
612547;0.83750;45.83833;"00° 50' 15.00'' Est, 45° 50' 18.00'' Nord";"87126";"LA CROIX DE GROSILLE";"R DE MONACO";"87600";"ROCHECHOUART";"Château d'eau - réservoir"; 45.0;"Commune, communauté de commune"
612823;1.04444;45.89444;"01° 02' 40.00'' Est, 45° 53' 40.00'' Nord";"87202";"LA BARRE";"N.141 - CHEM RURAL";"87520";"VEYRAC";"Pylône autostable"; 46.0;"ORANGE Services Fixes"
612833;1.71722;45.72611;"01° 43' 02.00'' Est, 45° 43' 34.00'' Nord";"87064";"PUY DE LA BESSADE";;"87120";"EYMOUTIERS";"Pylône autostable"; 46.0;"ORANGE Services Fixes"
614196;0.91750;45.89667;"00° 55' 03.00'' Est, 45° 53' 48.00'' Nord";"87154";"LA VERGNE";"CHEZ LE PERRY PRÈS RN 141";"87200";"SAINT-JUNIEN";"Pylône autostable"; 30.0;"ORANGE Services Fixes"
615941;1.37639;45.67472;"01° 22' 35.00'' Est, 45° 40' 29.00'' Nord";"87203";"LA REYNIE";"A 20 / AIRE DE BRIANCE LIGOURE";"87260";"VICQ-SUR-BREUILH";"Pylône autostable"; 53.0;"SDIS, secours, incendie"
618189;1.00194;46.02333;"01° 00' 07.00'' Est, 46° 01' 24.00'' Nord";"87018";"PUYGRENIER";;"87300";"BLOND";"Pylône autostable"; 30.0;"Société Privée SA"
618191;1.59444;45.85444;"01° 35' 40.00'' Est, 45° 51' 16.00'' Nord";"87035";"LA LAUGERE";;"87400";"CHAMPNETERY";"Pylône autostable"; 35.0;"Société Privée SA"
618195;0.77222;45.75750;"00° 46' 20.00'' Est, 45° 45' 27.00'' Nord";"87044";"LA GRUE";;"87600";"CHERONNAC";"Pylône autostable"; 30.0;"Société Privée SA"
622031;1.26722;45.85722;"01° 16' 02.00'' Est, 45° 51' 26.00'' Nord";"87085";;"11 AV GUGLIELMO MARCONI RESERVOIR D EAU";"87000";"LIMOGES";"Château d'eau - réservoir"; 60.0;"Commune, communauté de commune"
635509;1.07056;45.65806;"01° 04' 14.00'' Est, 45° 39' 29.00'' Nord";"87029";"LES BORDERIES";"FORÊT DES CARS";"87230";"LES CARS";"Pylône haubané"; 230.0;"TDF"
643587;1.06889;45.65778;"01° 04' 08.00'' Est, 45° 39' 28.00'' Nord";"87029";;"FORÊT DES CARS STATION HERTZIENNE PYLONE FT";"87230";"LES CARS";"Pylône autostable"; 45.0;"ORANGE Services Fixes"
646789;1.33361;45.99833;"01° 20' 01.00'' Est, 45° 59' 54.00'' Nord";"87183";"VENTILLAC";;"87240";"SAINT-SYLVESTRE";"Pylône autostable"; 60.0;"HIVORY"
651444;1.24528;45.86722;"01° 14' 43.00'' Est, 45° 52' 02.00'' Nord";"87050";;"LE MAS BOURIANNE";"87270";"COUZEIX";"Pylône autostable"; 42.0;"TDF"
659030;1.25694;45.84833;"01° 15' 25.00'' Est, 45° 50' 54.00'' Nord";"87085";;"18 R DE STRASBOURG";"87000";"LIMOGES";"Immeuble"; 43.8;"Société HLM"
666802;1.29417;45.57944;"01° 17' 39.00'' Est, 45° 34' 46.00'' Nord";"87127";"COMBRAILLE";;"87700";"LA ROCHE-L'ABEILLE";"Pylône autostable"; 35.0;"EDF ou GDF"
666842;1.31722;45.93667;"01° 19' 02.00'' Est, 45° 56' 12.00'' Nord";"87020";"VEDRENNES";"FAUCHERIE VEDRENNES";"87270";"BONNAC-LA-COTE";"Pylône autostable"; 36.0;"ORANGE"
666958;1.04778;45.84194;"01° 02' 52.00'' Est, 45° 50' 31.00'' Nord";"87188";"ERIN - LA MALAISE";;"87700";"SAINT-YRIEIX-SOUS-AIXE";"Pylône autostable"; 40.0;"HIVORY"
668320;1.06056;45.59111;"01° 03' 38.00'' Est, 45° 35' 28.00'' Nord";"87027";"PUY DES JUSTICES";;"87230";"BUSSIERE-GALANT";"Pylône autostable"; 30.0;"Société Privée SA"
668322;0.84889;46.10306;"00° 50' 56.00'' Est, 46° 06' 11.00'' Nord";"87069";"LES VERGNES";;"87330";"GAJOUBERT";"Pylône autostable"; 25.0;"Société Privée SA"
670689;1.38417;46.13278;"01° 23' 03.00'' Est, 46° 07' 58.00'' Nord";"87014";"LES LANDES";"ROLLY D 1";"87250";"BESSINES-SUR-GARTEMPE";"Pylône autostable"; 54.0;"ORANGE Services Fixes"
672031;0.95500;45.90806;"00° 57' 18.00'' Est, 45° 54' 29.00'' Nord";"87154";"LES SÉGUINES";"RTE DÉPARTEMENTALE N°101 D32A VERS LA BRETAGNE";"87200";"SAINT-JUNIEN";"Pylône autostable"; 49.0;"TDF"
675871;1.35917;45.71028;"01° 21' 33.00'' Est, 45° 42' 37.00'' Nord";"87148";"LA CROIX";"PRÈS A 20";"87260";"SAINT-HILAIRE-BONNEVAL";"Pylône tubulaire"; 42.0;"HIVORY"
675941;1.02222;45.71111;"01° 01' 20.00'' Est, 45° 42' 40.00'' Nord";"87112";"PUY BONNIEUX";;"87230";"PAGEAS";"Pylône autostable"; 44.0;"TDF"
682098;1.01472;45.88222;"01° 00' 53.00'' Est, 45° 52' 56.00'' Nord";"87185";;"LE BOIS GOURDOU";"87420";"SAINT-VICTURNIEN";"Mât béton"; 17.5;"TDF"
685685;0.88556;45.65806;"00° 53' 08.00'' Est, 45° 39' 29.00'' Nord";"87060";"LE GRAND PUYCONNIEUX";"LA GUÉRITE";"87230";"DOURNAZAC";"Pylône autostable"; 44.5;"TDF"
685756;1.50083;46.04361;"01° 30' 03.00'' Est, 46° 02' 37.00'' Nord";"87181";;"CONSIDAT LA PIERRE DU ROI PYLONE TDF";"87370";"SAINT-SULPICE-LAURIERE";"Pylône autostable"; 25.0;"TDF"
688309;1.24611;45.76778;"01° 14' 46.00'' Est, 45° 46' 04.00'' Nord";"87048";"LE PRÉ MARTIN";"SITE ITAS TIM";"87920";"CONDAT-SUR-VIENNE";"Pylône autostable"; 36.0;"TDF"
688379;1.47639;45.84000;"01° 28' 35.00'' Est, 45° 50' 24.00'' Nord";"87161";"LA VIGNE SAUVAGE";"SITE ITAS TIM";"87400";"SAINT-LEONARD-DE-NOBLAT";"Pylône autostable"; 48.0;"TDF"
688831;1.05278;46.13583;"01° 03' 10.00'' Est, 46° 08' 09.00'' Nord";"87116";"TOUS VENTS";"CHÂTEAU D'EAU DE BEAUJOUR";"87300";"PEYRAT-DE-BELLAC";"Château d'eau - réservoir"; 48.0;"Syndicat des eaux, Adduction"
689030;0.94972;45.90639;"00° 56' 59.00'' Est, 45° 54' 23.00'' Nord";"87154";;"CHÂTEAU D'EAU DES SÉGUINES";"87200";"SAINT-JUNIEN";"Château d'eau - réservoir"; 38.0;"Syndicat des eaux, Adduction"
689508;1.23472;45.84556;"01° 14' 05.00'' Est, 45° 50' 44.00'' Nord";"87085";;"18 R OLIVIER DE SERRES";"87280";"LIMOGES";"Immeuble"; 60.0;"Société Privée SA"
690706;1.35000;45.85139;"01° 21' 00.00'' Est, 45° 51' 05.00'' Nord";"87114";"LOU DOUGNOUX";"RTE DU CHÂTEAU D'EAU";"87350";"PANAZOL";"Château d'eau - réservoir"; 48.5;"Syndicat des eaux, Adduction"
708919;1.54056;45.77389;"01° 32' 26.00'' Est, 45° 46' 26.00'' Nord";"87142";"LE CHATENET EST";"LES BRUGES VAUX";"87400";"SAINT-DENIS-DES-MURS";"Pylône autostable"; 31.0;"TDF"
712464;1.35806;46.08306;"01° 21' 29.00'' Est, 46° 04' 59.00'' Nord";"87014";"PUY DE LA GARDE";"D.220 - PRÈS RÉSERVOIR";"87250";"BESSINES-SUR-GARTEMPE";"Pylône autostable"; 39.0;"HIVORY"
714170;0.85583;46.11194;"00° 51' 21.00'' Est, 46° 06' 43.00'' Nord";"87069";"L'ESSART";;"87330";"GAJOUBERT";"Pylône autostable"; 35.5;"HIVORY"
727809;0.94361;45.76667;"00° 56' 37.00'' Est, 45° 45' 60.00'' Nord";"87158";"MAISON NEUVE";;"87310";"SAINT-LAURENT-SUR-GORRE";"Pylône tubulaire"; 35.0;"TDF"
727811;1.55528;45.65750;"01° 33' 19.00'' Est, 45° 39' 27.00'' Nord";"87170";"ECHIZADOUR";"D16";"87130";"SAINT-MEARD";"Pylône autostable"; 35.0;"BOUYGUES"
727813;1.41639;46.32861;"01° 24' 59.00'' Est, 46° 19' 43.00'' Nord";"87182";"LES CHAILLAUDS";"LA ROCHE";"87160";"SAINT-SULPICE-LES-FEUILLES";"Pylône autostable"; 49.0;"TDF"
731098;1.41639;45.89000;"01° 24' 59.00'' Est, 45° 53' 24.00'' Nord";"87178";"LA GANE";"RTE DE LA CHASSAGNE CIMETIÈRE";"87480";"SAINT-PRIEST-TAURION";"Pylône autostable"; 30.0;"HIVORY"
733590;0.92889;46.18667;"00° 55' 44.00'' Est, 46° 11' 12.00'' Nord";"87139";"LA LANDE DE BEZEAUD";;"87300";"SAINT-BONNET-DE-BELLAC";"Pylône autostable"; 34.0;"HIVORY"
745008;0.79528;45.69417;"00° 47' 43.00'' Est, 45° 41' 39.00'' Nord";"87168";"PUISSEGER";;"87440";"SAINT-MATHIEU";"Pylône autostable"; 36.0;"ORANGE"
749973;1.26917;46.06333;"01° 16' 09.00'' Est, 46° 03' 48.00'' Nord";"87128";"PUY DE REDON";;"87250";"ROUSSAC";"Pylône autostable"; 36.0;"ORANGE"
751709;1.83667;45.71806;"01° 50' 12.00'' Est, 45° 43' 05.00'' Nord";"87104";"LA CROIX DES RAMEAUX";;"87120";"NEDDE";"Pylône autostable"; 26.5;"TDF"
757190;1.55722;45.87889;"01° 33' 26.00'' Est, 45° 52' 44.00'' Nord";"87099";"LA CROIX";"CHEM RURAL";"87400";"MOISSANNES";"Pylône autostable"; 31.4;"ORANGE"
760681;1.23750;45.81583;"01° 14' 15.00'' Est, 45° 48' 57.00'' Nord";"87085";;"15 R DU DR MARCLAND";"87000";"LIMOGES";"Bâtiment"; 45.0;"Etablissement de soins"
775199;0.81639;45.87556;"00° 48' 59.00'' Est, 45° 52' 32.00'' Nord";"87131";"USINE DE SAILLAT";"IMP DE LA CHIMIE";"87720";"SAILLAT-SUR-VIENNE";"Bâtiment"; 10.0;"Société Privée SA"
784951;1.24722;45.84083;"01° 14' 50.00'' Est, 45° 50' 27.00'' Nord";"87085";;"84 AV DE MONTJOVIS";"87280";"LIMOGES";"Immeuble"; 37.0;"Société HLM"
790293;1.24917;46.23944;"01° 14' 57.00'' Est, 46° 14' 22.00'' Nord";"87057";"LA TUILERIE";"LES BORDES";"87190";"DOMPIERRE-LES-EGLISES";"Pylône autostable"; 40.0;"EDF ou GDF"
790358;1.65500;45.72917;"01° 39' 18.00'' Est, 45° 43' 45.00'' Nord";"87105";"BOIS MORINET";"D.979";"87130";"NEUVIC-ENTIER";"Pylône autostable"; 29.0;"ORANGE Services Fixes"
790950;1.27639;45.80333;"01° 16' 35.00'' Est, 45° 48' 12.00'' Nord";"87085";;"124 R LEONARD SAMIE POSTE DE TRANSFORMATION MAGRÉ";"87280";"LIMOGES";"Bâtiment"; 5.0;"EDF ou GDF"
819530;1.25750;45.83472;"01° 15' 27.00'' Est, 45° 50' 05.00'' Nord";"87085";;"28/30 R JULES NORIAC";"87000";"LIMOGES";"Bâtiment"; 28.5;"ORANGE Services Fixes"
819532;1.23528;45.81250;"01° 14' 07.00'' Est, 45° 48' 45.00'' Nord";"87085";;"2 AV MARTIN LUTHER KING CHU DUPUYTRENS";"87000";"LIMOGES";"Bâtiment"; 49.0;"Etablissement de soins"
819536;1.17472;45.82306;"01° 10' 29.00'' Est, 45° 49' 23.00'' Nord";"87201";"BOIS DES VASEIX";"CHEM D'EXPLOITATION";"87430";"VERNEUIL-SUR-VIENNE";"Pylône autostable"; 36.0;"ORANGE"
819548;1.03361;45.70444;"01° 02' 01.00'' Est, 45° 42' 16.00'' Nord";"87066";"POIGNADE";"RTE DES CARS";"87230";"FLAVIGNAC";"Pylône autostable"; 24.0;"ORANGE"
819567;0.97528;45.90111;"00° 58' 31.00'' Est, 45° 54' 04.00'' Nord";"87140";"L'AGE";"RN N°141";"87200";"SAINT-BRICE-SUR-VIENNE";"Pylône autostable"; 36.0;"ORANGE"
819572;1.26500;45.82639;"01° 15' 54.00'' Est, 45° 49' 35.00'' Nord";"87085";;"33 AV. GEORGES DUMAS";"87000";"LIMOGES";"Immeuble"; 25.0;"Copropriété, Syndic, SCI"
819629;1.15833;46.21500;"01° 09' 30.00'' Est, 46° 12' 54.00'' Nord";"87089";;"AV FRANÇOIS MITTERRAND SILO";"87190";"MAGNAC-LAVAL";"Pylône autostable"; 27.0;"ORANGE"
819650;1.26583;45.85194;"01° 15' 57.00'' Est, 45° 51' 07.00'' Nord";"87085";;"8 R DU CLOS LA BREGERE";"87000";"LIMOGES";"Bâtiment"; 36.0;"ORANGE Services Fixes"
819657;0.90139;46.23250;"00° 54' 05.00'' Est, 46° 13' 57.00'' Nord";"87028";;"3 R LOUIS JALLADEAU D.107/D.4";"87320";"BUSSIERE-POITEVINE";"Pylône autostable"; 31.0;"ORANGE Services Fixes"
819659;1.24111;45.84361;"01° 14' 28.00'' Est, 45° 50' 37.00'' Nord";"87085";;"25 R EDOUARD MICHAUD";"87000";"LIMOGES";"Bâtiment"; 39.0;"ORANGE Services Fixes"
819922;1.83722;45.77333;"01° 50' 14.00'' Est, 45° 46' 24.00'' Nord";"87009";;"CHEM RURAL  PRES RD43 AU NORD EST DU BOURG";"87120";"BEAUMONT-DU-LAC";"Pylône autostable"; 42.0;"Conseil Départemental"
819945;1.34194;45.82167;"01° 20' 31.00'' Est, 45° 49' 18.00'' Nord";"87065";"PUY MAROT";"R MARIE BERNARD LEZEAUD CHÂTEAU D'EAU DE LA GRANGE";"87220";"FEYTIAT";"Château d'eau - réservoir"; 40.0;"Syndicat des eaux, Adduction"
819949;1.45083;45.62944;"01° 27' 03.00'' Est, 45° 37' 46.00'' Nord";"87203";"LE BANCAUD";;"87260";"VICQ-SUR-BREUILH";"Pylône autostable"; 36.0;"ORANGE"
819957;1.26583;45.84000;"01° 15' 57.00'' Est, 45° 50' 24.00'' Nord";"87085";;"16 R DE L'INDUSTRIE";"87000";"LIMOGES";"Immeuble"; 21.0;"Société HLM"
819969;1.26694;45.81139;"01° 16' 01.00'' Est, 45° 48' 41.00'' Nord";"87085";;"4 R DE TOURCOING";"87000";"LIMOGES";"Pylône tubulaire"; 24.0;"ORANGE"
819973;1.29500;45.89000;"01° 17' 42.00'' Est, 45° 53' 24.00'' Nord";"87085";"LA GRANDE PIÈCE";"ROUTE DES CROUZETTES";"87000";"LIMOGES";"Pylône autostable"; 28.0;"ORANGE"
819996;1.25083;45.83500;"01° 15' 03.00'' Est, 45° 50' 06.00'' Nord";"87085";;"25, R PASTEUR";"87000";"LIMOGES";"Immeuble"; 22.7;"Copropriété, Syndic, SCI"
820004;1.26528;45.86694;"01° 15' 55.00'' Est, 45° 52' 01.00'' Nord";"87050";;"9 R DES FOURNERIES ZI NORD";"87270";"COUZEIX";"Pylône tubulaire"; 38.0;"TDF"
820008;1.26083;45.82750;"01° 15' 39.00'' Est, 45° 49' 39.00'' Nord";"87085";;"64 AV GEORGES DUMAS IMM. MÉTROPOLE";"87000";"LIMOGES";"Immeuble"; 29.0;"Commune, communauté de commune"
820010;1.26056;45.84500;"01° 15' 38.00'' Est, 45° 50' 42.00'' Nord";"87085";;"50 AV DU GÉNÉRAL LECLERC SERVICE TECHNIQUE VILLE DE LIMOGES";"87000";"LIMOGES";"Bâtiment"; 22.0;"Commune, communauté de commune"
820012;1.28417;45.84806;"01° 17' 03.00'' Est, 45° 50' 53.00'' Nord";"87085";"LES AUDOUINES";"95, R DU QUAI MILITAIRE R DU DR RAYMOND";"87000";"LIMOGES";"Immeuble"; 19.0;"Société HLM"
820017;1.24278;45.78722;"01° 14' 34.00'' Est, 45° 47' 14.00'' Nord";"87048";"LE PICQ";;"87920";"CONDAT-SUR-VIENNE";"Pylône autostable"; 30.0;"ORANGE"
820021;1.22306;45.81528;"01° 13' 23.00'' Est, 45° 48' 55.00'' Nord";"87085";;"R DU GUÉ VERTHAMONT";"87000";"LIMOGES";"Pylône autostable"; 24.0;"ORANGE"
820028;1.22639;45.83361;"01° 13' 35.00'' Est, 45° 50' 01.00'' Nord";"87085";;"86 B  BD  DU MAS BOUYOL CSEC";"87000";"LIMOGES";"Bâtiment"; 45.0;"SDIS, secours, incendie"
820030;1.28333;45.82306;"01° 16' 60.00'' Est, 45° 49' 23.00'' Nord";"87085";;"R CHARLES BACH";"87000";"LIMOGES";"Pylône tubulaire"; 30.0;"ORANGE"
820032;1.23833;45.82472;"01° 14' 18.00'' Est, 45° 49' 29.00'' Nord";"87085";;"83 R NAUGEAT";"87000";"LIMOGES";"Immeuble"; 25.0;"Copropriété, Syndic, SCI"
820041;1.23500;45.81917;"01° 14' 06.00'' Est, 45° 49' 09.00'' Nord";"87085";;"39 R DE LE CONQUES";"87000";"LIMOGES";"Immeuble"; 35.0;"Copropriété, Syndic, SCI"
820051;1.26139;45.83194;"01° 15' 41.00'' Est, 45° 49' 55.00'' Nord";"87085";;"1 BD CARNOT";"87000";"LIMOGES";"Immeuble"; 30.0;"Société Privée SA"
820053;1.24000;45.82917;"01° 14' 24.00'' Est, 45° 49' 45.00'' Nord";"87085";;"24 R DES HORTICULTEURS";"87000";"LIMOGES";"Bâtiment"; 19.0;"Copropriété, Syndic, SCI"
820060;1.27333;45.83556;"01° 16' 24.00'' Est, 45° 50' 08.00'' Nord";"87085";;"21 R DE LA COTE";"87000";"LIMOGES";"Immeuble"; 22.3;"Société HLM"
820062;1.33361;45.86139;"01° 20' 01.00'' Est, 45° 51' 41.00'' Nord";"87114";"LA FORÊT";"PRÈS USINE INCINÉRATION";"87350";"PANAZOL";"Pylône autostable"; 13.0;"HIVORY"
820070;1.30028;45.82972;"01° 18' 01.00'' Est, 45° 49' 47.00'' Nord";"87114";;"8 AV PIERRE COT GRANIT LAJOUMARD";"87350";"PANAZOL";"Pylône tubulaire"; 26.5;"ORANGE"
820072;1.25917;45.83972;"01° 15' 33.00'' Est, 45° 50' 23.00'' Nord";"87085";;"39, R HOCHE";"87000";"LIMOGES";"Immeuble"; 21.0;"Copropriété, Syndic, SCI"
820434;0.80611;45.63000;"00° 48' 22.00'' Est, 45° 37' 48.00'' Nord";"87092";;"PUY PAQUOT D 64";"87440";"MARVAL";"Pylône autostable"; 39.0;"Conseil Départemental"
825435;1.81222;45.80250;"01° 48' 44.00'' Est, 45° 48' 09.00'' Nord";"87117";;"LE MONTEIL";"87470";"PEYRAT-LE-CHATEAU";"Mât métallique"; 20.0;"TDF"
826050;0.90083;45.89694;"00° 54' 03.00'' Est, 45° 53' 49.00'' Nord";"87154";;"AV COROT";"87200";"SAINT-JUNIEN";"Bâtiment"; 31.0;"Commune, communauté de commune"
835685;0.98694;45.66278;"00° 59' 13.00'' Est, 45° 39' 46.00'' Nord";"87032";"CHEM L'ABBAYE";;"87230";"CHALUS";"Pylône autostable"; 35.0;"TDF"
838325;1.36500;45.98944;"01° 21' 54.00'' Est, 45° 59' 22.00'' Nord";"87183";"FONDANÈCHE";;"87240";"SAINT-SYLVESTRE";"Pylône autostable"; 36.2;"ORANGE"
846623;1.31806;45.95944;"01° 19' 05.00'' Est, 45° 57' 34.00'' Nord";"87020";;"IMP DE FONTANAS";"87270";"BONNAC-LA-COTE";"Pylône autostable"; 52.3;"CELLNEX"
851982;1.31667;45.77806;"01° 19' 00.00'' Est, 45° 46' 41.00'' Nord";"87019";"LES BESSIÈRES";"3 R YVES MONTAND";"87220";"BOISSEUIL";"Pylône autostable"; 43.0;"Société Privée SA"
854125;1.71556;45.81583;"01° 42' 56.00'' Est, 45° 48' 57.00'' Nord";"87153";"LES GRANGES";;"87460";"SAINT-JULIEN-LE-PETIT";"Mât béton"; 14.0;"Société Privée SA"
854127;1.70750;45.82500;"01° 42' 27.00'' Est, 45° 49' 30.00'' Nord";"87153";"D5";"CHAMP DE LA CROIX STADE";"87460";"SAINT-JULIEN-LE-PETIT";"Mât métallique"; 6.0;"Société Privée SA"
859257;1.03639;45.67167;"01° 02' 11.00'' Est, 45° 40' 18.00'' Nord";"87112";"LES FOSSES";;"87230";"PAGEAS";"Pylône autostable"; 52.0;"EDF ou GDF"
859905;1.53194;45.61778;"01° 31' 55.00'' Est, 45° 37' 04.00'' Nord";"87186";"COUSSAC";;"87380";"SAINT-VITTE-SUR-BRIANCE";"Pylône autostable"; 34.5;"Conseil Départemental"
870310;1.31472;45.90306;"01° 18' 53.00'' Est, 45° 54' 11.00'' Nord";"87125";;"5603 R PIERRE DE COUBERTIN";"87570";"RILHAC-RANCON";"Pylône tubulaire"; 35.0;"HIVORY"
884135;1.41194;45.90639;"01° 24' 43.00'' Est, 45° 54' 23.00'' Nord";"87178";"CHAUVAN";"L'USINE HYDROÉLECTRIQUE DE CHAUVANT";"87480";"SAINT-PRIEST-TAURION";"Pylône autostable"; 20.0;"EDF ou GDF"
890094;1.26667;45.84944;"01° 15' 60.00'' Est, 45° 50' 58.00'' Nord";"87085";;"3 ALLÉE HÉLÈNE BOUCHER CLOS DE LA BRÉGÈRE";"87000";"LIMOGES";"Immeuble"; 45.0;"Société HLM"
894036;1.46444;45.92500;"01° 27' 52.00'' Est, 45° 55' 30.00'' Nord";"87167";"ST MARC";"USINE EDF DE ST MARC";"87400";"SAINT-MARTIN-TERRESSUS";"Mât béton"; 13.0;"EDF ou GDF"
894440;1.81389;45.80417;"01° 48' 50.00'' Est, 45° 48' 15.00'' Nord";"87117";"LE MONTEIL";;"87470";"PEYRAT-LE-CHATEAU";"Bâtiment"; 10.0;"EDF ou GDF"
922427;1.32250;45.83833;"01° 19' 21.00'' Est, 45° 50' 18.00'' Nord";"87114";"CHÂTEAU DE LA RUE";"AV  ADRIEN PRESSEMANE";"87350";"PANAZOL";"Pylône autostable"; 34.0;"ORANGE"
923245;1.18056;45.53722;"01° 10' 50.00'' Est, 45° 32' 14.00'' Nord";"87187";"BELLEVUE";"CHATEAU D'EAU";"87500";"SAINT-YRIEIX-LA-PERCHE";"Château d'eau - réservoir"; 26.8;"Syndicat des eaux, Adduction"
939072;1.30028;45.79250;"01° 18' 01.00'' Est, 45° 47' 33.00'' Nord";"87065";"LES TAUBAYES";"ALLÉE DE L'AGE";"87220";"FEYTIAT";"Pylône autostable"; 25.0;"ORANGE"
960437;1.33417;45.87889;"01° 20' 03.00'' Est, 45° 52' 44.00'' Nord";"87113";"RIVAILLES";"D 207";"87410";"LE PALAIS-SUR-VIENNE";"Pylône autostable"; 30.0;"HIVORY"
1002975;1.58222;45.57083;"01° 34' 56.00'' Est, 45° 34' 15.00'' Nord";"87120";"HAMEAU DE CIRAT";;"87380";"LA PORCHERIE";"Pylône autostable"; 42.0;"DDE"
1006556;1.35917;46.05417;"01° 21' 33.00'' Est, 46° 03' 15.00'' Nord";"87122";"CHANTELOUBE";"AUTOROUTE A20 PR155";"87640";"RAZES";"Mât métallique"; 12.0;"DDE"
1006629;1.38167;46.19778;"01° 22' 54.00'' Est, 46° 11' 52.00'' Nord";"87133";"LA CROISIÉRE";;"87290";"SAINT-AMAND-MAGNAZEIX";"Pylône autostable"; 51.0;"DDE"
1008088;1.30444;45.79056;"01° 18' 16.00'' Est, 45° 47' 26.00'' Nord";"87065";;"RTE DE BOISSEUL LA LANDE DU BAS FAURE";"87220";"FEYTIAT";"Pylône autostable"; 50.0;"Etat, Ministère"
1014322;1.22333;46.19139;"01° 13' 24.00'' Est, 46° 11' 29.00'' Nord";"87057";"LES FAITES";;"87190";"DOMPIERRE-LES-EGLISES";"Pylône autostable"; 42.0;"Société Privée SA"
1015238;1.25472;45.82778;"01° 15' 17.00'' Est, 45° 49' 40.00'' Nord";"87085";;"13 RUE PÉTINIAUD BEAUPEYRAT";"87000";"LIMOGES";"Immeuble"; 25.0;"Copropriété, Syndic, SCI"
1022560;1.16556;45.90694;"01° 09' 56.00'' Est, 45° 54' 25.00'' Nord";"87143";"LA LANDE";;"87510";"SAINT-GENCE";"Château d'eau - réservoir"; 27.0;"Syndicat des eaux, Adduction"
1028425;1.28472;46.02028;"01° 17' 05.00'' Est, 46° 01' 13.00'' Nord";"87047";"CROIX DU DAUMART";"COMPREIGNAC";"87140";"COMPREIGNAC";"Pylône autostable"; 22.0;"BOUYGUES"
1049697;1.48611;45.84722;"01° 29' 10.00'' Est, 45° 50' 50.00'' Nord";"87161";;"ROUTE DE ST PRIEST THAURION D 39";"87400";"SAINT-LEONARD-DE-NOBLAT";"Bâtiment"; 4.2;"EDF ou GDF"
1049706;1.25417;46.31722;"01° 15' 15.00'' Est, 46° 19' 02.00'' Nord";"87160";"LES RANGEADES";"D 88";"87190";"SAINT-LEGER-MAGNAZEIX";"Bâtiment"; 7.0;"EDF ou GDF"
1050023;1.43694;46.06722;"01° 26' 13.00'' Est, 46° 04' 02.00'' Nord";"87013";"LA VILLE SOUS GRANGE";;"87370";"BERSAC-SUR-RIVALIER";"Bâtiment"; 7.0;"EDF ou GDF"
1050029;1.34778;45.95028;"01° 20' 52.00'' Est, 45° 57' 01.00'' Nord";"87002";"LE PUY BERTRAND";"POSTE ÉLECTRIQUE PE VC 18 JUNIAT";"87240";"AMBAZAC";"Bâtiment"; 5.5;"EDF ou GDF"
1066424;0.89917;45.71944;"00° 53' 57.00'' Est, 45° 43' 10.00'' Nord";"87034";"LA MAISON NEUVE";"RTE CLOS BOUROU /D6 POSTE ELECTRIQUE";"87150";"CHAMPAGNAC-LA-RIVIERE";"Bâtiment"; 4.5;"EDF ou GDF"
1067909;1.13167;45.75722;"01° 07' 54.00'' Est, 45° 45' 26.00'' Nord";"87166";"MASSAUVENT";;"87700";"SAINT-MARTIN-LE-VIEUX";"Bâtiment"; 6.0;"EDF ou GDF"
1093826;1.30194;45.81167;"01° 18' 07.00'' Est, 45° 48' 42.00'' Nord";"87065";;"RUE JEAN MERMOZ ZI DU PONTEIX";"87220";"FEYTIAT";"Pylône autostable"; 11.0;"TDF"
1188494;1.44333;46.01083;"01° 26' 36.00'' Est, 46° 00' 39.00'' Nord";"87159";"PUY DE SAUVAGNAC";;"87340";"SAINT-LEGER-LA-MONTAGNE";"Pylône haubané"; 24.0;"Intérieur"
1188503;1.44306;46.01139;"01° 26' 35.00'' Est, 46° 00' 41.00'' Nord";"87159";"PUY DE SAUVAGNAC";;"87340";"SAINT-LEGER-LA-MONTAGNE";"Pylône autostable"; 67.0;"Autres"
1201438;1.43389;45.65500;"01° 26' 02.00'' Est, 45° 39' 18.00'' Nord";"87072";"BOIS L'ÉGLISE";;"87380";"GLANGES";"Pylône autostable"; 30.0;"SNCF Réseau"
1201442;1.47972;45.61000;"01° 28' 47.00'' Est, 45° 36' 36.00'' Nord";"87146";;"RUE DE LA GARE";"87380";"SAINT-GERMAIN-LES-BELLES";"Pylône autostable"; 30.0;"SNCF Réseau"
1213105;1.22917;45.91583;"01° 13' 45.00'' Est, 45° 54' 57.00'' Nord";"87038";"CHANTELAUVE";"CHÂTEAU D'EAU";"87270";"CHAPTELAT";"Château d'eau - réservoir"; 42.0;"Commune, communauté de commune"
1262115;1.67056;45.73278;"01° 40' 14.00'' Est, 45° 43' 58.00'' Nord";"87105";"LA VEYTIZOU";"D 979";"87130";"NEUVIC-ENTIER";"Bâtiment"; 4.0;"EDF ou GDF"
1272155;0.84917;46.16556;"00° 50' 57.00'' Est, 46° 09' 56.00'' Nord";"87163";"LE BOURG";"VOIE COMMUNALE - D.4 CHÂTEAU D'EAU";"87330";"SAINT-MARTIAL-SUR-ISOP";"Château d'eau - réservoir"; 29.2;"Syndicat des eaux, Adduction"
1272169;1.28611;45.80167;"01° 17' 10.00'' Est, 45° 48' 06.00'' Nord";"87085";"LES VERGNES DE CROCHAT";"RUE MARCEL DEPREZ";"87000";"LIMOGES";"Bâtiment"; 6.0;"EDF ou GDF"
1274457;1.54611;45.56750;"01° 32' 46.00'' Est, 45° 34' 03.00'' Nord";"87120";"LE BOIS DES JAROUSSES";;"87380";"LA PORCHERIE";"Pylône autostable"; 30.0;"Particulier"
1293367;1.27028;45.83972;"01° 16' 13.00'' Est, 45° 50' 23.00'' Nord";"87085";;"16 IMPASSE JACQUARD";"87000";"LIMOGES";"Pylône autostable"; 38.6;"HIVORY"
1344337;1.27444;45.82778;"01° 16' 28.00'' Est, 45° 49' 40.00'' Nord";"87085";;"RUE DU CLOS JARGOT";"87000";"LIMOGES";"Bâtiment"; 20.0;"ORANGE Services Fixes"
1379833;1.84361;45.80639;"01° 50' 37.00'' Est, 45° 48' 23.00'' Nord";"87117";"AUPHELLE";"ROUTE DU BARRAGE";"87470";"PEYRAT-LE-CHATEAU";"Mât béton"; 12.0;"Commune, communauté de commune"
1379838;1.17861;45.69222;"01° 10' 43.00'' Est, 45° 41' 32.00'' Nord";"87106";;"AVENUE JEAN JAURES";"23160";"NEXON";"Pylône autostable"; 30.0;"SNCF Réseau"
1381780;1.42028;45.63500;"01° 25' 13.00'' Est, 45° 38' 06.00'' Nord";"87203";"LA FEUILLADE";"POSTE ELECTRIQUE LE TUQUET";"87260";"VICQ-SUR-BREUILH";"Bâtiment"; 8.3;"EDF ou GDF"
1381874;1.80222;45.80222;"01° 48' 08.00'' Est, 45° 48' 08.00'' Nord";"87117";"LE MAZET";"LE MAZET";"87470";"PEYRAT-LE-CHATEAU";"Bâtiment"; 20.9;"EDF ou GDF"
1382711;1.05361;46.12389;"01° 03' 13.00'' Est, 46° 07' 26.00'' Nord";"87011";"LA NOISETTE";"RUE DES VIEUX BLATS";"87300";"BELLAC";"Bâtiment"; 8.0;"EDF ou GDF"
1384755;0.90278;45.88528;"00° 54' 10.00'' Est, 45° 53' 07.00'' Nord";"87154";;"BD MARCEL CACHAN PALAIS DES SPORTS";"87200";"SAINT-JUNIEN";"Bâtiment"; 22.0;"Commune, communauté de commune"
1384769;1.43278;46.13472;"01° 25' 58.00'' Est, 46° 08' 05.00'' Nord";"87067";"LA FAURILLE";;"87250";"FOLLES";"Pylône autostable"; 35.0;"SNCF Réseau"
1384775;1.37417;45.69056;"01° 22' 27.00'' Est, 45° 41' 26.00'' Nord";"87119";"CHABANAS";"LIEU DIT LA LOGE À TOURIN";"87260";"PIERRE-BUFFIERE";"Pylône autostable"; 30.0;"SNCF Réseau"
1385638;1.48000;45.99444;"01° 28' 48.00'' Est, 45° 59' 40.00'' Nord";"87079";;"RUE DE LA GARE";"87340";"LA JONCHERE-SAINT-MAURICE";"Pylône autostable"; 20.0;"SNCF Réseau"
1385881;1.31889;45.86472;"01° 19' 08.00'' Est, 45° 51' 53.00'' Nord";"87113";"PONT DURAND SUD";"IMPASSE PUY MARTIN";"87410";"LE PALAIS-SUR-VIENNE";"Pylône autostable"; 30.2;"SNCF Réseau"
1385883;1.25750;45.82167;"01° 15' 27.00'' Est, 45° 49' 18.00'' Nord";"87085";;"RUE DES BASSES PALISSES";"87000";"LIMOGES";"Pylône autostable"; 20.0;"SNCF Réseau"
1386254;1.43222;46.08361;"01° 25' 56.00'' Est, 46° 05' 01.00'' Nord";"87013";"LA GARE";;"87370";"BERSAC-SUR-RIVALIER";"Pylône autostable"; 20.0;"SNCF Réseau"
1386448;1.84556;45.79972;"01° 50' 44.00'' Est, 45° 47' 59.00'' Nord";"87117";;"CLUB NAUTIQUE DE VASSIVIERE LOTISSEMENT D'AUPHELLE";"87470";"PEYRAT-LE-CHATEAU";"Bâtiment"; 12.0;"EDF ou GDF"
1388209;1.43222;46.17111;"01° 25' 56.00'' Est, 46° 10' 16.00'' Nord";"87068";"LA GARE";"0";"87250";"FROMENTAL";"Pylône autostable"; 30.0;"SNCF Réseau"
1388211;1.32361;45.73056;"01° 19' 25.00'' Est, 45° 43' 50.00'' Nord";"87019";"SOUS LA PLANCHE";"CHEMIN DES TOURS";"87220";"BOISSEUIL";"Pylône autostable"; 25.0;"SNCF Réseau"
1388213;1.23694;45.80639;"01° 14' 13.00'' Est, 45° 48' 23.00'' Nord";"87075";"LE BAS CLUZEAU";;"87170";"ISLE";"Pylône autostable"; 20.0;"SNCF Réseau"
1388215;1.49389;46.01556;"01° 29' 38.00'' Est, 46° 00' 56.00'' Nord";"87079";"LES LANDES";"0";"87340";"LA JONCHERE-SAINT-MAURICE";"Pylône autostable"; 25.0;"SNCF Réseau"
1388478;1.17611;45.74639;"01° 10' 34.00'' Est, 45° 44' 47.00'' Nord";"87025";"LES PALENES";"0";"87800";"BURGNAC";"Pylône autostable"; 25.0;"SNCF Réseau"
1391594;1.45222;46.05778;"01° 27' 08.00'' Est, 46° 03' 28.00'' Nord";"87181";"LE MEILLERI";"0";"87370";"SAINT-SULPICE-LAURIERE";"Pylône autostable"; 20.0;"SNCF Réseau"
1391596;1.25222;45.79139;"01° 15' 08.00'' Est, 45° 47' 29.00'' Nord";"87048";"MAZEROLLAS";"ZAC JEAN MONNET";"87920";"CONDAT-SUR-VIENNE";"Pylône autostable"; 20.0;"SNCF Réseau"
1392409;1.28583;45.75583;"01° 17' 09.00'' Est, 45° 45' 21.00'' Nord";"87205";"MAISON NEUVE";"RUE DE LA GARE";"87110";"LE VIGEN";"Pylône autostable"; 25.0;"SNCF Réseau"
1393732;1.39111;45.93722;"01° 23' 28.00'' Est, 45° 56' 14.00'' Nord";"87002";"LES POINTIS";"TUNNEL DE NOUAILLAS";"87240";"AMBAZAC";"Pylône autostable"; 25.0;"SNCF Réseau"
1394436;1.25139;45.84083;"01° 15' 05.00'' Est, 45° 50' 27.00'' Nord";"87085";;"RUE DE BEAUPUY";"87100";"LIMOGES";"Pylône tubulaire"; 20.0;"SNCF Réseau"
1397304;1.48389;46.04500;"01° 29' 02.00'' Est, 46° 02' 42.00'' Nord";"87181";;"RUE DU DÉPÔT";"87370";"SAINT-SULPICE-LAURIERE";"Pylône autostable"; 25.0;"SNCF Réseau"
1403124;1.25333;45.81806;"01° 15' 12.00'' Est, 45° 49' 05.00'' Nord";"87085";;"8, RUE CLOS MOREAU";"87000";"LIMOGES";"Bâtiment"; 14.0;"Société Privée SA"
1403128;1.30333;45.91333;"01° 18' 12.00'' Est, 45° 54' 48.00'' Nord";"87085";;"RUE PILATERIES";"87280";"LIMOGES";"Château d'eau - réservoir"; 33.0;"Société Privée SA"
1404093;1.35750;45.88722;"01° 21' 27.00'' Est, 45° 53' 14.00'' Nord";"87178";"CROUSTATD";;"87480";"SAINT-PRIEST-TAURION";"Pylône autostable"; 30.1;"SNCF Réseau"
1405503;1.19389;45.77917;"01° 11' 38.00'' Est, 45° 46' 45.00'' Nord";"87021";"LE GUÉ DE VERTHAMONT";;"87110";"BOSMIE-L'AIGUILLE";"Pylône autostable"; 29.8;"SNCF Réseau"
1405928;1.27111;45.77306;"01° 16' 16.00'' Est, 45° 46' 23.00'' Nord";"87192";"POUZOL";;"87110";"SOLIGNAC";"Pylône autostable"; 20.0;"SNCF Réseau"
1424244;1.44861;45.96528;"01° 26' 55.00'' Est, 45° 57' 55.00'' Nord";"87002";"LE PRÉ BOUTET";;"87240";"AMBAZAC";"Pylône autostable"; 20.0;"SNCF Réseau"
1425904;1.27722;45.84361;"01° 16' 38.00'' Est, 45° 50' 37.00'' Nord";"87085";;"IMPASSE DES COLOMBES";"87000";"LIMOGES";"Pylône autostable"; 23.0;"ORANGE"
1439466;1.22861;45.63083;"01° 13' 43.00'' Est, 45° 37' 51.00'' Nord";"87096";"PLAISANCE";"RD 118";"87800";"LA MEYZE";"Pylône autostable"; 39.3;"TDF"
1443585;1.27222;45.88250;"01° 16' 20.00'' Est, 45° 52' 57.00'' Nord";"87085";;"17 R BARTHÉLÉMY THIMONNIER ZI NORD";"87000";"LIMOGES";"Pylône autostable"; 50.0;"HIVORY"
1453092;1.36861;45.94111;"01° 22' 07.00'' Est, 45° 56' 28.00'' Nord";"87002";;"LE TARIER, LES MARAIS";"87240";"AMBAZAC";"Pylône autostable"; 35.2;"HIVORY"
1453096;1.16278;45.81528;"01° 09' 46.00'' Est, 45° 48' 55.00'' Nord";"87075";;"LES LANDES DE REIGNEFORT";"87170";"ISLE";"Pylône autostable"; 43.0;"HIVORY"
1464818;1.24667;45.83361;"01° 14' 48.00'' Est, 45° 50' 01.00'' Nord";"87085";;"RUE D'ANTHONY";"87000";"LIMOGES";"Tunnel"; 9.0;"SNCF Réseau"
1465500;1.25056;45.83639;"01° 15' 02.00'' Est, 45° 50' 11.00'' Nord";"87085";;"AVENUE MARCELLIN BERTHELOT";"87000";"LIMOGES";"Ouvrage d'art (pont, viaduc)"; 12.0;"SNCF Réseau"
1465674;1.24000;45.83417;"01° 14' 24.00'' Est, 45° 50' 03.00'' Nord";"87085";"CITE ALBERT THOMAS";;"87000";"LIMOGES";"Mât"; 10.0;"SNCF Réseau"
1465676;1.22556;45.83139;"01° 13' 32.00'' Est, 45° 49' 53.00'' Nord";"87085";;"BOULEVARD DU MAS BOUYOUL";"87000";"LIMOGES";"Mât"; 10.0;"SNCF Réseau"
1466283;1.44583;46.06222;"01° 26' 45.00'' Est, 46° 03' 44.00'' Nord";"87013";;"LES PRES DE LA VILLE";"87370";"BERSAC-SUR-RIVALIER";"Mât métallique"; 10.0;"SNCF Réseau"
1466709;1.45000;46.05944;"01° 26' 60.00'' Est, 46° 03' 34.00'' Nord";"87181";;"CHEZ COMBEAU";"87370";"SAINT-SULPICE-LAURIERE";"Tunnel"; 6.2;"SNCF Réseau"
1466879;1.31361;45.73944;"01° 18' 49.00'' Est, 45° 44' 22.00'' Nord";"87019";;"PETITS BOIS";"87220";"BOISSEUIL";"Tunnel"; 5.8;"SNCF Réseau"
1467929;1.26972;45.85833;"01° 16' 11.00'' Est, 45° 51' 30.00'' Nord";"87085";;"LE MOULIN PINARD";"87000";"LIMOGES";"Tunnel"; 5.2;"SNCF Réseau"
1467931;1.27361;45.85306;"01° 16' 25.00'' Est, 45° 51' 11.00'' Nord";"87085";;"RUE DETAILLE";"87000";"LIMOGES";"Tunnel"; 5.2;"SNCF Réseau"
1467933;1.27750;45.84889;"01° 16' 39.00'' Est, 45° 50' 56.00'' Nord";"87085";;"FERME DU MAS NEUF";"87000";"LIMOGES";"Mât métallique"; 10.0;"SNCF Réseau"
1467935;1.49528;46.03639;"01° 29' 43.00'' Est, 46° 02' 11.00'' Nord";"87076";"PUY COURTY";"ROUTE DE LIMOGES";"87370";"JABREILLES-LES-BORDES";"Tunnel"; 6.0;"SNCF Réseau"
1468218;1.26056;45.83500;"01° 15' 38.00'' Est, 45° 50' 06.00'' Nord";"87085";;"39 B AV GARIBALDI";"87000";"LIMOGES";"Bâtiment"; 20.0;"Société Privée SA"
1468402;1.26556;45.83306;"01° 15' 56.00'' Est, 45° 49' 59.00'' Nord";"87085";;"ALLÉE DE SÉTO";"87000";"LIMOGES";"Tunnel"; 4.9;"SNCF Réseau"
1468404;1.26194;45.82861;"01° 15' 43.00'' Est, 45° 49' 43.00'' Nord";"87085";;"(SOUS LE) BOULEVARD LOUIS BLANC";"87000";"LIMOGES";"Tunnel"; 5.8;"SNCF Réseau"
1470311;1.48972;46.04222;"01° 29' 23.00'' Est, 46° 02' 32.00'' Nord";"87181";"FRÉTILLES";"RUE DU CHATELARD";"87370";"SAINT-SULPICE-LAURIERE";"Mât métallique"; 2.5;"SNCF Réseau"
1470313;1.26806;45.78056;"01° 16' 05.00'' Est, 45° 46' 50.00'' Nord";"87192";"LA BORIE";;"87110";"SOLIGNAC";"Mât métallique"; 2.0;"SNCF Réseau"
1471601;1.31139;45.74167;"01° 18' 41.00'' Est, 45° 44' 30.00'' Nord";"87019";"LE GILARDEIX";"ENTRÉE TUNNEL DE GILARDEIX PK 415.815";"87220";"BOISSEUIL";"Tunnel"; 11.0;"SNCF Réseau"
1486639;0.95361;46.03806;"00° 57' 13.00'' Est, 46° 02' 17.00'' Nord";"87101";"DE LA BARRE";"CIMETIERE";"87330";"MORTEMART";"Pylône autostable"; 37.5;"Conseil Départemental"
1488647;1.24750;45.83333;"01° 14' 51.00'' Est, 45° 50' 00.00'' Nord";"87085";;"3 IMPASSE DE LA MAUVENDIERE";"87000";"LIMOGES";"Immeuble"; 34.0;"Copropriété, Syndic, SCI"
1489158;1.20306;46.34583;"01° 12' 11.00'' Est, 46° 20' 45.00'' Nord";"87087";"LA GRANDE LANDE";;"87360";"LUSSAC-LES-EGLISES";"Pylône autostable"; 32.5;"Conseil Départemental"
1519086;1.50556;45.95556;"01° 30' 20.00'' Est, 45° 57' 20.00'' Nord";"87157";;"LE PUY CHAMBON";"87240";"SAINT-LAURENT-LES-EGLISES";"Pylône autostable"; 46.5;"ATC FRANCE"
1536798;1.27139;45.94806;"01° 16' 17.00'' Est, 45° 56' 53.00'' Nord";"87020";"LA POLOGNE";;"87270";"BONNAC-LA-COTE";"Pylône autostable"; 38.0;"ATC FRANCE"
1555179;1.42139;45.75611;"01° 25' 17.00'' Est, 45° 45' 22.00'' Nord";"87174";;"CHEM DE LA REDONDE";"87260";"SAINT-PAUL";"Pylône autostable"; 37.0;"HIVORY"
1562152;1.38167;45.80333;"01° 22' 54.00'' Est, 45° 48' 12.00'' Nord";"87005";"FONTERNE";"ROUTE DE LA MARE";"87220";"AUREIL";"Pylône autostable"; 33.0;"HIVORY"
1564054;1.26500;45.83194;"01° 15' 54.00'' Est, 45° 49' 55.00'' Nord";"87085";;"16 PL JOURDAN CHAMBRE DE COMMERCE ET D'INDUSTRIE";"87000";"LIMOGES";"Bâtiment"; 34.0;"CCI,Ch Metiers,Port Aut,Aérop"
1570155;1.25139;45.85222;"01° 15' 05.00'' Est, 45° 51' 08.00'' Nord";"87085";;"54 BD  DU VIGENAL";"87000";"LIMOGES";"Immeuble"; 21.0;"Société HLM"
1571641;1.30056;45.97306;"01° 18' 02.00'' Est, 45° 58' 23.00'' Nord";"87047";"BEAUSOLEIL";"PUY DU BEAUSOLEIL";"87140";"COMPREIGNAC";"Pylône autostable"; 36.0;"ORANGE"
1573202;1.18278;46.14528;"01° 10' 58.00'' Est, 46° 08' 43.00'' Nord";"87121";"DES AJONCS";;"87290";"RANCON";"Château d'eau - réservoir"; 42.6;"Commune, communauté de commune"
1574461;1.17417;45.86667;"01° 10' 27.00'' Est, 45° 52' 00.00'' Nord";"87085";"L'AGE";"R CAMILLE FONDANÈCHE CROISEMENT R SALADAS";"87000";"LIMOGES";"Pylône autostable"; 15.0;"HIVORY"
1575069;1.28639;45.84444;"01° 17' 11.00'' Est, 45° 50' 40.00'' Nord";"87085";;"8 R SUZANNE VALADON";"87000";"LIMOGES";"Immeuble"; 18.1;"Copropriété, Syndic, SCI"
1575078;1.20333;45.78694;"01° 12' 12.00'' Est, 45° 47' 13.00'' Nord";"87075";"L'ETOILE";;"87170";"ISLE";"Pylône autostable"; 34.3;"HIVORY"
1576314;1.24722;45.79556;"01° 14' 50.00'' Est, 45° 47' 44.00'' Nord";"87048";"CRASSAC";"RD N°11";"87920";"CONDAT-SUR-VIENNE";"Pylône autostable"; 24.0;"HIVORY"
1576775;1.27889;45.83750;"01° 16' 44.00'' Est, 45° 50' 15.00'' Nord";"87085";;"2 RUE MONTHERY";"87000";"LIMOGES";"Bâtiment"; 6.0;"Association"
1577763;1.27944;45.81056;"01° 16' 46.00'' Est, 45° 48' 38.00'' Nord";"87085";;"25 RUE SANTOS DUMONT";"87000";"LIMOGES";"Pylône tubulaire"; 29.0;"ORANGE"
1577938;1.00583;45.86972;"01° 00' 21.00'' Est, 45° 52' 11.00'' Nord";"87185";"LES COMBES";"PROCHE V C DE ST VICTURNIEN À COGNAC ENTRE LE MAS ET LE NORMANDIE";"87420";"SAINT-VICTURNIEN";"Pylône autostable"; 40.0;"HIVORY"
1578862;1.27167;45.81694;"01° 16' 18.00'' Est, 45° 49' 01.00'' Nord";"87085";;"32 R DOMNOLET LAFARGE";"87000";"LIMOGES";"Immeuble"; 35.0;"Société HLM"
1584333;1.22028;45.82333;"01° 13' 13.00'' Est, 45° 49' 24.00'' Nord";"87085";;"364 RUE FRANCOIS PERRIN";"87000";"LIMOGES";"Immeuble"; 19.7;"Copropriété, Syndic, SCI"
1584789;0.87250;45.73028;"00° 52' 21.00'' Est, 45° 43' 49.00'' Nord";"87111";;"8 R CITÉ DES MOTTES  PRÈS CHATEAU D'EAU";"87150";"ORADOUR-SUR-VAYRES";"Pylône autostable"; 28.0;"ATC FRANCE"
1588690;0.90167;46.23250;"00° 54' 06.00'' Est, 46° 13' 57.00'' Nord";"87028";;"R LOUIS JALLADEAU";"87320";"BUSSIERE-POITEVINE";"Château d'eau - réservoir"; 34.1;"Syndicat des eaux, Adduction"
1590317;1.17250;46.22111;"01° 10' 21.00'' Est, 46° 13' 16.00'' Nord";"87089";"LES VIGNES";;"87190";"MAGNAC-LAVAL";"Pylône autostable"; 38.0;"TDF"
1590786;1.40861;46.27361;"01° 24' 31.00'' Est, 46° 16' 25.00'' Nord";"87003";"CHANTEMERLE";;"87160";"ARNAC-LA-POSTE";"Pylône autostable"; 49.0;"TDF"
1590873;0.97444;46.27056;"00° 58' 28.00'' Est, 46° 16' 14.00'' Nord";"87028";"LES CLIES";"RUE PRINCIPALE - D.49";"87320";"BUSSIERE-POITEVINE";"Pylône tubulaire"; 14.0;"ORANGE Services Fixes"
1592035;1.40167;45.88778;"01° 24' 06.00'' Est, 45° 53' 16.00'' Nord";"87178";;"6 RUE DE LA FRATERNITE, LA GARE";"87480";"SAINT-PRIEST-TAURION";"Pylône autostable"; 34.3;"TDF"
1593074;1.27750;45.93417;"01° 16' 39.00'' Est, 45° 56' 03.00'' Nord";"87020";"LA PLIÈRE";"ALLÉE DE LA PLIERE";"87270";"BONNAC-LA-COTE";"Pylône autostable"; 35.5;"HIVORY"
1593108;1.25778;45.80778;"01° 15' 28.00'' Est, 45° 48' 28.00'' Nord";"87085";;"IMP DE PÉLISSERIE RTE DE NEXON";"87000";"LIMOGES";"Pylône autostable"; 20.0;"HIVORY"
1597428;1.07778;45.67250;"01° 04' 40.00'' Est, 45° 40' 21.00'' Nord";"87029";"LE TAILLADIS";;"87230";"LES CARS";"Mât béton"; 13.0;"Société Privée SA"
1600494;1.25444;45.72389;"01° 15' 16.00'' Est, 45° 43' 26.00'' Nord";"87205";"LE PUY MATHIEU";"LES GABISSES";"87110";"LE VIGEN";"Pylône autostable"; 44.0;"CELLNEX"
1600502;1.25889;45.83778;"01° 15' 32.00'' Est, 45° 50' 16.00'' Nord";"87085";;"49 AV GARIBALDI";"87000";"LIMOGES";"Immeuble"; 25.5;"Copropriété, Syndic, SCI"
1603191;1.02444;46.04139;"01° 01' 28.00'' Est, 46° 02' 29.00'' Nord";"87018";"PUERNAUD";;"87300";"BLOND";"Pylône autostable"; 39.6;"HIVORY"
1609836;1.24917;45.83472;"01° 14' 57.00'' Est, 45° 50' 05.00'' Nord";"87085";;"19 RUE DE LA RESISTANCE LIMOUSINE";"87000";"LIMOGES";"Immeuble"; 27.0;"Société HLM"
1609903;1.53194;45.70722;"01° 31' 55.00'' Est, 45° 42' 26.00'' Nord";"87086";"LA CROIX DE MAZERMAUD";;"87130";"LINARDS";"Pylône autostable"; 39.7;"ATC FRANCE"
1612404;1.31139;45.83667;"01° 18' 41.00'' Est, 45° 50' 12.00'' Nord";"87114";;"1 IMPASSE JEAN JAURES";"87350";"PANAZOL";"Immeuble"; 21.8;"Copropriété, Syndic, SCI"
1621757;1.31556;45.90361;"01° 18' 56.00'' Est, 45° 54' 13.00'' Nord";"87125";;"RUE PIERRE DE COUBERTIN PARC DES SPORTS";"87570";"RILHAC-RANCON";"Pylône tubulaire"; 35.0;"ORANGE"
1621906;1.08833;45.81333;"01° 05' 18.00'' Est, 45° 48' 48.00'' Nord";"87177";"BOIS BALAND (LES LANDES)";"7 IMPASSE DU STADE";"87700";"SAINT-PRIEST-SOUS-AIXE";"Pylône autostable"; 33.0;"ATC FRANCE"
1621919;1.25972;45.83056;"01° 15' 35.00'' Est, 45° 49' 50.00'' Nord";"87085";;"23 RUE JEAN JAURES";"87000";"LIMOGES";"Immeuble"; 29.0;"Copropriété, Syndic, SCI"
1636065;1.25722;45.83972;"01° 15' 26.00'' Est, 45° 50' 23.00'' Nord";"87085";;"65 RUE FRANÇOIS CHENIEUX";"87000";"LIMOGES";"Immeuble"; 22.5;"Copropriété, Syndic, SCI"
1640002;1.41833;45.63639;"01° 25' 06.00'' Est, 45° 38' 11.00'' Nord";"87203";"LES PLAINES DE REJATAS";;"87260";"VICQ-SUR-BREUILH";"Pylône tubulaire"; 43.1;"HIVORY"
1640006;1.37889;45.64139;"01° 22' 44.00'' Est, 45° 38' 29.00'' Nord";"87203";"LE CIMETIÈRE";"D 76";"87260";"VICQ-SUR-BREUILH";"Pylône autostable"; 37.6;"HIVORY"
1640552;0.77333;45.70417;"00° 46' 24.00'' Est, 45° 42' 15.00'' Nord";"87168";"LES TOURETTES";;"87440";"SAINT-MATHIEU";"Pylône autostable"; 32.0;"HIVORY"
1640578;1.03056;45.76611;"01° 01' 50.00'' Est, 45° 45' 58.00'' Nord";"87191";"LES CANNES";;"87620";"SEREILHAC";"Pylône autostable"; 37.0;"HIVORY"
1640585;1.41750;45.55667;"01° 25' 03.00'' Est, 45° 33' 24.00'' Nord";"87095";"CHATAIGNOL";"D 215";"87380";"MEUZAC";"Pylône autostable"; 30.2;"HIVORY"
1640614;1.34111;45.50278;"01° 20' 28.00'' Est, 45° 30' 10.00'' Nord";"87049";"LA PLANTADE";;"87500";"COUSSAC-BONNEVAL";"Pylône autostable"; 22.6;"HIVORY"
1640640;1.50111;46.04389;"01° 30' 04.00'' Est, 46° 02' 38.00'' Nord";"87181";"PIERRE DU ROI";;"87370";"SAINT-SULPICE-LAURIERE";"Pylône autostable"; 30.3;"HIVORY"
1640784;1.14139;46.02944;"01° 08' 29.00'' Est, 46° 01' 46.00'' Nord";"87012";"LES GOUTTES";;"87300";"BERNEUIL";"Pylône autostable"; 40.9;"HIVORY"
1640795;1.20944;45.95444;"01° 12' 34.00'' Est, 45° 57' 16.00'' Nord";"87152";"PUY DU ROI";;"87510";"SAINT-JOUVENT";"Pylône autostable"; 42.0;"HIVORY"
1640835;1.48861;46.06944;"01° 29' 19.00'' Est, 46° 04' 10.00'' Nord";"87083";"LES BOUIGES";;"87370";"LAURIERE";"Pylône autostable"; 33.0;"HIVORY"
1640860;1.29889;45.97139;"01° 17' 56.00'' Est, 45° 58' 17.00'' Nord";"87047";"BEAUSOLEIL";;"87140";"COMPREIGNAC";"Pylône autostable"; 30.3;"HIVORY"
1648980;0.95833;45.64944;"00° 57' 30.00'' Est, 45° 38' 58.00'' Nord";"87032";"FANTAISIE";;"87230";"CHALUS";"Pylône autostable"; 42.0;"HIVORY"
1649500;0.94222;45.86389;"00° 56' 32.00'' Est, 45° 51' 50.00'' Nord";"87164";"LE PEIRET";"D 58";"87200";"SAINT-MARTIN-DE-JUSSAC";"Pylône autostable"; 37.6;"HIVORY"
1649508;1.45861;46.00278;"01° 27' 31.00'' Est, 46° 00' 10.00'' Nord";"87079";"CHEZ PERRIÈRE";;"87340";"LA JONCHERE-SAINT-MAURICE";"Pylône autostable"; 28.0;"HIVORY"
1650180;1.26972;46.13750;"01° 16' 11.00'' Est, 46° 08' 15.00'' Nord";"87041";"LA JOSNIERE";;"87290";"CHATEAUPONSAC";"Pylône autostable"; 42.9;"TDF"
1652903;1.03500;45.93556;"01° 02' 06.00'' Est, 45° 56' 08.00'' Nord";"87110";"CHEZ BARON";"CHÂTEAU DEAU COMMUNAL";"87520";"ORADOUR-SUR-GLANE";"Château d'eau - réservoir"; 23.0;"Commune, communauté de commune"
1653657;1.28056;45.98556;"01° 16' 50.00'' Est, 45° 59' 08.00'' Nord";"87047";"PUY DE PUYMELIER";;"87140";"COMPREIGNAC";"Pylône autostable"; 28.0;"HIVORY"
1653943;1.86389;45.80083;"01° 51' 50.00'' Est, 45° 48' 03.00'' Nord";"87009";"ILE DE VASSIVIERE";;"87120";"BEAUMONT-DU-LAC";"Bâtiment"; 11.0;"Conseil Régional"
1654203;1.01833;45.66111;"01° 01' 06.00'' Est, 45° 39' 40.00'' Nord";"87112";"LE PRÉ DU LAC";;"87230";"PAGEAS";"Pylône autostable"; 32.0;"HIVORY"
1654221;1.13500;45.94778;"01° 08' 06.00'' Est, 45° 56' 52.00'' Nord";"87118";"MONT COCU";"STADE MUNICIPAL";"87510";"PEYRILHAC";"Pylône autostable"; 21.0;"HIVORY"
1654232;1.17000;46.01056;"01° 10' 12.00'' Est, 46° 00' 38.00'' Nord";"87103";"LE CIMETIÈRE";;"87140";"NANTIAT";"Château d'eau - réservoir"; 32.0;"SFR"
1654266;1.11694;45.57722;"01° 07' 01.00'' Est, 45° 34' 38.00'' Nord";"87082";;"14 R DE CLÉROIR CHÂTEAU D'EAU";"87500";"LADIGNAC-LE-LONG";"Château d'eau - réservoir"; 26.7;"SFR"
1655167;1.37167;46.31694;"01° 22' 18.00'' Est, 46° 19' 01.00'' Nord";"87182";;"1 ROUTE DE PUIFFERAT LES JAMOTTES";"87160";"SAINT-SULPICE-LES-FEUILLES";"Pylône autostable"; 23.0;"ORANGE"
1656447;1.35194;45.72806;"01° 21' 07.00'' Est, 45° 43' 41.00'' Nord";"87148";"VIVOUR";;"87260";"SAINT-HILAIRE-BONNEVAL";"Pylône autostable"; 39.3;"TDF"
1656955;1.22222;45.51167;"01° 13' 20.00'' Est, 45° 30' 42.00'' Nord";"87187";;"CITE JACQUES BOUTARD";"87500";"SAINT-YRIEIX-LA-PERCHE";"Pylône autostable"; 37.0;"IFW-FREE"
1657057;1.24917;45.83194;"01° 14' 57.00'' Est, 45° 49' 55.00'' Nord";"87085";;"IMPASSE AUGUSTE RENOIR";"87000";"LIMOGES";"Bâtiment"; 3.0;"Société Privée SA"
1663455;1.28972;46.09361;"01° 17' 23.00'' Est, 46° 05' 37.00'' Nord";"87041";"COMBALU";"SITE ITAS TIM";"87290";"CHATEAUPONSAC";"Pylône autostable"; 55.0;"TDF"
1672781;1.33583;45.81500;"01° 20' 09.00'' Est, 45° 48' 54.00'' Nord";"87065";;"47 AVENUE DE LA LIBÉRATION";"87220";"FEYTIAT";"Pylône tubulaire"; 36.3;"Commune, communauté de commune"
1688590;1.35778;46.05667;"01° 21' 28.00'' Est, 46° 03' 24.00'' Nord";"87122";;"LES PRADES";"87640";"RAZES";"Pylône autostable"; 41.8;"TDF"
1693503;1.14944;45.64722;"01° 08' 58.00'' Est, 45° 38' 50.00'' Nord";"87150";"CARRIÈRE LES MOUNIÈRES";"LES GRANDS CLOS";"87800";"SAINT-HILAIRE-LES-PLACES";"Pylône autostable"; 32.6;"HIVORY"
1693517;1.57750;45.70333;"01° 34' 39.00'' Est, 45° 42' 12.00'' Nord";"87040";"CHAUCHER";;"87130";"CHATEAUNEUF-LA-FORET";"Pylône autostable"; 32.0;"HIVORY"
1693532;1.50833;45.76806;"01° 30' 30.00'' Est, 45° 46' 05.00'' Nord";"87142";"BOS DU PEYRE";;"87400";"SAINT-DENIS-DES-MURS";"Pylône autostable"; 47.9;"HIVORY"
1693536;1.21528;45.56056;"01° 12' 55.00'' Est, 45° 33' 38.00'' Nord";"87187";"GABILLOU";;"87500";"SAINT-YRIEIX-LA-PERCHE";"Pylône autostable"; 37.8;"HIVORY"
1697610;1.46667;45.57972;"01° 28' 00.00'' Est, 45° 34' 47.00'' Nord";"87146";"LE MARTOULET OUEST";"D N° 7B";"87380";"SAINT-GERMAIN-LES-BELLES";"Pylône autostable"; 39.0;"HIVORY"
1701442;1.40972;46.07778;"01° 24' 35.00'' Est, 46° 04' 40.00'' Nord";"87013";"PRÉ DE LAFONT";"RD 28";"87370";"BERSAC-SUR-RIVALIER";"Pylône autostable"; 26.0;"CELLNEX"
1707595;1.19361;45.77917;"01° 11' 37.00'' Est, 45° 46' 45.00'' Nord";"87021";;"LE GUE DE VERTHAMONT";"87110";"BOSMIE-L'AIGUILLE";"Pylône autostable"; 30.0;"ORANGE"
1709140;1.33417;45.87944;"01° 20' 03.00'' Est, 45° 52' 46.00'' Nord";"87113";"LES RIVAILLES";"RUE HÉLÈNE BOUCHER";"87410";"LE PALAIS-SUR-VIENNE";"Pylône autostable"; 30.0;"ORANGE"
1711861;1.69972;45.73333;"01° 41' 59.00'' Est, 45° 44' 00.00'' Nord";"87064";;"PUY DE DIANE";"87120";"EYMOUTIERS";"Pylône autostable"; 43.3;"TDF"
1716514;1.19444;45.84306;"01° 11' 40.00'' Est, 45° 50' 35.00'' Nord";"87085";;"5 RUE DU MAS BILIER EGLISE SAINT MARTIAL DE LANDOUGE";"87000";"LIMOGES";"Monument religieux"; 28.0;"Commune, communauté de commune"
1716762;1.30000;45.91444;"01° 18' 00.00'' Est, 45° 54' 52.00'' Nord";"87085";;"3, AVENUE DE BEAUNE";"87000";"LIMOGES";"Pylône tubulaire"; 26.0;"ORANGE"
1721351;1.26917;46.06333;"01° 16' 09.00'' Est, 46° 03' 48.00'' Nord";"87128";"PUY DE REDON";;"87250";"ROUSSAC";"Pylône autostable"; 36.0;"ORANGE"
1724020;1.32333;46.34111;"01° 19' 24.00'' Est, 46° 20' 28.00'' Nord";"87053";"LA VERGNADE";"D23";"87160";"CROMAC";"Pylône autostable"; 30.0;"Conseil Départemental"
1724030;1.08667;46.30556;"01° 05' 12.00'' Est, 46° 18' 20.00'' Nord";"87006";"LE RANCOUMEAU";"CHEM RURAL";"87360";"AZAT-LE-RIS";"Pylône autostable"; 35.0;"Conseil Départemental"
1724052;1.25111;46.28472;"01° 15' 04.00'' Est, 46° 17' 05.00'' Nord";"87160";"LE PETIT BOIS";"CH D'EAU, D63";"87190";"SAINT-LEGER-MAGNAZEIX";"Château d'eau - réservoir"; 25.0;"Commune, communauté de commune"
1725513;0.90889;45.62889;"00° 54' 32.00'' Est, 45° 37' 44.00'' Nord";"87060";"LE CLOS DE COLY";;"87230";"DOURNAZAC";"Pylône autostable"; 32.0;"ATC FRANCE"
1759860;1.59139;45.90083;"01° 35' 29.00'' Est, 45° 54' 03.00'' Nord";"87190";"PUY DE LA VUE";;"87400";"SAUVIAT-SUR-VIGE";"Pylône autostable"; 30.0;"HIVORY"
1774064;1.17639;45.84611;"01° 10' 35.00'' Est, 45° 50' 46.00'' Nord";"87201";"LE VERDOYER";"D247";"87430";"VERNEUIL-SUR-VIENNE";"Pylône autostable"; 35.3;"ORANGE"
1782375;1.28028;45.81222;"01° 16' 49.00'' Est, 45° 48' 44.00'' Nord";"87085";;"11 RUE SANTOS DUMONT";"87000";"LIMOGES";"Pylône tubulaire"; 36.6;"BOUYGUES"
1789409;1.37667;46.11222;"01° 22' 36.00'' Est, 46° 06' 44.00'' Nord";"87014";"LE MAS";"RUE DU PAYS D'OC CEI";"87250";"BESSINES-SUR-GARTEMPE";"Pylône autostable"; 18.0;"DDE"
1789411;1.30444;45.79139;"01° 18' 16.00'' Est, 45° 47' 29.00'' Nord";"87065";"LA LANDE DU BAS FAURE";"RTE DE BOISSEUIL SALLE D'EXPLOITATION";"87220";"FEYTIAT";"Bâtiment"; 8.0;"DDE"
1789413;1.30389;45.79139;"01° 18' 14.00'' Est, 45° 47' 29.00'' Nord";"87065";"LES LANDES DU BAS FAURE";"RTE DE BOISSEUIL LOCAL CHEF D'EQUIPE";"87220";"FEYTIAT";"Bâtiment"; 8.0;"DDE"
1789415;1.07000;46.12750;"01° 04' 12.00'' Est, 46° 07' 39.00'' Nord";"87017";;"ROUTE DES GATINES CEI BLANZAC BELLAC";"87300";"BLANZAC";"Pylône autostable"; 35.0;"DDE"
1789417;1.16722;45.86361;"01° 10' 02.00'' Est, 45° 51' 49.00'' Nord";"87085";;"ROUTE DE CHATREIX LE PELISSOU";"87000";"LIMOGES";"Pylône autostable"; 35.0;"DDE"
1793235;1.03639;45.62750;"01° 02' 11.00'' Est, 45° 37' 39.00'' Nord";"87027";"CHAMPS DE FOIRE";"PLACE CH. DE GAULLE";"87230";"BUSSIERE-GALANT";"Mât béton"; 18.0;"ORANGE Services Fixes"
1794358;0.98083;45.62694;"00° 58' 51.00'' Est, 45° 37' 37.00'' Nord";"87060";"LA JALIGNE";;"87230";"DOURNAZAC";"Pylône autostable"; 21.0;"ORANGE"
1801196;1.25639;45.81889;"01° 15' 23.00'' Est, 45° 49' 08.00'' Nord";"87085";;"RESIDENCE LES VIGNES 1/3 ALLEE PLANTAGENET";"87000";"LIMOGES";"Immeuble"; 34.5;"Copropriété, Syndic, SCI"
1802533;1.23444;45.82694;"01° 14' 04.00'' Est, 45° 49' 37.00'' Nord";"87085";;"PASSAGE DU MOULIN A VENT";"87000";"LIMOGES";"Château d'eau - réservoir"; 21.0;"Commune, communauté de commune"
1819254;1.21972;45.88444;"01° 13' 11.00'' Est, 45° 53' 04.00'' Nord";"87050";"LES COUTURES";"87 RUE DE LA GARE";"87270";"COUZEIX";"Château d'eau - réservoir"; 37.6;"Syndicat des eaux, Adduction"
1819491;0.89750;45.88833;"00° 53' 51.00'' Est, 45° 53' 18.00'' Nord";"87154";;"8 RUE CHATEAUBRIAND CENTRE HOSPITALIER";"87200";"SAINT-JUNIEN";"Bâtiment"; 15.0;"Etablissement de soins"
1825981;1.44139;45.62444;"01° 26' 29.00'' Est, 45° 37' 28.00'' Nord";"87088";;"STATION METEO A20 PR212 S1";"87380";"MAGNAC-BOURG";"Mât"; 12.0;"Société Privée SA"
1828102;1.28139;45.89306;"01° 16' 53.00'' Est, 45° 53' 35.00'' Nord";"87085";;"18 R AMEDEE GORDINI C.CIAL FAMILY VILLAGE LEROY MERLIN";"87280";"LIMOGES";"Bâtiment"; 17.0;"Société Privée SA"
1831985;1.27639;46.13500;"01° 16' 35.00'' Est, 46° 08' 06.00'' Nord";"87041";;"AVENUE DU 8 MAI";"87290";"CHATEAUPONSAC";"Bâtiment"; 15.5;"Commune, communauté de commune"
1843481;1.28194;46.13556;"01° 16' 55.00'' Est, 46° 08' 08.00'' Nord";"87041";;"6515 R DU CHATEAU D'EAU";"87290";"CHATEAUPONSAC";"Pylône autostable"; 38.0;"Commune, communauté de commune"
1844896;0.89861;45.89528;"00° 53' 55.00'' Est, 45° 53' 43.00'' Nord";"87154";;"R LEO LAGRANGE";"87200";"SAINT-JUNIEN";"Bâtiment"; 8.0;"Commune, communauté de commune"
1853502;1.26778;45.83056;"01° 16' 04.00'' Est, 45° 49' 50.00'' Nord";"87085";;"2 RUE CHARLES GIDE";"87000";"LIMOGES";"Bâtiment"; 10.0;"Société Privée SA"
1864024;1.29278;46.00389;"01° 17' 34.00'' Est, 46° 00' 14.00'' Nord";"87047";"PENY";;"87140";"COMPREIGNAC";"Pylône autostable"; 29.0;"TDF"
1866365;1.23389;45.79389;"01° 14' 02.00'' Est, 45° 47' 38.00'' Nord";"87048";;"14 AV DE LIMOGES RÉSIDENCE ST-MARTIN";"87920";"CONDAT-SUR-VIENNE";"Bâtiment"; 23.0;"Société HLM"
1866785;1.24778;45.85028;"01° 14' 52.00'' Est, 45° 51' 01.00'' Nord";"87085";;"76 BOULEVARD DU VIGENAL";"87000";"LIMOGES";"Immeuble"; 23.0;"Copropriété, Syndic, SCI"
1872114;1.25833;45.85000;"01° 15' 30.00'' Est, 45° 51' 00.00'' Nord";"87085";;"2 RUE MARYSE BASTIE";"87000";"LIMOGES";"Immeuble"; 33.7;"Copropriété, Syndic, SCI"
1875869;1.29944;46.18250;"01° 17' 58.00'' Est, 46° 10' 57.00'' Nord";"87180";"LES PEUX";;"87290";"SAINT-SORNIN-LEULAC";"Château d'eau - réservoir"; 31.1;"Commune, communauté de commune"
1876546;1.16167;45.99583;"01° 09' 42.00'' Est, 45° 59' 45.00'' Nord";"87103";"MAISON ROUGE";;"87140";"NANTIAT";"Pylône autostable"; 38.0;"TDF"
1877992;1.43417;45.80750;"01° 26' 03.00'' Est, 45° 48' 27.00'' Nord";"87070";"LES CROUZETTES";;"87400";"LA GENEYTOUSE";"Pylône autostable"; 25.2;"Société Privée SA"
1884361;1.23639;45.88972;"01° 14' 11.00'' Est, 45° 53' 23.00'' Nord";"87050";;"25 ALLÉE DE LA VOIE ROMAINE";"87270";"COUZEIX";"Pylône autostable"; 30.0;"ORANGE"
1885467;1.36833;45.68722;"01° 22' 06.00'' Est, 45° 41' 14.00'' Nord";"87119";"CHABANAS";"PROCHE ECHANGEUR N°40 A20 DE PIERRE BUFFIERE ROUTE DE L AUBEYPIE";"87260";"PIERRE-BUFFIERE";"Pylône autostable"; 33.3;"TDF"
1903440;1.31694;45.86250;"01° 19' 01.00'' Est, 45° 51' 45.00'' Nord";"87113";;"30 RUE PIERRE BROSSOLETTE";"87410";"LE PALAIS-SUR-VIENNE";"Immeuble"; 24.9;"Société HLM"
1921058;0.81361;45.87222;"00° 48' 49.00'' Est, 45° 52' 20.00'' Nord";"87131";;"2 IMPASSE DES PAPETERIES";"87720";"SAILLAT-SUR-VIENNE";"Bâtiment"; 6.0;"Société Privée SA"
1925520;1.10583;46.07333;"01° 06' 21.00'' Est, 46° 04' 24.00'' Nord";"87012";"CROIX DE NOTRE DAME";"CHEMIN RURAL CROISEMENT D72 N147";"87300";"BERNEUIL";"Pylône autostable"; 32.5;"TDF"
1928226;1.25917;45.83222;"01° 15' 33.00'' Est, 45° 49' 56.00'' Nord";"87085";;"2 BIS RUE FITZ JAMES";"87000";"LIMOGES";"Immeuble"; 27.0;"Commune, communauté de commune"
1935249;1.29167;45.86472;"01° 17' 30.00'' Est, 45° 51' 53.00'' Nord";"87085";;"19 RUE COLUMBIA IMMEUBLE OSIRIS";"87000";"LIMOGES";"Immeuble"; 9.0;"Société Privée SA"
1950753;1.29194;46.09389;"01° 17' 31.00'' Est, 46° 05' 38.00'' Nord";"87041";"FOURNACHAUX";;"87290";"CHATEAUPONSAC";"Pylône autostable"; 46.0;"Towercast"
1954346;1.21167;45.80861;"01° 12' 42.00'' Est, 45° 48' 31.00'' Nord";"87075";"MONTPLAISIR";"ALLEE DE MONTPLAISIR";"87170";"ISLE";"Château d'eau - réservoir"; 28.4;"Syndicat des eaux, Adduction"
1954448;1.31083;45.83750;"01° 18' 39.00'' Est, 45° 50' 15.00'' Nord";"87114";;"24 RUE TURGOT";"87350";"PANAZOL";"Immeuble"; 20.0;"Société HLM"
1960797;1.30889;45.91833;"01° 18' 32.00'' Est, 45° 55' 06.00'' Nord";"87125";"LES MINES";;"87570";"RILHAC-RANCON";"Pylône autostable"; 28.0;"IFW-FREE"
1968056;1.34944;46.00667;"01° 20' 58.00'' Est, 46° 00' 24.00'' Nord";"87183";"FANAY";;"87240";"SAINT-SYLVESTRE";"Pylône autostable"; 36.0;"ORANGE"
1970737;1.25333;45.83472;"01° 15' 12.00'' Est, 45° 50' 05.00'' Nord";"87085";;"2 RUE DU COMMANDANT TUSLANE";"87000";"LIMOGES";"Immeuble"; 23.1;"Société HLM"
1972087;1.38667;45.66333;"01° 23' 12.00'' Est, 45° 39' 48.00'' Nord";"87203";"LE PONT DE GEASSE";"PONT DE JASSE";"87260";"VICQ-SUR-BREUILH";"Pylône autostable"; 30.0;"ORANGE"
1974825;1.11139;45.58028;"01° 06' 41.00'' Est, 45° 34' 49.00'' Nord";"87082";"LE BOURG OUEST";"R DE GAMBSHEIM";"87500";"LADIGNAC-LE-LONG";"Pylône autostable"; 34.0;"ORANGE"
1975903;1.24278;45.83528;"01° 14' 34.00'' Est, 45° 50' 07.00'' Nord";"87085";;"47 AVENUE ALBERT THOMAS";"87000";"LIMOGES";"Immeuble"; 21.4;"Etat, Ministère"
1988407;1.41139;45.84250;"01° 24' 41.00'' Est, 45° 50' 33.00'' Nord";"87156";"FONTAGULY";"SUR LA D941";"87590";"SAINT-JUST-LE-MARTEL";"Pylône autostable"; 24.0;"ORANGE"
1988419;1.38139;45.89306;"01° 22' 53.00'' Est, 45° 53' 35.00'' Nord";"87178";"LE BUISSON";"ROUTE DE MAZEAU";"87480";"SAINT-PRIEST-TAURION";"Pylône autostable"; 36.0;"ORANGE"
1988841;1.05972;45.75722;"01° 03' 35.00'' Est, 45° 45' 26.00'' Nord";"87191";"LE POIRIER NORD";"CHEMIN D'EXPLOITATION N°28";"87620";"SEREILHAC";"Pylône autostable"; 38.0;"ORANGE"
1988871;1.17500;45.86306;"01° 10' 30.00'' Est, 45° 51' 47.00'' Nord";"87085";"AÉROPORT LIMOGES-BELLEGARDE";"AVENUE DE L'AÉROPORT";"87000";"LIMOGES";"Pylône autostable"; 15.0;"ORANGE"
2001444;0.87250;45.73000;"00° 52' 21.00'' Est, 45° 43' 48.00'' Nord";"87111";"LES MOTTES";;"87150";"ORADOUR-SUR-VAYRES";"Pylône autostable"; 24.0;"ORANGE"
2001782;1.34139;45.50306;"01° 20' 29.00'' Est, 45° 30' 11.00'' Nord";"87049";"LA PLANTADE";;"87500";"COUSSAC-BONNEVAL";"Pylône autostable"; 37.8;"IFW-FREE"
2001784;0.84861;46.10306;"00° 50' 55.00'' Est, 46° 06' 11.00'' Nord";"87069";"CHEZ PEYRAUD";;"87330";"GAJOUBERT";"Pylône autostable"; 37.8;"IFW-FREE"
2001786;1.15861;45.63389;"01° 09' 31.00'' Est, 45° 38' 02.00'' Nord";"87150";"PLOMBARD";"PROMENADE DU LAC PLAISANCE";"87800";"SAINT-HILAIRE-LES-PLACES";"Pylône autostable"; 37.8;"IFW-FREE"
2001788;1.00611;45.86944;"01° 00' 22.00'' Est, 45° 52' 10.00'' Nord";"87185";;"66 ROUTE DU MAS";"87420";"SAINT-VICTURNIEN";"Pylône autostable"; 37.8;"IFW-FREE"
2001790;1.29000;45.75667;"01° 17' 24.00'' Est, 45° 45' 24.00'' Nord";"87205";"LE BOURG";;"87110";"LE VIGEN";"Pylône autostable"; 32.8;"IFW-FREE"
2007397;1.14389;45.94611;"01° 08' 38.00'' Est, 45° 56' 46.00'' Nord";"87118";"MAISON ROUGE";"ALLEE DE LA BERGERIE";"87510";"PEYRILHAC";"Pylône autostable"; 32.8;"IFW-FREE"
2013943;0.94444;46.18722;"00° 56' 40.00'' Est, 46° 11' 14.00'' Nord";"87139";;"SAINT-BONNET-DE-BELLAC";"87300";"SAINT-BONNET-DE-BELLAC";"Pylône autostable"; 32.8;"TDF"
2027402;0.82361;45.82889;"00° 49' 25.00'' Est, 45° 49' 44.00'' Nord";"87126";"24 AVENUE JEAN JAURÈS";;"87600";"ROCHECHOUART";"Pylône tubulaire"; 25.0;"ORANGE"
2060443;1.38222;45.80306;"01° 22' 56.00'' Est, 45° 48' 11.00'' Nord";"87005";;"43 ROUTE DE LA MARE";"87220";"AUREIL";"Pylône autostable"; 37.8;"IFW-FREE"
2073441;1.29333;45.85694;"01° 17' 36.00'' Est, 45° 51' 25.00'' Nord";"87085";;"RUE THÉOPHILE GRAMME ESTER LIMOGES TECHNOPOLE";"87000";"LIMOGES";"Mât"; 12.0;"EDF ou GDF"
2075262;1.18222;46.11528;"01° 10' 56.00'' Est, 46° 06' 55.00'' Nord";"87121";"LES BARBIERS";;"87290";"RANCON";"Pylône autostable"; 47.8;"IFW-FREE"
2085984;1.27778;45.81139;"01° 16' 40.00'' Est, 45° 48' 41.00'' Nord";"87085";;"ZI DE MAGRÉ21 RUE SANTOS DUMONT";"87000";"LIMOGES";"Pylône autostable"; 37.0;"IFW-FREE"
2088598;1.33611;45.61389;"01° 20' 10.00'' Est, 45° 36' 50.00'' Nord";"87039";"LE BOURNAZEAU";;"87380";"CHATEAU-CHERVIX";"Pylône autostable"; 30.0;"ORANGE"
2089225;1.07083;45.77028;"01° 04' 15.00'' Est, 45° 46' 13.00'' Nord";"87191";"LA MAISON NEUVE";"1 RUE DE L'ABATTOIR PYLÔNE TDF";"87620";"SEREILHAC";"Pylône autostable"; 35.0;"TDF"
2096863;0.96694;46.14861;"00° 58' 01.00'' Est, 46° 08' 55.00'' Nord";"87139";"BEL AIR";"ROUTE CENTRE EUROPE ATLANTIQUE N 147";"87300";"SAINT-BONNET-DE-BELLAC";"Château d'eau - réservoir"; 40.6;"Syndicat des eaux, Adduction"
2129066;1.34000;45.92167;"01° 20' 24.00'' Est, 45° 55' 18.00'' Nord";"87125";;"STADE - ROUTE DE GUILLOT";"87570";"RILHAC-RANCON";"Pylône autostable"; 30.0;"ORANGE"
2129871;1.18917;45.68806;"01° 11' 21.00'' Est, 45° 41' 17.00'' Nord";"87106";"LA GARDE/LA GRANGE";;"87800";"NEXON";"Pylône autostable"; 15.0;"TDF"
2131550;1.51917;45.70194;"01° 31' 09.00'' Est, 45° 42' 07.00'' Nord";"87086";"BLANZAT SUD";"RTE DE LIMOGES";"87130";"LINARDS";"Pylône autostable"; 30.0;"ORANGE"
2138256;0.94417;46.26750;"00° 56' 39.00'' Est, 46° 16' 03.00'' Nord";"87028";"LA CHAUME";;"87320";"BUSSIERE-POITEVINE";"Pylône autostable"; 42.0;"IFW-FREE"
2140599;1.45944;46.00250;"01° 27' 34.00'' Est, 46° 00' 09.00'' Nord";"87079";"PUY BERNARD";;"87340";"LA JONCHERE-SAINT-MAURICE";"Pylône autostable"; 24.0;"ORANGE"
2158655;1.27083;45.81722;"01° 16' 15.00'' Est, 45° 49' 02.00'' Nord";"87085";;"30 RUE DOMNOLET LAFARGE";"87000";"LIMOGES";"Immeuble"; 33.2;"Société HLM"
2163792;1.27250;45.81889;"01° 16' 21.00'' Est, 45° 49' 08.00'' Nord";"87085";;"43 RUE DE SAINTE ANNE";"87000";"LIMOGES";"Bâtiment"; 15.9;"CCI,Ch Metiers,Port Aut,Aérop"
2171107;1.14167;45.84444;"01° 08' 30.00'' Est, 45° 50' 40.00'' Nord";"87201";;"6 ALLÉE DU PETIT MAS DU PUY";"87430";"VERNEUIL-SUR-VIENNE";"Pylône autostable"; 30.0;"ORANGE"
2179608;0.77278;45.70333;"00° 46' 22.00'' Est, 45° 42' 12.00'' Nord";"87168";"LES TOURETTES";;"87440";"SAINT-MATHIEU";"Pylône autostable"; 32.3;"IFW-FREE"
2181841;1.00917;45.82722;"01° 00' 33.00'' Est, 45° 49' 38.00'' Nord";"87046";;"9-11 ALLÉE SAUTY DE CHALON";"87310";"COGNAC-LA-FORET";"Pylône tubulaire"; 30.0;"TDF"
2186423;1.32278;45.51694;"01° 19' 22.00'' Est, 45° 31' 01.00'' Nord";"87049";;"STADE HENRY DE BONNEVAL";"87500";"COUSSAC-BONNEVAL";"Pylône tubulaire"; 25.0;"ORANGE"
2187650;1.64528;45.80250;"01° 38' 43.00'' Est, 45° 48' 09.00'' Nord";"87024";"LES VARACHES";;"87460";"BUJALEUF";"Pylône autostable"; 36.0;"Commune, communauté de commune"
2199558;1.17889;45.69528;"01° 10' 44.00'' Est, 45° 41' 43.00'' Nord";"87106";"BIARD";"AVENUE JEAN JAURES D 119";"87800";"NEXON";"Pylône autostable"; 32.7;"TDF"
2203435;1.04056;45.99389;"01° 02' 26.00'' Est, 45° 59' 38.00'' Nord";"87045";;"R DU STADE LOUIS NORMAND";"87520";"CIEUX";"Pylône autostable"; 39.0;"BOUYGUES"
2206655;1.24389;45.70250;"01° 14' 38.00'' Est, 45° 42' 09.00'' Nord";"87169";;"12 VIEUX SAINT-MAURICE LE BOURG";"87800";"SAINT-MAURICE-LES-BROUSSES";"Pylône autostable"; 30.0;"ORANGE"
2208914;0.84472;45.70694;"00° 50' 41.00'' Est, 45° 42' 25.00'' Nord";"87054";;"2 PROMENADE DES SERVES";"87150";"CUSSAC";"Pylône autostable"; 30.0;"ORANGE"
2209115;1.45889;45.95111;"01° 27' 32.00'' Est, 45° 57' 04.00'' Nord";"87157";"LEYCURAS";"D5";"87240";"SAINT-LAURENT-LES-EGLISES";"Pylône autostable"; 36.0;"ORANGE"
2213135;1.09444;45.90056;"01° 05' 40.00'' Est, 45° 54' 02.00'' Nord";"87202";;"MAS-MARTIN / D28";"87520";"VEYRAC";"Pylône autostable"; 30.0;"ORANGE"
2214544;1.03000;45.77056;"01° 01' 48.00'' Est, 45° 46' 14.00'' Nord";"87191";"LES ESSARTS";"D34";"87620";"SEREILHAC";"Pylône autostable"; 32.7;"TDF"
2222404;1.44833;45.86417;"01° 26' 54.00'' Est, 45° 51' 51.00'' Nord";"87129";"LE MOULIN DE BRIGNAC";;"87400";"ROYERES";"Pylône autostable"; 38.7;"TDF"
2227991;0.89361;45.85806;"00° 53' 37.00'' Est, 45° 51' 29.00'' Nord";"87030";;"RUE DES BOULEAUX";"87200";"CHAILLAC-SUR-VIENNE";"Pylône autostable"; 36.0;"ORANGE"
2232679;1.25833;45.80778;"01° 15' 30.00'' Est, 45° 48' 28.00'' Nord";"87085";;"IMPASSE DE LA PELISSERIE";"87000";"LIMOGES";"Pylône autostable"; 33.0;"IFW-FREE"
2238792;1.11944;46.08778;"01° 07' 10.00'' Est, 46° 05' 16.00'' Nord";"87155";"LES BRUJOUX";"RUE DU MOULIN";"87300";"SAINT-JUNIEN-LES-COMBES";"Pylône autostable"; 33.3;"TDF"
2252423;1.06917;45.80722;"01° 04' 09.00'' Est, 45° 48' 26.00'' Nord";"87177";"LES PLANCHES LONGUES";"VOIE DES BOUCHATS";"87700";"SAINT-PRIEST-SOUS-AIXE";"Pylône autostable"; 30.0;"TDF"
2262429;1.76417;45.83222;"01° 45' 51.00'' Est, 45° 49' 56.00'' Nord";"87117";"CHAMPSEAU";"CROISEMENT RD 940 /VOIE COMMUNALE N°10 VERS CHAMPSEAU";"87470";"PEYRAT-LE-CHATEAU";"Pylône autostable"; 30.0;"ORANGE"
2264566;1.42194;45.75583;"01° 25' 19.00'' Est, 45° 45' 21.00'' Nord";"87174";"LA CROIX VERTE";"D 19 PUIS CHEMIN DIT D'ARTRAT";"87260";"SAINT-PAUL";"Pylône autostable"; 30.0;"ORANGE"
2267291;1.50083;46.04389;"01° 30' 03.00'' Est, 46° 02' 38.00'' Nord";"87181";"CONSIDAT";"PIERRE DU ROI";"87370";"SAINT-SULPICE-LAURIERE";"Pylône autostable"; 21.0;"ORANGE Services Fixes"
2281173;1.09750;45.78111;"01° 05' 51.00'' Est, 45° 46' 52.00'' Nord";"87191";"LES BETOULLES";"LIEU-DIT LES BETOULLES NORD";"87620";"SEREILHAC";"Pylône autostable"; 33.0;"BOUYGUES"
2282499;1.14167;45.91333;"01° 08' 30.00'' Est, 45° 54' 48.00'' Nord";"87143";;"5293 RUE DE LA GAGNERIE";"87510";"SAINT-GENCE";"Pylône autostable"; 36.0;"ORANGE"
2308418;1.79861;45.68944;"01° 47' 55.00'' Est, 45° 41' 22.00'' Nord";"87104";"PLAINARTIGE";"D 81A";"87120";"NEDDE";"Pylône autostable"; 36.0;"ORANGE"
2311208;1.04472;45.83667;"01° 02' 41.00'' Est, 45° 50' 12.00'' Nord";"87046";"LA VERGNE";"CHEZ POUZY";"87310";"COGNAC-LA-FORET";"Pylône autostable"; 32.7;"TDF"
2314316;0.90500;45.90889;"00° 54' 18.00'' Est, 45° 54' 32.00'' Nord";"87154";"LA JALETTE";"AIRE DE REPOS DE LA JALETTE";"87200";"SAINT-JUNIEN";"Pylône autostable"; 26.8;"BOUYGUES"
2315595;1.02500;46.04222;"01° 01' 30.00'' Est, 46° 02' 32.00'' Nord";"87018";"STADE MUNICIPAL";"2 RUE DU 7 AOÛT 1944 STADE MUNICIPAL";"87300";"BLOND";"Pylône autostable"; 36.0;"ORANGE"
2319985;1.23583;45.81944;"01° 14' 09.00'' Est, 45° 49' 10.00'' Nord";"87085";;"34 RUE DE LA CONQUE";"87000";"LIMOGES";"Immeuble"; 37.3;"Société HLM"
2321494;0.89528;45.82667;"00° 53' 43.00'' Est, 45° 49' 36.00'' Nord";"87126";"LES PALENES";"ROUTE DE MONTAZEAU";"87600";"ROCHECHOUART";"Pylône autostable"; 45.0;"IFW-FREE"
2322351;0.68056;45.73722;"00° 40' 50.00'' Est, 45° 44' 14.00'' Nord";"87189";"CHEZ RAMBAUD, LES ROYAUX";;"87440";"LES SALLES-LAVAUGUYON";"Pylône autostable"; 38.0;"BOUYGUES"
2322882;1.29500;45.86306;"01° 17' 42.00'' Est, 45° 51' 47.00'' Nord";"87085";;"10 ALLEE SKYLAB";"87000";"LIMOGES";"Pylône tubulaire"; 37.2;"IFW-FREE"
2324700;0.93778;45.81722;"00° 56' 16.00'' Est, 45° 49' 02.00'' Nord";"87135";"TRINSOLAS";;"87310";"SAINT-AUVENT";"Pylône autostable"; 45.0;"IFW-FREE"
2328924;0.97833;45.95528;"00° 58' 42.00'' Est, 45° 57' 19.00'' Nord";"87078";;"1 ROUTE DU CHÂTEAU D'EAU";"87520";"JAVERDAT";"Château d'eau - réservoir"; 19.0;"Commune, communauté de commune"
2334786;1.29750;45.83000;"01° 17' 51.00'' Est, 45° 49' 48.00'' Nord";"87114";;"10 AV PRESIDENT CARNOT";"87350";"PANAZOL";"Bâtiment"; 11.0;"Société Privée SA"
2347715;0.88556;45.75083;"00° 53' 08.00'' Est, 45° 45' 03.00'' Nord";"87111";"LA SERVE";"D40 ROUTE DE L'ECUBILLOUT";"87150";"ORADOUR-SUR-VAYRES";"Pylône autostable"; 36.0;"ORANGE"
2364888;1.21444;45.73278;"01° 12' 52.00'' Est, 45° 43' 58.00'' Nord";"87081";;"1117 RUE JACQUES BREL";"87800";"JOURGNAC";"Pylône autostable"; 30.0;"ORANGE Services Fixes"
2364912;1.22028;45.67417;"01° 13' 13.00'' Est, 45° 40' 27.00'' Nord";"87106";"LA FONT PARADIS";"CHEMIN D'EXPLOITATION";"87800";"NEXON";"Pylône tubulaire"; 27.0;"ORANGE"
2378394;1.42000;46.16806;"01° 25' 12.00'' Est, 46° 10' 05.00'' Nord";"87068";"LES QUARTIERS";"PROCHE D234";"87250";"FROMENTAL";"Pylône autostable"; 36.0;"TDF"
2384117;0.91083;46.11028;"00° 54' 39.00'' Est, 46° 06' 37.00'' Nord";"87097";;"15 RUE DU MARCHÉ OVIN";"87330";"MEZIERES-SUR-ISSOIRE";"Pylône autostable"; 33.0;"TDF"
2397546;1.39111;45.93611;"01° 23' 28.00'' Est, 45° 56' 10.00'' Nord";"87002";;"RUE GEORGES GUIGUOIN";"87240";"AMBAZAC";"Pylône autostable"; 36.0;"TDF"
2399206;1.83278;45.77306;"01° 49' 58.00'' Est, 45° 46' 23.00'' Nord";"87009";;"ROUTE DE CHAVANT";"87120";"BEAUMONT-DU-LAC";"Pylône autostable"; 18.0;"ORANGE"
2408693;1.42667;45.66306;"01° 25' 36.00'' Est, 45° 39' 47.00'' Nord";"87072";;"LES JAROUSSES";"87380";"GLANGES";"Pylône autostable"; 30.0;"TDF"
2420620;0.78722;45.78667;"00° 47' 14.00'' Est, 45° 47' 12.00'' Nord";"87199";"CHEZ CIBERT";"PROCHE D10";"87600";"VAYRES";"Pylône autostable"; 33.0;"ORANGE"
2422129;1.12000;46.04389;"01° 07' 12.00'' Est, 46° 02' 38.00'' Nord";"87022";"LES SEIGLES";"ROUTE DE LIMOGES NATIONAL 147 PROCHE CHATAIN-BARGAUD";"87300";"BREUILAUFA";"Pylône autostable"; 40.5;"PHOENIX FRANCE INFRASTRUCTURES"
2425182;1.18917;45.49194;"01° 11' 21.00'' Est, 45° 29' 31.00'' Nord";"87187";"CHARNAILLAS";;"87500";"SAINT-YRIEIX-LA-PERCHE";"Pylône autostable"; 33.0;"IFW-FREE"
2432429;1.28139;45.86167;"01° 16' 53.00'' Est, 45° 51' 42.00'' Nord";"87085";;"250 AVENUE JEAN MONNET";"87000";"LIMOGES";"Bâtiment"; 6.0;"EDF ou GDF"
2436350;0.92389;45.63028;"00° 55' 26.00'' Est, 45° 37' 49.00'' Nord";"87060";;"ROUTE DE VERGNES";"87230";"DOURNAZAC";"Château d'eau - réservoir"; 24.9;"Commune, communauté de commune"
2438594;1.11000;45.89500;"01° 06' 36.00'' Est, 45° 53' 42.00'' Nord";"87202";"LE MOULIN";"VOIE COMMUNALE 212";"87520";"VEYRAC";"Pylône autostable"; 32.0;"ATC FRANCE"
2454285;1.29417;45.57389;"01° 17' 39.00'' Est, 45° 34' 26.00'' Nord";"87127";"LE COMTEIX";"LE BOIS MARTEAU NORD ROUTE DE PIERRE BUFFIERE";"87800";"LA ROCHE-L'ABEILLE";"Pylône autostable"; 35.0;"EDF ou GDF"
