Numéro du support;Longitude;Latitude;"Position";"Insee";"Lieu dit";"Adresse";"Code postal";"Commune";"Nature du support";Hauteur en m;"Propriétaire"
20076;1.26778;45.85750;"01° 16' 04.00'' Est, 45° 51' 27.00'' Nord";"87085";"MOULIN PINARD";;"87280";"LIMOGES";"Pylône autostable"; 30.0;"TDF"
20110;1.17611;46.34722;"01° 10' 34.00'' Est, 46° 20' 50.00'' Nord";"87087";"DU PIQUET";"CD NO 24 DU BELLAC";"87360";"LUSSAC-LES-EGLISES";"Pylône autostable"; 25.0;"ORANGE Services Fixes"
20114;1.09833;46.27806;"01° 05' 54.00'' Est, 46° 16' 41.00'' Nord";"87195";"LA CROIX DE LA GETTE";"ETANG DE BOS";"87360";"TERSANNES";"Pylône haubané"; 49.0;"ORANGE Services Fixes"
20120;1.37167;46.31694;"01° 22' 18.00'' Est, 46° 19' 01.00'' Nord";"87182";;"RTE DE PUYFFERAT LES JAMOTTES";"87160";"SAINT-SULPICE-LES-FEUILLES";"Pylône autostable"; 23.0;"ORANGE Services Fixes"
20128;0.80528;45.63083;"00° 48' 19.00'' Est, 45° 37' 51.00'' Nord";"87092";"LE MAZELIER";;"87440";"MARVAL";"Pylône autostable"; 20.0;"ORANGE Services Fixes"
20138;1.45944;46.00250;"01° 27' 34.00'' Est, 46° 00' 09.00'' Nord";"87079";"PUY BERNARD";;"87340";"LA JONCHERE-SAINT-MAURICE";"Pylône autostable"; 14.0;"ORANGE Services Fixes"
20142;1.04556;45.99111;"01° 02' 44.00'' Est, 45° 59' 28.00'' Nord";"87045";;"R DU COLLÈGE";"87520";"CIEUX";"Mât"; 12.0;"ORANGE Services Fixes"
20144;1.03250;45.99083;"01° 01' 57.00'' Est, 45° 59' 27.00'' Nord";"87045";"LA CROIX DU CHAFAUD";;"87520";"CIEUX";"Pylône autostable"; 23.0;"ORANGE Services Fixes"
20146;1.27806;45.99111;"01° 16' 41.00'' Est, 45° 59' 28.00'' Nord";"87047";;"AV HENRI IV LE BOURG";"87140";"COMPREIGNAC";"Pylône tubulaire"; 12.0;"ORANGE Services Fixes"
20148;1.28417;46.02056;"01° 17' 03.00'' Est, 46° 01' 14.00'' Nord";"87047";"PUY DE LA BREUILHE";"MONTIMBERT D 248";"87140";"COMPREIGNAC";"Pylône autostable"; 22.0;"ORANGE Services Fixes"
20154;1.48472;45.83306;"01° 29' 05.00'' Est, 45° 49' 59.00'' Nord";"87161";;"2 R RENÉ CASSIN";"87400";"SAINT-LEONARD-DE-NOBLAT";"Bâtiment"; 6.0;
20192;1.39583;46.00750;"01° 23' 45.00'' Est, 46° 00' 27.00'' Nord";"87183";"LES BRULOUX - GRANDMONT";"D 78 CHEM DE ST SYLVESTRE À ST LÉGER";"87240";"SAINT-SYLVESTRE";"Pylône autostable"; 46.0;"ANFR"
42133;1.03083;45.76611;"01° 01' 51.00'' Est, 45° 45' 58.00'' Nord";"87191";"LES CANNES";;"87620";"SEREILHAC";"Pylône autostable"; 36.0;"SFR"
42149;1.50833;45.76806;"01° 30' 30.00'' Est, 45° 46' 05.00'' Nord";"87142";"BOS DU PEYRE";;"87400";"SAINT-DENIS-DES-MURS";"Pylône autostable"; 45.0;"SFR"
42153;1.59111;45.90083;"01° 35' 28.00'' Est, 45° 54' 03.00'' Nord";"87190";"LE PUY DE LA VUE";;"87400";"SAUVIAT-SUR-VIGE";"Pylône autostable"; 30.0;"SFR"
48252;1.01833;45.66111;"01° 01' 06.00'' Est, 45° 39' 40.00'' Nord";"87112";"LE PRÉ DU LAC";;"87230";"PAGEAS";"Pylône autostable"; 30.0;"SFR"
87315;1.23389;45.84500;"01° 14' 02.00'' Est, 45° 50' 42.00'' Nord";"87085";;"1 ALL LE TITIEN";"87280";"LIMOGES";"Immeuble"; 52.0;"Société HLM"
87379;1.19222;46.17917;"01° 11' 32.00'' Est, 46° 10' 45.00'' Nord";"87061";"LES ECHALIERS";;"87190";"DROUX";"Pylône autostable"; 40.0;"BOUYGUES"
87389;1.23389;45.79389;"01° 14' 02.00'' Est, 45° 47' 38.00'' Nord";"87048";;"14 AV LIMOGES";"87920";"CONDAT-SUR-VIENNE";"Immeuble"; 23.0;"BOUYGUES"
87393;1.25833;45.84972;"01° 15' 30.00'' Est, 45° 50' 59.00'' Nord";"87085";;"2 R MARYSE BASTIÉ";"87280";"LIMOGES";"Immeuble"; 32.9;"Copropriété, Syndic, SCI"
106648;0.98083;45.62694;"00° 58' 51.00'' Est, 45° 37' 37.00'' Nord";"87060";"LA JALIGNE";;"87230";"DOURNAZAC";"Pylône autostable"; 21.0;"ORANGE"
106668;1.05972;45.75694;"01° 03' 35.00'' Est, 45° 45' 25.00'' Nord";"87191";"LE POIRIER NORD";"CHEM D'EXPLOITATION N°28";"87620";"SEREILHAC";"Pylône autostable"; 38.0;"ORANGE"
106678;1.38639;45.66333;"01° 23' 11.00'' Est, 45° 39' 48.00'' Nord";"87203";"PONT DE GEASSE";;"87260";"VICQ-SUR-BREUILH";"Pylône autostable"; 30.0;"ORANGE"
106692;0.94000;46.11139;"00° 56' 24.00'' Est, 46° 06' 41.00'' Nord";"87097";"BOIS DE LA LANDE";;"87330";"MEZIERES-SUR-ISSOIRE";"Pylône autostable"; 30.0;"ORANGE"
106712;1.34917;46.00639;"01° 20' 57.00'' Est, 46° 00' 23.00'' Nord";"87183";"FANAY";;"87240";"SAINT-SYLVESTRE";"Pylône autostable"; 36.0;"ORANGE"
119356;1.63556;45.79833;"01° 38' 08.00'' Est, 45° 47' 54.00'' Nord";"87024";"LES VARACHES";;"87460";"BUJALEUF";"Pylône autostable"; 21.0;"ORANGE Services Fixes"
120221;0.92361;45.63028;"00° 55' 25.00'' Est, 45° 37' 49.00'' Nord";"87060";"LA CROIX BLANCHE";"RTE DES VERGNES";"87230";"DOURNAZAC";"Pylône tubulaire"; 12.0;"ORANGE Services Fixes"
120291;1.42639;45.75667;"01° 25' 35.00'' Est, 45° 45' 24.00'' Nord";"87174";"LA CROIX VERTE";"AV DE LIMOGES";"87260";"SAINT-PAUL";"Pylône tubulaire"; 15.0;
120328;0.90556;46.10806;"00° 54' 20.00'' Est, 46° 06' 29.00'' Nord";"87097";;"R DU TRAM ROUTE CHAMPEAUX";"87330";"MEZIERES-SUR-ISSOIRE";"Bâtiment"; 7.0;"Particulier"
143803;1.07083;45.65833;"01° 04' 15.00'' Est, 45° 39' 30.00'' Nord";"87029";"LES BORDERIES";"FORÊT DES CARS";"87230";"LES CARS";"Tour hertzienne"; 44.0;"TDF"
160199;1.12500;45.85306;"01° 07' 30.00'' Est, 45° 51' 11.00'' Nord";"87201";;"LE BOURG";"87430";"VERNEUIL-SUR-VIENNE";"Support non décrit"; 20.0;
163794;0.89750;45.88917;"00° 53' 51.00'' Est, 45° 53' 21.00'' Nord";"87154";;"8 R CHATEAUBRIAND CENTRE HOSPITALIER DE SAINT JUNIEN";"87200";"SAINT-JUNIEN";"Bâtiment"; 15.0;"Etablissement de soins"
172955;1.26111;45.82611;"01° 15' 40.00'' Est, 45° 49' 34.00'' Nord";"87085";;"9 PL LEON BETOULLE";"87280";"LIMOGES";"Support non décrit";;
201980;1.23139;45.81528;"01° 13' 53.00'' Est, 45° 48' 55.00'' Nord";"87085";;"2 AV MARTIN LUTHER KING";"87280";"LIMOGES";"Support non décrit"; 0.0;
202004;0.91167;45.89444;"00° 54' 42.00'' Est, 45° 53' 40.00'' Nord";"87154";;"CTRE MOYENS ET LONGS SEJOURS CHANTEMERLE";"87200";"SAINT-JUNIEN";"Support non décrit"; 18.0;
216116;1.43278;46.17167;"01° 25' 58.00'' Est, 46° 10' 18.00'' Nord";"87068";;"RST FROMENTAL PK 351.460";"87250";"FROMENTAL";"Mât"; 22.0;"SNCF Réseau"
216120;1.42833;46.13833;"01° 25' 42.00'' Est, 46° 08' 18.00'' Nord";"87067";;"RST BOIS DU LAC PK 355.545";"87250";"FOLLES";"Mât"; 22.0;"SNCF Réseau"
216124;1.45083;46.05833;"01° 27' 03.00'' Est, 46° 03' 30.00'' Nord";"87181";;"RST TUNNEL DU COMBEAU PK 365.500";"87370";"SAINT-SULPICE-LAURIERE";"Mât"; 10.0;"SNCF Réseau"
216126;1.49667;46.03472;"01° 29' 48.00'' Est, 46° 02' 05.00'' Nord";"87076";;"RST TUNNEL DE ST SULPICE PK 370.120";"87370";"JABREILLES-LES-BORDES";"Mât"; 22.0;"SNCF Réseau"
216128;1.48778;45.99778;"01° 29' 16.00'' Est, 45° 59' 52.00'' Nord";"87079";;"RST LA JONCHERE PK 374.720";"87340";"LA JONCHERE-SAINT-MAURICE";"Mât"; 10.0;"SNCF Réseau"
216132;1.44806;45.96472;"01° 26' 53.00'' Est, 45° 57' 53.00'' Nord";"87002";;"RST LE COUSSAT PK 379.610";"87240";"AMBAZAC";"Mât"; 22.0;"SNCF Réseau"
216136;1.39139;45.93861;"01° 23' 29.00'' Est, 45° 56' 19.00'' Nord";"87002";;"RST TUNNEL DE NOUAILLAS PK 385.450";"87240";"AMBAZAC";"Mât"; 25.0;"SNCF Réseau"
216138;1.34917;45.88528;"01° 20' 57.00'' Est, 45° 53' 07.00'' Nord";"87113";;"RST LE PALAIS PK 392.350";"87410";"LE PALAIS-SUR-VIENNE";"Mât"; 22.0;"SNCF Réseau"
216140;1.31944;45.86639;"01° 19' 10.00'' Est, 45° 51' 59.00'' Nord";"87113";;"RST LE PALAIS PONT DURAND PK 395.860";"87410";"LE PALAIS-SUR-VIENNE";"Mât"; 22.0;"SNCF Réseau"
216144;1.26806;45.83500;"01° 16' 05.00'' Est, 45° 50' 06.00'' Nord";"87085";;"RST LIMOGES POSTE H PK 401.540";"87280";"LIMOGES";"Mât"; 5.0;"SNCF Réseau"
216146;1.25917;45.82139;"01° 15' 33.00'' Est, 45° 49' 17.00'' Nord";"87085";;"RST LIMOGES POSTE K PK 402.811";"87280";"LIMOGES";"Mât"; 15.0;"SNCF Réseau"
216150;1.26889;45.78000;"01° 16' 08.00'' Est, 45° 46' 48.00'' Nord";"87192";;"RST TUNNEL DE POUZOL PK 409.135";"87110";"SOLIGNAC";"Mât"; 5.0;"SNCF Réseau"
216154;1.27000;45.76028;"01° 16' 12.00'' Est, 45° 45' 37.00'' Nord";"87192";;"RST PONT DE LEGAT PK 411.350";"87110";"SOLIGNAC";"Mât"; 15.0;"SNCF Réseau"
216162;1.32389;45.72972;"01° 19' 26.00'' Est, 45° 43' 47.00'' Nord";"87019";;"RST LA PLANCHE-LA ROSELLE PK 417.480";"87220";"BOISSEUIL";"Mât"; 22.0;"SNCF Réseau"
216166;1.37528;45.69000;"01° 22' 31.00'' Est, 45° 41' 24.00'' Nord";"87119";;"RST CHABANAS PK 424.110";"87260";"PIERRE-BUFFIERE";"Mât"; 22.0;"SNCF Réseau"
216168;1.42111;45.66667;"01° 25' 16.00'' Est, 45° 39' 60.00'' Nord";"87203";;"RST FARGEAS EX PN 249 PK 428.660";"87260";"VICQ-SUR-BREUILH";"Mât"; 22.0;"SNCF Réseau"
216172;1.44444;45.62722;"01° 26' 40.00'' Est, 45° 37' 38.00'' Nord";"87203";;"RST MAGNAC PK 433.690";"87260";"VICQ-SUR-BREUILH";"Mât"; 15.0;"SNCF Réseau"
216176;1.49750;45.60000;"01° 29' 51.00'' Est, 45° 36' 00.00'' Nord";"87146";;"RST LA RIVIERE PK 438.806";"87380";"SAINT-GERMAIN-LES-BELLES";"Mât"; 22.0;"SNCF Réseau"
216180;1.52639;45.58472;"01° 31' 35.00'' Est, 45° 35' 05.00'' Nord";"87120";;"RST LA CABANNE ROUGE PK 441.795";"87380";"LA PORCHERIE";"Mât"; 15.0;"SNCF Réseau"
216184;1.23750;45.80611;"01° 14' 15.00'' Est, 45° 48' 22.00'' Nord";"87075";;"RST ISLE PN 234 PK 405.290";"87170";"ISLE";"Mât"; 10.0;"SNCF Réseau"
216190;1.19167;45.77750;"01° 11' 30.00'' Est, 45° 46' 39.00'' Nord";"87021";;"RST LE BASTIER PK 410.500";"87110";"BOSMIE-L'AIGUILLE";"Mât"; 30.0;"SNCF Réseau"
216192;1.18000;45.73694;"01° 10' 48.00'' Est, 45° 44' 13.00'' Nord";"87025";;"RST LE GRAND CHALIERE PK 415.480";"87800";"BURGNAC";"Mât"; 22.0;"SNCF Réseau"
216196;1.17889;45.69278;"01° 10' 44.00'' Est, 45° 41' 34.00'' Nord";"87106";;"RST NEXON PK 421.150";"87800";"NEXON";"Mât"; 22.0;"SNCF Réseau"
219595;1.22250;45.83639;"01° 13' 21.00'' Est, 45° 50' 11.00'' Nord";"87085";;"RTE D'ANGOULEME DEPOT DE L'AURENCE";"87280";"LIMOGES";"Bâtiment"; 13.0;
240425;1.23139;45.84389;"01° 13' 53.00'' Est, 45° 50' 38.00'' Nord";"87085";;"2 ALLÉE KAHN";"87280";"LIMOGES";"Immeuble"; 28.0;"Société HLM"
260519;1.11694;45.57722;"01° 07' 01.00'' Est, 45° 34' 38.00'' Nord";"87082";;"14 R DE CLÉROIR CHÂTEAU D'EAU";"87500";"LADIGNAC-LE-LONG";"Château d'eau - réservoir"; 26.8;"Commune, communauté de commune"
263644;1.24278;45.83528;"01° 14' 34.00'' Est, 45° 50' 07.00'' Nord";"87085";;"47 - 73 AV ALBERT THOMAS";"87280";"LIMOGES";"Immeuble"; 20.0;"Etat, Ministère"
277711;1.25889;45.85472;"01° 15' 32.00'' Est, 45° 51' 17.00'' Nord";"87085";;"5 ALLÉE COLETTE";"87280";"LIMOGES";"Immeuble"; 29.0;"Société HLM"
277713;1.26889;45.81778;"01° 16' 08.00'' Est, 45° 49' 04.00'' Nord";"87085";;"21 R DES PORTES FERRÉES";"87280";"LIMOGES";"Immeuble"; 21.0;"Société HLM"
278405;1.24083;45.83806;"01° 14' 27.00'' Est, 45° 50' 17.00'' Nord";"87085";;"AV ALBERT THOMAS";"87280";"LIMOGES";"Bâtiment"; 28.0;"Société Privée SA"
292194;1.29639;45.87833;"01° 17' 47.00'' Est, 45° 52' 42.00'' Nord";"87085";;"23 ALLÉE FABRE D'EGLANTINE";"87280";"LIMOGES";"Immeuble"; 30.0;"Société HLM"
292358;1.30111;45.84861;"01° 18' 04.00'' Est, 45° 50' 55.00'' Nord";"87085";;"72 RTE DU PALAIS CHATEAU D'EAU";"87280";"LIMOGES";"Château d'eau - réservoir"; 42.0;"Société Privée SA"
296468;1.24861;45.82722;"01° 14' 55.00'' Est, 45° 49' 38.00'' Nord";"87085";;"3 AV ST ELOI";"87280";"LIMOGES";"Immeuble"; 20.0;"Copropriété, Syndic, SCI"
299638;1.29111;45.83667;"01° 17' 28.00'' Est, 45° 50' 12.00'' Nord";"87114";"DOMAINE DES VIGNES";"2 AV DU PRÉSIDENT RENÉ COTY";"87350";"PANAZOL";"Pylône tubulaire"; 24.0;"ORANGE"
300265;1.27056;45.87861;"01° 16' 14.00'' Est, 45° 52' 43.00'' Nord";"87085";"LE MAUZELET";"8 R PANHARD LEVASSOR ZI NORD";"87280";"LIMOGES";"Pylône tubulaire"; 24.0;"ORANGE"
303927;1.26667;45.83167;"01° 15' 60.00'' Est, 45° 49' 54.00'' Nord";"87085";;"R CHARLES GIDE PASTEL";"87280";"LIMOGES";"Bâtiment"; 30.0;"Etat, Ministère"
319098;1.22722;45.80833;"01° 13' 38.00'' Est, 45° 48' 30.00'' Nord";"87075";;"4 R LÉON BÉTOULLE";"87170";"ISLE";"Bâtiment"; 28.0;"Société HLM"
319100;1.28667;45.88056;"01° 17' 12.00'' Est, 45° 52' 50.00'' Nord";"87085";"LE PETIT THEIL";"R DU PETIT THEIL Z.I NORD";"87280";"LIMOGES";"Pylône tubulaire"; 21.0;"ORANGE"
328839;1.25639;45.83000;"01° 15' 23.00'' Est, 45° 49' 48.00'' Nord";"87085";;"25 PL DES BANCS";"87280";"LIMOGES";"Bâtiment"; 20.0;"Copropriété, Syndic, SCI"
333863;1.51444;45.94278;"01° 30' 52.00'' Est, 45° 56' 34.00'' Nord";"87157";"LE PONT DU DOGNON";"CAMPING MUNICIPAL CD 29";"87240";"SAINT-LAURENT-LES-EGLISES";"Mât"; 10.0;"ORANGE"
338467;1.25611;45.83000;"01° 15' 22.00'' Est, 45° 49' 48.00'' Nord";"87085";;"PL DE LA MOTTE AGENCE FT";"87280";"LIMOGES";"Bâtiment"; 20.3;"Particulier"
349317;1.08667;46.30528;"01° 05' 12.00'' Est, 46° 18' 19.00'' Nord";"87006";"LE RANCOUMEAU";"CHEM RURAL";"87360";"AZAT-LE-RIS";"Pylône autostable"; 32.0;"Conseil Général"
350435;1.32333;46.34083;"01° 19' 24.00'' Est, 46° 20' 27.00'' Nord";"87053";"LA VERGNADE";"PRÈS D.23";"87160";"CROMAC";"Pylône autostable"; 30.0;"Conseil Général"
350639;1.25861;45.83694;"01° 15' 31.00'' Est, 45° 50' 13.00'' Nord";"87085";;"39 B , AV DE GARIBALDI CCAL ST MARTIAL";"87280";"LIMOGES";"Intérieur galerie"; 3.0;"Particulier"
353764;1.17500;46.21806;"01° 10' 30.00'' Est, 46° 13' 05.00'' Nord";"87089";;"BEAUSEJOUR 8 AVE G SAND";"87190";"MAGNAC-LAVAL";"Château d'eau - réservoir"; 35.0;"Syndicat des eaux, Adduction"
356182;1.50472;45.62778;"01° 30' 17.00'' Est, 45° 37' 40.00'' Nord";"87146";"LE GRAND CHAMP DE CHASSAGNAS";;"87380";"SAINT-GERMAIN-LES-BELLES";"Pylône tubulaire"; 13.0;"Société Privée SA"
389716;1.25111;46.28472;"01° 15' 04.00'' Est, 46° 17' 05.00'' Nord";"87160";"LE PETIT BOIS";"D. 63";"87190";"SAINT-LEGER-MAGNAZEIX";"Château d'eau - réservoir"; 25.0;"Commune, communauté de commune"
391704;1.04361;46.10528;"01° 02' 37.00'' Est, 46° 06' 19.00'' Nord";"87011";"MADÈRE";;"87300";"BELLAC";"Bâtiment"; 8.0;"EDF GDF"
391706;1.26139;45.82111;"01° 15' 41.00'' Est, 45° 49' 16.00'' Nord";"87085";;"19 BIS AV DE LA RÉVOLUTION";"87280";"LIMOGES";"Immeuble"; 34.0;"EDF GDF"
391708;1.29389;45.57389;"01° 17' 38.00'' Est, 45° 34' 26.00'' Nord";"87127";"LE BOIS MARTEAU NORD";;"87800";"LA ROCHE-L'ABEILLE";"Pylône autostable"; 35.0;"EDF GDF"
391710;1.53361;45.82083;"01° 32' 01.00'' Est, 45° 49' 15.00'' Nord";"87161";"CHASSAGNAT";;"87400";"SAINT-LEONARD-DE-NOBLAT";"Pylône autostable"; 41.0;"EDF GDF"
391712;1.70444;45.68944;"01° 42' 16.00'' Est, 45° 41' 22.00'' Nord";"87064";"VILLEMONTEIX";;"87120";"EYMOUTIERS";"Pylône autostable"; 46.0;"EDF GDF"
395879;1.44972;46.03583;"01° 26' 59.00'' Est, 46° 02' 09.00'' Nord";"87159";;"LES FANÈRES";"87340";"SAINT-LEGER-LA-MONTAGNE";"Pylône autostable"; 40.0;"EDF GDF"
395881;1.30167;45.81028;"01° 18' 06.00'' Est, 45° 48' 37.00'' Nord";"87065";;"13 R LOUIS ARMAND ZA LE PONTEIX";"87220";"FEYTIAT";"Bâtiment"; 12.0;"EDF GDF"
396483;1.23333;45.84472;"01° 14' 00.00'' Est, 45° 50' 41.00'' Nord";"87085";;"18 R OLIVIER DE SERRES";"87280";"LIMOGES";"Immeuble"; 55.0;"Société HLM"
398234;1.29917;45.87611;"01° 17' 57.00'' Est, 45° 52' 34.00'' Nord";"87085";"BEAUBREUIL";"4 ALLÉE FABRE D'EGLANTINE";"87280";"LIMOGES";"Immeuble"; 28.0;"Société HLM"
424137;1.12417;46.16028;"01° 07' 27.00'' Est, 46° 09' 37.00'' Nord";"87061";"LE PETIT MONT";"VOIE COMMUNALE";"87190";"DROUX";"Pylône autostable"; 30.0;"ORANGE"
424403;1.37583;46.26472;"01° 22' 33.00'' Est, 46° 15' 53.00'' Nord";"87003";;"AV ALSACE LORRAINE D61";"87160";"ARNAC-LA-POSTE";"Mât béton"; 10.0;"ORANGE Services Fixes"
428491;1.29111;45.86333;"01° 17' 28.00'' Est, 45° 51' 48.00'' Nord";"87085";;"2 R COLOMBIA";"87000";"LIMOGES";"Pylône tubulaire"; 22.0;"ORANGE"
435834;1.42889;46.32472;"01° 25' 44.00'' Est, 46° 19' 29.00'' Nord";"87182";"PEU DES QUATRE VENTS";;"87160";"SAINT-SULPICE-LES-FEUILLES";"Pylône autostable"; 43.0;"SFR"
437450;1.18861;45.88528;"01° 11' 19.00'' Est, 45° 53' 07.00'' Nord";"87050";"LES PIÈCES DE LESSINE";;"87270";"COUZEIX";"Pylône autostable"; 28.0;"FPS TOWERS"
437738;1.24361;45.84139;"01° 14' 37.00'' Est, 45° 50' 29.00'' Nord";"87085";;"1 À 7 R DES PALMIERS";"87000";"LIMOGES";"Immeuble"; 25.0;"Copropriété, Syndic, SCI"
438071;1.28111;46.13556;"01° 16' 52.00'' Est, 46° 08' 08.00'' Nord";"87041";"LES GACHES";"R DU CHÂTEAU D'EAU PL DU 19 MARS 1962";"87290";"CHATEAUPONSAC";"Château d'eau - réservoir"; 28.0;"Commune, communauté de commune"
440613;1.30611;45.81528;"01° 18' 22.00'' Est, 45° 48' 55.00'' Nord";"87065";"LA VIGNE DE CRÉZIN";"R DE LA PORCELAINE ZI DU PONTEIX";"87220";"FEYTIAT";"Pylône autostable"; 33.5;"ORANGE"
441222;1.30306;45.63278;"01° 18' 11.00'' Est, 45° 37' 58.00'' Nord";"87176";"LA TRAPPE";"CHEM RURAL";"87800";"SAINT-PRIEST-LIGOURE";"Pylône autostable"; 35.0;"FPS TOWERS"
443367;1.27250;45.83417;"01° 16' 21.00'' Est, 45° 50' 03.00'' Nord";"87085";;"14 R JEAN GAGNANT";"87000";"LIMOGES";"Immeuble"; 35.0;"Société HLM"
443412;1.30889;45.91833;"01° 18' 32.00'' Est, 45° 55' 06.00'' Nord";"87125";"LES MINES";;"87570";"RILHAC-RANCON";"Pylône autostable"; 28.0;"BOUYGUES"
443624;1.04667;46.12139;"01° 02' 48.00'' Est, 46° 07' 17.00'' Nord";"87011";;"14 PL DE LA REPUBLIQUE";"87300";"BELLAC";"Bâtiment"; 14.0;"Particulier"
443823;1.09806;46.21056;"01° 05' 53.00'' Est, 46° 12' 38.00'' Nord";"87059";"LAMONT";"CHÂTEAU D'EAU DE LAMONT";"87210";"LE DORAT";"Château d'eau - réservoir"; 41.0;"Commune, communauté de commune"
446258;1.24750;45.85028;"01° 14' 51.00'' Est, 45° 51' 01.00'' Nord";"87085";;"76 BD DU VIGENAL";"87000";"LIMOGES";"Immeuble"; 22.0;"Copropriété, Syndic, SCI"
446292;1.06528;46.12250;"01° 03' 55.00'' Est, 46° 07' 21.00'' Nord";"87011";"LES CSES";"LES MÉZIÈRES";"87300";"BELLAC";"Pylône autostable"; 38.0;"ORANGE Services Fixes"
447356;1.22417;46.18611;"01° 13' 27.00'' Est, 46° 11' 10.00'' Nord";"87057";"LE MARMENOUX";;"87190";"DOMPIERRE-LES-EGLISES";"Pylône autostable"; 39.0;"TDF"
447447;1.59333;45.71500;"01° 35' 36.00'' Est, 45° 42' 54.00'' Nord";"87040";"LE CHALARD";;"87130";"CHATEAUNEUF-LA-FORET";"Pylône autostable"; 35.0;"TDF"
449345;1.20444;45.55167;"01° 12' 16.00'' Est, 45° 33' 06.00'' Nord";"87187";"BOURDELAS";"MARCHÉ À BESTIAUX ZA BOURDELAS";"87500";"SAINT-YRIEIX-LA-PERCHE";"Pylône tubulaire"; 30.0;"ORANGE"
449481;1.23139;45.82889;"01° 13' 53.00'' Est, 45° 49' 44.00'' Nord";"87085";;"R DU PUY LAS RODAS";"87000";"LIMOGES";"Pylône autostable"; 74.0;"TDF"
450273;1.28222;45.80583;"01° 16' 56.00'' Est, 45° 48' 21.00'' Nord";"87085";;"10 R LÉON WALRAS  SOCIÉTÉ MILLER GRAPHICS";"87000";"LIMOGES";"Pylône tubulaire"; 26.0;"ORANGE"
450482;1.31250;45.78028;"01° 18' 45.00'' Est, 45° 46' 49.00'' Nord";"87205";"LE BAS FAURE";"LE PETIT L'AGE VOIE COM PRÈS DU CHÂTEAU D'EAU";"87110";"LE VIGEN";"Tour hertzienne"; 95.0;"TDF"
452387;1.24639;45.76722;"01° 14' 47.00'' Est, 45° 46' 02.00'' Nord";"87048";"LE PRE MARTIN VEYRINAS";;"87920";"CONDAT-SUR-VIENNE";"Pylône autostable"; 35.0;"TDF"
454560;1.31694;45.86250;"01° 19' 01.00'' Est, 45° 51' 45.00'' Nord";"87113";;"30 R PIERRE BROSSOLETTE";"87410";"LE PALAIS-SUR-VIENNE";"Immeuble"; 22.0;"Société HLM"
455960;0.88528;45.87972;"00° 53' 07.00'' Est, 45° 52' 47.00'' Nord";"87154";"CODILLE";"PEYRISSAT";"87200";"SAINT-JUNIEN";"Pylône autostable"; 44.0;"TDF"
456949;1.30056;46.20583;"01° 18' 02.00'' Est, 46° 12' 21.00'' Nord";"87180";"PEU GRAND";"RTE DE ST SORNIN LEULAC À CHANTEGRELLE";"87290";"SAINT-SORNIN-LEULAC";"Pylône autostable"; 30.0;"SFR"
457881;1.22722;45.80750;"01° 13' 38.00'' Est, 45° 48' 27.00'' Nord";"87075";"LES BAYLES";"6 R LEON BETOULLE";"87170";"ISLE";"Immeuble"; 29.7;"Copropriété, Syndic, SCI"
459188;1.27806;45.81278;"01° 16' 41.00'' Est, 45° 48' 46.00'' Nord";"87085";;"10 R ERNEST MALLARD ZI DU MAGRE";"87000";"LIMOGES";"Immeuble"; 26.3;"Société HLM"
464862;1.31139;45.83667;"01° 18' 41.00'' Est, 45° 50' 12.00'' Nord";"87114";;"1 IMP JEAN-JAURÉS";"87350";"PANAZOL";"Immeuble"; 21.8;"Copropriété, Syndic, SCI"
465843;1.42528;45.91889;"01° 25' 31.00'' Est, 45° 55' 08.00'' Nord";"87167";"LE BOST";"VOIE COMMUNALE N° 5 B";"87400";"SAINT-MARTIN-TERRESSUS";"Pylône autostable"; 40.0;"TDF"
468848;1.29194;46.09361;"01° 17' 31.00'' Est, 46° 05' 37.00'' Nord";"87041";"FOURNACHOUX";;"87290";"CHATEAUPONSAC";"Pylône autostable"; 51.0;"TDF"
468915;1.28861;45.77833;"01° 17' 19.00'' Est, 45° 46' 42.00'' Nord";"87205";"LA CROIX DE L'ARBRE";"CHEM DÉPARTEMENTAL N° 704";"87110";"LE VIGEN";"Pylône autostable"; 56.0;"TDF"
472757;1.21222;45.80833;"01° 12' 44.00'' Est, 45° 48' 30.00'' Nord";"87075";;"R DE L'AIGUILLE D 74 CHÂTEAU D'EAU";"87170";"ISLE";"Château d'eau - réservoir"; 23.0;"Syndicat des eaux, Adduction"
472784;1.21278;45.81750;"01° 12' 46.00'' Est, 45° 49' 03.00'' Nord";"87075";;"R JEAN PERRIN ETS LASSINCE";"87170";"ISLE";"Pylône tubulaire"; 30.0;"ORANGE"
475383;0.85750;45.91222;"00° 51' 27.00'' Est, 45° 54' 44.00'' Nord";"87154";"PLAUD";"PRÈS D21A";"87200";"SAINT-JUNIEN";"Pylône autostable"; 28.0;"RTE"
477630;1.28750;45.82861;"01° 17' 15.00'' Est, 45° 49' 43.00'' Nord";"87114";"LES VIGNES";"R CLÉMENCEAU";"87350";"PANAZOL";"Pylône autostable"; 45.0;"TDF"
478851;1.14306;45.80056;"01° 08' 35.00'' Est, 45° 48' 02.00'' Nord";"87001";"LES RIVAUDS";"IMP DU RELAIS";"87700";"AIXE-SUR-VIENNE";"Pylône autostable"; 30.0;"TDF"
483274;1.29944;45.87000;"01° 17' 58.00'' Est, 45° 52' 12.00'' Nord";"87085";;"R DE FOUGERAS";"87000";"LIMOGES";"Pylône autostable"; 85.0;"TDF"
484745;1.12694;45.84889;"01° 07' 37.00'' Est, 45° 50' 56.00'' Nord";"87201";;"PL DE L'EGLISE";"87430";"VERNEUIL-SUR-VIENNE";"Monument religieux"; 29.0;"Commune, communauté de commune"
486868;1.22306;45.87667;"01° 13' 23.00'' Est, 45° 52' 36.00'' Nord";"87050";"COYOL";;"87270";"COUZEIX";"Pylône autostable"; 36.0;"ORANGE"
487474;1.13722;46.05889;"01° 08' 14.00'' Est, 46° 03' 32.00'' Nord";"87012";"LA GOURINOTE";"CHEM RURAL - VC N°201";"87300";"BERNEUIL";"Château d'eau - réservoir"; 26.0;"Syndicat des eaux, Adduction"
495386;1.25889;45.83778;"01° 15' 32.00'' Est, 45° 50' 16.00'' Nord";"87085";;"49 AV GARIBALDI";"87000";"LIMOGES";"Immeuble"; 25.5;"Copropriété, Syndic, SCI"
498637;1.40694;45.95444;"01° 24' 25.00'' Est, 45° 57' 16.00'' Nord";"87002";;"R MARYSE BASTIÉ - LA GARE";"87240";"AMBAZAC";"Pylône autostable"; 31.0;"TDF"
498841;1.04306;46.11250;"01° 02' 35.00'' Est, 46° 06' 45.00'' Nord";"87011";"LE GUI NOIR";;"87300";"BELLAC";"Pylône autostable"; 46.0;"TDF"
498981;1.14861;45.86056;"01° 08' 55.00'' Est, 45° 51' 38.00'' Nord";"87201";"MOULIN DE TRANCHEPIE";;"87430";"VERNEUIL-SUR-VIENNE";"Pylône autostable"; 44.0;"TDF"
498996;1.24944;45.83472;"01° 14' 58.00'' Est, 45° 50' 05.00'' Nord";"87085";;"19 R DE LA RESISTANCE LIMOUSINE";"87000";"LIMOGES";"Immeuble"; 27.0;"Société HLM"
499412;1.22750;45.92361;"01° 13' 39.00'' Est, 45° 55' 25.00'' Nord";"87038";"CHANTELAUVE";"RTE DÉPART. 7";"87270";"CHAPTELAT";"Pylône autostable"; 44.0;"TDF"
505181;1.34000;45.78222;"01° 20' 24.00'' Est, 45° 46' 56.00'' Nord";"87019";"LES CHEVAILLES";;"87220";"BOISSEUIL";"Château d'eau - réservoir"; 64.0;"Syndicat des eaux, Adduction"
507010;1.25444;45.72389;"01° 15' 16.00'' Est, 45° 43' 26.00'' Nord";"87205";"LE PUY MATHIEU";"LES GABISSES";"87110";"LE VIGEN";"Pylône autostable"; 44.0;"BOUYGUES"
507154;1.29917;45.87194;"01° 17' 57.00'' Est, 45° 52' 19.00'' Nord";"87085";"BEAUBREUIL";"CHÂTEAU D'EAU DE BAUBREUIL AV DU CHÂTEAU D'EAU, CROISEMENT DE LA D142";"87000";"LIMOGES";"Château d'eau - réservoir"; 57.6;"Commune, communauté de commune"
508807;1.19139;46.00417;"01° 11' 29.00'' Est, 46° 00' 15.00'' Nord";"87103";"MIGOULET";"RTE DU HAMEAU DE MIGOULET";"87140";"NANTIAT";"Pylône autostable"; 65.0;"TDF"
508837;1.51056;45.56500;"01° 30' 38.00'' Est, 45° 33' 54.00'' Nord";"87120";"BEAUSOLEIL";;"87380";"LA PORCHERIE";"Tour hertzienne"; 58.0;"TDF"
510806;1.20556;45.51972;"01° 12' 20.00'' Est, 45° 31' 11.00'' Nord";"87187";"LES FIEUX";"AV DE LA GARE";"87500";"SAINT-YRIEIX-LA-PERCHE";"Pylône autostable"; 37.0;"BOUYGUES"
512316;1.10194;45.87611;"01° 06' 07.00'' Est, 45° 52' 34.00'' Nord";"87201";"BEAUVALET";"RTE DU HAMEAU DE BAGOULES";"87430";"VERNEUIL-SUR-VIENNE";"Pylône autostable"; 50.0;"TDF"
514524;1.43444;45.80750;"01° 26' 04.00'' Est, 45° 48' 27.00'' Nord";"87070";"LES CROUZETTES";;"87400";"LA GENEYTOUSE";"Pylône autostable"; 42.0;"ORANGE Services Fixes"
515139;1.25972;45.83056;"01° 15' 35.00'' Est, 45° 49' 50.00'' Nord";"87085";;"23 R JEAN JAURES";"87000";"LIMOGES";"Immeuble"; 29.0;"Copropriété, Syndic, SCI"
516129;0.83694;45.83361;"00° 50' 13.00'' Est, 45° 50' 01.00'' Nord";"87126";"LA GROSILLE";;"87600";"ROCHECHOUART";"Pylône tubulaire"; 52.0;"TDF"
518442;0.89972;45.87583;"00° 53' 59.00'' Est, 45° 52' 33.00'' Nord";"87154";"JARATY - CHEZ BEILLOU";;"87200";"SAINT-JUNIEN";"Pylône autostable"; 47.0;"TDF"
518569;1.29333;46.00389;"01° 17' 36.00'' Est, 46° 00' 14.00'' Nord";"87047";"PENY";;"87140";"COMPREIGNAC";"Pylône autostable"; 29.0;"TDF"
518607;1.47778;45.83972;"01° 28' 40.00'' Est, 45° 50' 23.00'' Nord";"87161";"LA VIGNE SAUVAGE";"RELAIS TV TDF LE PENAUD";"87400";"SAINT-LEONARD-DE-NOBLAT";"Pylône autostable"; 37.0;"TDF"
518674;1.10806;46.14583;"01° 06' 29.00'' Est, 46° 08' 45.00'' Nord";"87017";"MASFRANT";;"87300";"BLANZAC";"Pylône autostable"; 35.0;"TDF"
520872;1.37028;45.84833;"01° 22' 13.00'' Est, 45° 50' 54.00'' Nord";"87156";"PETIT BONNEFONT";;"87590";"SAINT-JUST-LE-MARTEL";"Pylône autostable"; 35.0;"TDF"
520966;1.24639;45.81833;"01° 14' 47.00'' Est, 45° 49' 06.00'' Nord";"87085";;"1, 3, 5 R ANDRÉ MESSAGER";"87000";"LIMOGES";"Immeuble"; 42.0;"Société HLM"
522892;1.37056;46.12889;"01° 22' 14.00'' Est, 46° 07' 44.00'' Nord";"87014";"LA GARE";"PRES DE L' INTERSEC  D711 ET  D220 LA CROIX DU BREUIL";"87250";"BESSINES-SUR-GARTEMPE";"Pylône autostable"; 47.0;"TDF"
523033;1.22222;45.76556;"01° 13' 20.00'' Est, 45° 45' 56.00'' Nord";"87021";"LA FRUGERIE";"CHEM RURAL";"87110";"BOSMIE-L'AIGUILLE";"Pylône tubulaire"; 34.0;"ORANGE Services Fixes"
523125;0.96500;45.76472;"00° 57' 54.00'' Est, 45° 45' 53.00'' Nord";"87158";"LES GENTES";;"87310";"SAINT-LAURENT-SUR-GORRE";"Pylône autostable"; 24.0;"ORANGE"
535495;0.81972;45.87500;"00° 49' 11.00'' Est, 45° 52' 30.00'' Nord";"87131";"AUSSEDAT-REY";"PRES LIGNE DE CHEM DE FER";"87720";"SAILLAT-SUR-VIENNE";"Bâtiment"; 68.3;"Société Privée SA"
536858;1.03083;46.02583;"01° 01' 51.00'' Est, 46° 01' 33.00'' Nord";"87018";"BACHELLERIE";;"87300";"BLOND";"Tour hertzienne"; 40.0;"Aviation Civile"
539083;1.22833;45.51361;"01° 13' 42.00'' Est, 45° 30' 49.00'' Nord";"87187";;"R DES GIROFLÉES CHATEAU D'EAU DU STADE";"87500";"SAINT-YRIEIX-LA-PERCHE";"Château d'eau - réservoir"; 48.0;"Syndicat des eaux, Adduction"
539161;1.23639;45.88972;"01° 14' 11.00'' Est, 45° 53' 23.00'' Nord";"87050";"BOSMATHÉ";"CHÂTEAU D'EAU";"87270";"COUZEIX";"Château d'eau - réservoir"; 29.0;"Commune, communauté de commune"
544608;1.19750;45.50583;"01° 11' 51.00'' Est, 45° 30' 21.00'' Nord";"87187";;"R DU COLONEL GARREAU DE LA MICHENIE";"87500";"SAINT-YRIEIX-LA-PERCHE";"Pylône tubulaire"; 30.0;"ORANGE"
559425;1.33583;45.81500;"01° 20' 09.00'' Est, 45° 48' 54.00'' Nord";"87065";"LA CROIX ROUGE";"47 AV DE LA LIBÉRATION STADE PIERRE LACORE";"87220";"FEYTIAT";"Pylône tubulaire"; 32.0;"SFR"
563513;0.90111;45.87667;"00° 54' 04.00'' Est, 45° 52' 36.00'' Nord";"87154";;"CHEM COMMUNAL N°87 PYLÔNE RTE N°41";"87200";"SAINT-JUNIEN";"Pylône autostable"; 34.0;"RTE"
563519;0.88528;45.88139;"00° 53' 07.00'' Est, 45° 52' 53.00'' Nord";"87154";;"CHEM DE THONNISSERIE PYLÔNE RTE N°36";"87200";"SAINT-JUNIEN";"Pylône autostable"; 34.0;"RTE"
564241;1.02833;45.90167;"01° 01' 42.00'' Est, 45° 54' 06.00'' Nord";"87110";"LE LOUBIER";;"87520";"ORADOUR-SUR-GLANE";"Pylône autostable"; 49.0;"FPS TOWERS"
571497;1.25694;45.82833;"01° 15' 25.00'' Est, 45° 49' 42.00'' Nord";"87085";;"40 BD GAMBETTA";"87000";"LIMOGES";"Immeuble"; 29.0;"Copropriété, Syndic, SCI"
572074;1.65083;45.65028;"01° 39' 03.00'' Est, 45° 39' 01.00'' Nord";"87194";"MEILLAC";;"87130";"SUSSAC";"Pylône autostable"; 46.0;"TDF"
572116;1.82889;45.80972;"01° 49' 44.00'' Est, 45° 48' 35.00'' Nord";"87117";"PUY LENTY";"CHEMIN BEL";"87470";"PEYRAT-LE-CHATEAU";"Pylône autostable"; 35.0;"TDF"
574286;1.81056;45.78389;"01° 48' 38.00'' Est, 45° 47' 02.00'' Nord";"87117";"PAIN POT";"GRAND GRAMMONT ABRI COMMUNAL";"87470";"PEYRAT-LE-CHATEAU";"Pylône autostable"; 25.0;"ORANGE Services Fixes"
581296;1.06500;46.12306;"01° 03' 54.00'' Est, 46° 07' 23.00'' Nord";"87011";"LES MÉZIÈRES";"CHÂTEAU D'EAU";"87300";"BELLAC";"Château d'eau - réservoir"; 29.0;"Commune, communauté de commune"
582190;1.22222;45.51250;"01° 13' 20.00'' Est, 45° 30' 45.00'' Nord";"87187";"LA SEYNIE";;"87500";"SAINT-YRIEIX-LA-PERCHE";"Pylône autostable"; 45.0;"ORANGE"
587355;1.28944;45.75583;"01° 17' 22.00'' Est, 45° 45' 21.00'' Nord";"87205";"MAISON NEUVE";"AV DU VIADUC (CD704 LE VIGEN LIMOGES) CHEM D' ACCÈS AU POSTE ÉLECTRIQUE SITE SFR 870225";"87110";"LE VIGEN";"Pylône autostable"; 30.0;"SFR"
587725;1.45861;46.00250;"01° 27' 31.00'' Est, 46° 00' 09.00'' Nord";"87079";"CHEZ PERRIÈRE";;"87340";"LA JONCHERE-SAINT-MAURICE";"Pylône autostable"; 25.0;"SFR"
588744;1.11583;45.87194;"01° 06' 57.00'' Est, 45° 52' 19.00'' Nord";"87202";"LA BOUTEILLE";"PRÈS N.141";"87520";"VEYRAC";"Pylône autostable"; 40.0;"ORANGE"
593134;1.41917;46.04028;"01° 25' 09.00'' Est, 46° 02' 25.00'' Nord";"87159";"LE GROS CHEYROUX";"FONT SOUS RIVE";"87340";"SAINT-LEGER-LA-MONTAGNE";"Pylône autostable"; 45.0;"Conseil Général"
593819;1.22056;45.67417;"01° 13' 14.00'' Est, 45° 40' 27.00'' Nord";"87106";"LA FONT PARADIS";"CHEM D'EXPLOITATION";"87800";"NEXON";"Pylône tubulaire"; 27.0;"ORANGE"
596234;1.33972;45.92056;"01° 20' 23.00'' Est, 45° 55' 14.00'' Nord";"87125";"MONTIGNAC";"AV EMILE ZOLA";"87570";"RILHAC-RANCON";"Château d'eau - réservoir"; 31.0;"Commune, communauté de commune"
597140;1.16972;45.93389;"01° 10' 11.00'' Est, 45° 56' 02.00'' Nord";"87107";"LE MAS DU PUY";;"87510";"NIEUL";"Pylône autostable"; 42.0;"TDF"
597680;1.21694;45.67028;"01° 13' 01.00'' Est, 45° 40' 13.00'' Nord";"87106";"LE PLANTADIS NORD";"VC 8";"87800";"NEXON";"Pylône autostable"; 44.0;"FPS TOWERS"
600147;1.50111;46.04389;"01° 30' 04.00'' Est, 46° 02' 38.00'' Nord";"87181";"PIERRE DU ROI";;"87370";"SAINT-SULPICE-LAURIERE";"Pylône autostable"; 30.3;"SFR"
603158;0.85917;45.87556;"00° 51' 33.00'' Est, 45° 52' 32.00'' Nord";"87030";;"1 ALLÉE DES CHAMPS";"87200";"CHAILLAC-SUR-VIENNE";"Pylône autostable"; 27.0;"RTE"
603171;1.23139;45.82583;"01° 13' 53.00'' Est, 45° 49' 33.00'' Nord";"87085";;"CITÉ HENRI LAFARGE";"87000";"LIMOGES";"Immeuble"; 55.0;"Société HLM"
603607;1.75194;45.73194;"01° 45' 07.00'' Est, 45° 43' 55.00'' Nord";"87064";"LE CHATEAU ST PIERRE";"RTE DU CHATEAU";"87120";"EYMOUTIERS";"Pylône autostable"; 46.0;"TDF"
603619;1.38139;45.89306;"01° 22' 53.00'' Est, 45° 53' 35.00'' Nord";"87178";"LE BUISSON";"RTE DE MAZEAU";"87480";"SAINT-PRIEST-TAURION";"Pylône autostable"; 36.0;"ORANGE"
606242;1.25111;45.85028;"01° 15' 04.00'' Est, 45° 51' 01.00'' Nord";"87085";;"R LA BRUYÈRE ADM : 98 R DES TUILLIÈRES";"87000";"LIMOGES";"Immeuble"; 19.0;"Copropriété, Syndic, SCI"
606294;0.87250;45.73000;"00° 52' 21.00'' Est, 45° 43' 48.00'' Nord";"87111";"LES MOTTES";"PRÈS CHATEAU D EAU PYLONE ORANGE";"87150";"ORADOUR-SUR-VAYRES";"Pylône autostable"; 24.0;"ORANGE"
607207;1.16361;45.96028;"01° 09' 49.00'' Est, 45° 57' 37.00'' Nord";"87118";"LA CHATAIGNERAIE";;"87510";"PEYRILHAC";"Pylône autostable"; 35.0;"SFR"
607229;1.34278;46.03417;"01° 20' 34.00'' Est, 46° 02' 03.00'' Nord";"87122";"PUY COR";"D.103 - PRÈS N.20 CENTRAL TÉLÉPHONIQUE";"87640";"RAZES";"Pylône autostable"; 32.0;"ORANGE Services Fixes"
610952;1.39139;45.95361;"01° 23' 29.00'' Est, 45° 57' 13.00'' Nord";"87002";"LA CROIX DE MURET";"ALLÉE DE MURET";"87240";"AMBAZAC";"Pylône tubulaire"; 39.0;"ORANGE"
612547;0.83750;45.83833;"00° 50' 15.00'' Est, 45° 50' 18.00'' Nord";"87126";"LA CROIX DE GROSILLE";"R DE MONACO";"87600";"ROCHECHOUART";"Château d'eau - réservoir"; 39.0;"Commune, communauté de commune"
612823;1.04444;45.89444;"01° 02' 40.00'' Est, 45° 53' 40.00'' Nord";"87202";"LA BARRE";"N.141 - CHEM RURAL";"87520";"VEYRAC";"Pylône autostable"; 46.0;"ORANGE Services Fixes"
612833;1.71722;45.72611;"01° 43' 02.00'' Est, 45° 43' 34.00'' Nord";"87064";"PUY DE LA BESSADE";;"87120";"EYMOUTIERS";"Pylône autostable"; 46.0;"ORANGE Services Fixes"
614196;0.91750;45.89639;"00° 55' 03.00'' Est, 45° 53' 47.00'' Nord";"87154";"LA VERGNE";"CHEZ LE PERRY PRÈS RN 141";"87200";"SAINT-JUNIEN";"Pylône autostable"; 30.0;"ORANGE Services Fixes"
615941;1.37667;45.67472;"01° 22' 36.00'' Est, 45° 40' 29.00'' Nord";"87203";"LA REYNIE";"A 20 / AIRE DE BRIANCE LIGOURE";"87260";"VICQ-SUR-BREUILH";"Pylône autostable"; 53.0;"SDIS, secours, incendie"
618189;1.00194;46.02333;"01° 00' 07.00'' Est, 46° 01' 24.00'' Nord";"87018";"PUYGRENIER";;"87300";"BLOND";"Pylône autostable"; 30.0;"Société Privée SA"
618191;1.59444;45.85444;"01° 35' 40.00'' Est, 45° 51' 16.00'' Nord";"87035";"LA LAUGERE";;"87400";"CHAMPNETERY";"Pylône autostable"; 35.0;"Société Privée SA"
618195;0.77222;45.75750;"00° 46' 20.00'' Est, 45° 45' 27.00'' Nord";"87044";"LA GRUE";;"87600";"CHERONNAC";"Pylône autostable"; 30.0;"Société Privée SA"
618197;1.43417;45.80750;"01° 26' 03.00'' Est, 45° 48' 27.00'' Nord";"87070";"LES CROUZETTES";;"87400";"LA GENEYTOUSE";"Pylône autostable"; 25.2;"Syndicat des eaux, Adduction"
622031;1.26722;45.85722;"01° 16' 02.00'' Est, 45° 51' 26.00'' Nord";"87085";;"11 AV GUGLIELMO MARCONI RESERVOIR D EAU";"87000";"LIMOGES";"Château d'eau - réservoir"; 60.0;"Commune, communauté de commune"
635509;1.07056;45.65806;"01° 04' 14.00'' Est, 45° 39' 29.00'' Nord";"87029";"LES BORDERIES";"FORÊT DES CARS";"87230";"LES CARS";"Pylône haubané"; 230.0;"TDF"
643587;1.06889;45.65778;"01° 04' 08.00'' Est, 45° 39' 28.00'' Nord";"87029";;"FORÊT DES CARS STATION HERTZIENNE PYLONE FT";"87230";"LES CARS";"Pylône autostable"; 45.0;"ORANGE Services Fixes"
646789;1.33361;45.99833;"01° 20' 01.00'' Est, 45° 59' 54.00'' Nord";"87183";"VENTILLAC";;"87240";"SAINT-SYLVESTRE";"Pylône autostable"; 60.0;"SFR"
651444;1.24528;45.86722;"01° 14' 43.00'' Est, 45° 52' 02.00'' Nord";"87050";;"LE MAS BOURIANNE";"87270";"COUZEIX";"Pylône autostable"; 42.0;"TDF"
659030;1.25694;45.84833;"01° 15' 25.00'' Est, 45° 50' 54.00'' Nord";"87085";;"18 R DE STRASBOURG";"87000";"LIMOGES";"Immeuble"; 43.8;"Société HLM"
666802;1.29417;45.57944;"01° 17' 39.00'' Est, 45° 34' 46.00'' Nord";"87127";"COMBRAILLE";;"87700";"LA ROCHE-L'ABEILLE";"Pylône autostable"; 35.0;"EDF GDF"
666842;1.31722;45.93667;"01° 19' 02.00'' Est, 45° 56' 12.00'' Nord";"87020";"VEDRENNES";"FAUCHERIE VEDRENNES";"87270";"BONNAC-LA-COTE";"Pylône autostable"; 36.0;"ORANGE"
666958;1.04778;45.84194;"01° 02' 52.00'' Est, 45° 50' 31.00'' Nord";"87188";"ERIN - LA MALAISE";;"87700";"SAINT-YRIEIX-SOUS-AIXE";"Pylône autostable"; 40.0;"SFR"
668320;1.06056;45.59111;"01° 03' 38.00'' Est, 45° 35' 28.00'' Nord";"87027";"PUY DES JUSTICES";;"87230";"BUSSIERE-GALANT";"Pylône autostable"; 30.0;"Société Privée SA"
668322;0.84889;46.10306;"00° 50' 56.00'' Est, 46° 06' 11.00'' Nord";"87069";"LES VERGNES";;"87330";"GAJOUBERT";"Pylône autostable"; 25.0;"Société Privée SA"
670689;1.38417;46.13278;"01° 23' 03.00'' Est, 46° 07' 58.00'' Nord";"87014";"LES LANDES";"ROLLY D 1";"87250";"BESSINES-SUR-GARTEMPE";"Pylône autostable"; 54.0;"ORANGE Services Fixes"
671296;1.41139;45.84250;"01° 24' 41.00'' Est, 45° 50' 33.00'' Nord";"87156";"FONTAGULY";"R DE CHAMPLAGNE";"87590";"SAINT-JUST-LE-MARTEL";"Pylône autostable"; 24.0;"ORANGE"
672031;0.95500;45.90806;"00° 57' 18.00'' Est, 45° 54' 29.00'' Nord";"87154";"LES SÉGUINES";"RTE DÉPARTEMENTALE N°101 D32A VERS LA BRETAGNE";"87200";"SAINT-JUNIEN";"Pylône autostable"; 49.0;"TDF"
675871;1.35917;45.71028;"01° 21' 33.00'' Est, 45° 42' 37.00'' Nord";"87148";"LA CROIX";"PRÈS A 20";"87260";"SAINT-HILAIRE-BONNEVAL";"Pylône tubulaire"; 40.0;"SFR"
675941;1.02222;45.71111;"01° 01' 20.00'' Est, 45° 42' 40.00'' Nord";"87112";"PUY BONNIEUX";;"87230";"PAGEAS";"Pylône autostable"; 44.0;"TDF"
679166;1.08833;45.81333;"01° 05' 18.00'' Est, 45° 48' 48.00'' Nord";"87177";"BOIS BALAND (LES LANDES)";;"87700";"SAINT-PRIEST-SOUS-AIXE";"Pylône autostable"; 33.0;"FPS TOWERS"
681904;1.21528;45.56083;"01° 12' 55.00'' Est, 45° 33' 39.00'' Nord";"87187";"GABILLOU";;"87500";"SAINT-YRIEIX-LA-PERCHE";"Pylône autostable"; 35.3;"SFR"
682098;1.01472;45.88222;"01° 00' 53.00'' Est, 45° 52' 56.00'' Nord";"87185";;"LE BOIS GOURDOU";"87420";"SAINT-VICTURNIEN";"Mât béton"; 17.5;"TDF"
682549;1.26083;45.82944;"01° 15' 39.00'' Est, 45° 49' 46.00'' Nord";"87085";;"5 R JEAN JAURÈS BOUTIQUE MOBISTORE";"87000";"LIMOGES";"Immeuble"; 29.0;"Copropriété, Syndic, SCI"
685685;0.88556;45.65806;"00° 53' 08.00'' Est, 45° 39' 29.00'' Nord";"87060";"LE GRAND PUYCONNIEUX";"LA GUÉRITE";"87230";"DOURNAZAC";"Pylône autostable"; 44.5;"TDF"
685756;1.50083;46.04361;"01° 30' 03.00'' Est, 46° 02' 37.00'' Nord";"87181";;"CONSIDAT LA PIERRE DU ROI PYLONE TDF";"87370";"SAINT-SULPICE-LAURIERE";"Pylône autostable"; 25.0;"TDF"
688309;1.24611;45.76778;"01° 14' 46.00'' Est, 45° 46' 04.00'' Nord";"87048";"LE PRÉ MARTIN";"SITE ITAS TIM";"87920";"CONDAT-SUR-VIENNE";"Pylône autostable"; 36.0;"Itas Tim"
688379;1.47639;45.84000;"01° 28' 35.00'' Est, 45° 50' 24.00'' Nord";"87161";"LA VIGNE SAUVAGE";"SITE ITAS TIM";"87400";"SAINT-LEONARD-DE-NOBLAT";"Pylône autostable"; 49.0;"Itas Tim"
688831;1.05278;46.13583;"01° 03' 10.00'' Est, 46° 08' 09.00'' Nord";"87116";"TOUS VENTS";"CHÂTEAU D'EAU DE BEAUJOUR";"87300";"PEYRAT-DE-BELLAC";"Château d'eau - réservoir"; 44.0;"Syndicat des eaux, Adduction"
689030;0.94972;45.90639;"00° 56' 59.00'' Est, 45° 54' 23.00'' Nord";"87154";;"CHÂTEAU D'EAU DES SÉGUINES";"87200";"SAINT-JUNIEN";"Château d'eau - réservoir"; 33.0;"Syndicat des eaux, Adduction"
689508;1.23472;45.84556;"01° 14' 05.00'' Est, 45° 50' 44.00'' Nord";"87085";;"18 R OLIVIER DE SERRES";"87280";"LIMOGES";"Immeuble"; 60.0;"Société Privée SA"
690706;1.35000;45.85139;"01° 21' 00.00'' Est, 45° 51' 05.00'' Nord";"87114";"LOU DOUGNOUX";"RTE DU CHÂTEAU D'EAU";"87350";"PANAZOL";"Château d'eau - réservoir"; 48.5;"Syndicat des eaux, Adduction"
708919;1.54056;45.77389;"01° 32' 26.00'' Est, 45° 46' 26.00'' Nord";"87142";"LE CHATENET EST";"LES BRUGES VAUX";"87400";"SAINT-DENIS-DES-MURS";"Pylône autostable"; 31.0;"TDF"
712464;1.35806;46.08306;"01° 21' 29.00'' Est, 46° 04' 59.00'' Nord";"87014";"PUY DE LA GARDE";"D.220 - PRÈS RÉSERVOIR";"87250";"BESSINES-SUR-GARTEMPE";"Pylône autostable"; 39.0;"SFR"
714170;0.85583;46.11194;"00° 51' 21.00'' Est, 46° 06' 43.00'' Nord";"87069";"L'ESSART";;"87330";"GAJOUBERT";"Pylône autostable"; 35.5;"SFR"
714214;1.17000;46.01056;"01° 10' 12.00'' Est, 46° 00' 38.00'' Nord";"87103";"LE CIMETIÈRE";;"87140";"NANTIAT";"Château d'eau - réservoir"; 29.0;"Syndicat des eaux, Adduction"
717066;0.90889;45.62889;"00° 54' 32.00'' Est, 45° 37' 44.00'' Nord";"87060";"LE CLOS DE COLY";;"87230";"DOURNAZAC";"Pylône autostable"; 32.0;"FPS TOWERS"
724586;1.14139;46.02944;"01° 08' 29.00'' Est, 46° 01' 46.00'' Nord";"87012";"LES GOUTTES";;"87300";"BERNEUIL";"Pylône autostable"; 35.0;"SFR"
724606;1.57750;45.70333;"01° 34' 39.00'' Est, 45° 42' 12.00'' Nord";"87040";"CHAUCHER";;"87130";"CHATEAUNEUF-LA-FORET";"Pylône autostable"; 30.0;"SFR"
724640;1.48861;46.06944;"01° 29' 19.00'' Est, 46° 04' 10.00'' Nord";"87083";"LES BOUIGES";;"87370";"LAURIERE";"Pylône autostable"; 30.0;"SFR"
725543;1.41833;45.63639;"01° 25' 06.00'' Est, 45° 38' 11.00'' Nord";"87203";"LES PLAINES DE REJATAS";;"87260";"VICQ-SUR-BREUILH";"Pylône tubulaire"; 42.8;"SFR"
725585;0.77333;45.70417;"00° 46' 24.00'' Est, 45° 42' 15.00'' Nord";"87168";"LES TOURETTES";;"87440";"SAINT-MATHIEU";"Pylône autostable"; 30.0;"SFR"
726032;0.86444;45.73417;"00° 51' 52.00'' Est, 45° 44' 03.00'' Nord";"87111";;"CITÉ ANTOINE PRÉVOST/STADE LE BOURG";"87150";"ORADOUR-SUR-VAYRES";"Pylône autostable"; 25.0;"SFR"
727809;0.94361;45.76667;"00° 56' 37.00'' Est, 45° 45' 60.00'' Nord";"87158";"MAISON NEUVE";;"87310";"SAINT-LAURENT-SUR-GORRE";"Pylône tubulaire"; 35.0;"TDF"
727811;1.55528;45.65750;"01° 33' 19.00'' Est, 45° 39' 27.00'' Nord";"87170";"ECHIZADOUR";"D16";"87130";"SAINT-MEARD";"Pylône autostable"; 35.0;"BOUYGUES"
727813;1.41639;46.32861;"01° 24' 59.00'' Est, 46° 19' 43.00'' Nord";"87182";"LES CHAILLAUDS";"LA ROCHE";"87160";"SAINT-SULPICE-LES-FEUILLES";"Pylône autostable"; 49.0;"TDF"
730348;1.53167;45.70750;"01° 31' 54.00'' Est, 45° 42' 27.00'' Nord";"87086";"LA CROIX DE MAZERMAUD";;"87130";"LINARDS";"Pylône autostable"; 36.5;"FPS TOWERS"
731081;1.46667;45.57972;"01° 28' 00.00'' Est, 45° 34' 47.00'' Nord";"87146";"LE MARTOULET OUEST";"CD N° 7 B";"87380";"SAINT-GERMAIN-LES-BELLES";"Pylône autostable"; 39.0;"SFR"
731098;1.41639;45.89000;"01° 24' 59.00'' Est, 45° 53' 24.00'' Nord";"87178";"LA GANE";"RTE DE LA CHASSAGNE CIMETIÈRE";"87480";"SAINT-PRIEST-TAURION";"Pylône autostable"; 30.0;"SFR"
731195;1.16667;45.86472;"01° 10' 00.00'' Est, 45° 51' 53.00'' Nord";"87085";"CHATREIX";"R DE CHATREIX";"87000";"LIMOGES";"Pylône haubané"; 20.0;"DDE"
731764;0.95833;45.64944;"00° 57' 30.00'' Est, 45° 38' 58.00'' Nord";"87032";"FANTAISIE";;"87230";"CHALUS";"Pylône autostable"; 40.5;"SFR"
733590;0.92889;46.18667;"00° 55' 44.00'' Est, 46° 11' 12.00'' Nord";"87139";"LA LANDE DE BEZEAUD";;"87300";"SAINT-BONNET-DE-BELLAC";"Pylône autostable"; 34.0;"SFR"
734328;1.13500;45.94778;"01° 08' 06.00'' Est, 45° 56' 52.00'' Nord";"87118";"MONT COCU";"STADE MUNICIPAL";"87510";"PEYRILHAC";"Pylône autostable"; 20.0;"SFR"
735311;1.20944;45.95444;"01° 12' 34.00'' Est, 45° 57' 16.00'' Nord";"87152";"PUY DU ROI";;"87510";"SAINT-JOUVENT";"Pylône autostable"; 40.0;"SFR"
742040;1.41778;45.55667;"01° 25' 04.00'' Est, 45° 33' 24.00'' Nord";"87095";"CHATAIGNOL";;"87380";"MEUZAC";"Pylône autostable"; 25.0;"SFR"
745008;0.79528;45.69417;"00° 47' 43.00'' Est, 45° 41' 39.00'' Nord";"87168";"PUISSEGER";;"87440";"SAINT-MATHIEU";"Pylône autostable"; 36.0;"ORANGE"
747017;1.17667;45.84556;"01° 10' 36.00'' Est, 45° 50' 44.00'' Nord";"87201";"LE VERDOYER";"D.247";"87430";"VERNEUIL-SUR-VIENNE";"Pylône autostable"; 33.0;"ORANGE"
749973;1.26917;46.06333;"01° 16' 09.00'' Est, 46° 03' 48.00'' Nord";"87173";"PUY DE REDON";;"87250";"SAINT-PARDOUX";"Pylône autostable"; 36.0;"ORANGE"
751709;1.83667;45.71806;"01° 50' 12.00'' Est, 45° 43' 05.00'' Nord";"87104";"LA CROIX DES RAMEAUX";;"87120";"NEDDE";"Pylône autostable"; 29.0;"TDF"
757190;1.55722;45.87889;"01° 33' 26.00'' Est, 45° 52' 44.00'' Nord";"87099";"LA CROIX";"CHEM RURAL";"87400";"MOISSANNES";"Pylône autostable"; 33.0;"ORANGE"
758718;1.03500;45.93556;"01° 02' 06.00'' Est, 45° 56' 08.00'' Nord";"87110";"CHEZ BARON";"R DES CHAMPS DU BOIS CHÂTEAU D'EAU";"87520";"ORADOUR-SUR-GLANE";"Château d'eau - réservoir"; 20.5;"Syndicat des eaux, Adduction"
759416;1.35194;45.72778;"01° 21' 07.00'' Est, 45° 43' 40.00'' Nord";"87148";"VIVOUR";;"87260";"SAINT-HILAIRE-BONNEVAL";"Pylône autostable"; 38.2;"TDF"
760681;1.23750;45.81583;"01° 14' 15.00'' Est, 45° 48' 57.00'' Nord";"87085";;"15 R DU DR MARCLAND";"87000";"LIMOGES";"Bâtiment"; 45.0;"Etablissement de soins"
764092;1.10583;46.07333;"01° 06' 21.00'' Est, 46° 04' 24.00'' Nord";"87012";"CROIX DE NOTRE DAME";;"87300";"BERNEUIL";"Pylône autostable"; 34.4;"TDF"
765162;1.02444;46.04139;"01° 01' 28.00'' Est, 46° 02' 29.00'' Nord";"87018";"PUERNAUD";;"87300";"BLOND";"Pylône autostable"; 35.0;"SFR"
765853;1.11139;45.58028;"01° 06' 41.00'' Est, 45° 34' 49.00'' Nord";"87082";"LE BOURG OUEST";"R DE GAMBSHEIM";"87500";"LADIGNAC-LE-LONG";"Pylône autostable"; 33.0;"ORANGE Services Fixes"
767360;1.28028;45.98556;"01° 16' 49.00'' Est, 45° 59' 08.00'' Nord";"87047";"PUY DE PUYMELIER";;"87140";"COMPREIGNAC";"Pylône autostable"; 25.0;"SFR"
770874;1.34111;45.50278;"01° 20' 28.00'' Est, 45° 30' 10.00'' Nord";"87049";"LA PLANTADE";;"87500";"COUSSAC-BONNEVAL";"Pylône autostable"; 20.0;"SFR"
770916;1.69972;45.73333;"01° 41' 59.00'' Est, 45° 44' 00.00'' Nord";"87064";"PUY DE DIANE";;"87120";"EYMOUTIERS";"Pylône autostable"; 42.5;"TDF"
771761;1.16167;45.99583;"01° 09' 42.00'' Est, 45° 59' 45.00'' Nord";"87103";"PEU DE RATS";;"87140";"NANTIAT";"Pylône autostable"; 39.9;"TDF"
775199;0.81639;45.87556;"00° 48' 59.00'' Est, 45° 52' 32.00'' Nord";"87131";"USINE DE SAILLAT";"IMP DE LA CHIMIE";"87720";"SAILLAT-SUR-VIENNE";"Bâtiment"; 10.0;"Société Privée SA"
784951;1.24722;45.84083;"01° 14' 50.00'' Est, 45° 50' 27.00'' Nord";"87085";;"84 AV DE MONTJOVIS";"87280";"LIMOGES";"Immeuble"; 37.0;"Société HLM"
785507;1.35806;46.05611;"01° 21' 29.00'' Est, 46° 03' 22.00'' Nord";"87122";"LES PRADES";;"87640";"RAZES";"Pylône autostable"; 41.8;"TDF"
790293;1.24917;46.23944;"01° 14' 57.00'' Est, 46° 14' 22.00'' Nord";"87057";"LA TUILERIE";"LES BORDES";"87190";"DOMPIERRE-LES-EGLISES";"Pylône autostable"; 40.0;"EDF GDF"
790358;1.65500;45.72917;"01° 39' 18.00'' Est, 45° 43' 45.00'' Nord";"87105";"BOIS MORINET";"D.979";"87130";"NEUVIC-ENTIER";"Pylône autostable"; 29.0;"ORANGE Services Fixes"
790950;1.27639;45.80333;"01° 16' 35.00'' Est, 45° 48' 12.00'' Nord";"87085";;"124 R LEONARD SAMIE POSTE DE TRANSFORMATION MAGRÉ";"87280";"LIMOGES";"Bâtiment"; 5.0;"EDF GDF"
799782;1.50083;46.04389;"01° 30' 03.00'' Est, 46° 02' 38.00'' Nord";"87181";"CONSIDAT";;"87370";"SAINT-SULPICE-LAURIERE";"Pylône autostable"; 21.0;"ORANGE Services Fixes"
819525;1.17500;45.86306;"01° 10' 30.00'' Est, 45° 51' 47.00'' Nord";"87085";;"AV. DE L'AÉROPORT AÉRODROME DE LIMOGES-BELLEGARDE";"87000";"LIMOGES";"Pylône autostable"; 15.0;"ORANGE"
819530;1.25750;45.83472;"01° 15' 27.00'' Est, 45° 50' 05.00'' Nord";"87085";;"28/30 R JULES NORIAC";"87000";"LIMOGES";"Bâtiment"; 27.0;"ORANGE Services Fixes"
819532;1.23528;45.81250;"01° 14' 07.00'' Est, 45° 48' 45.00'' Nord";"87085";;"2 AV MARTIN LUTHER KING CHU DUPUYTRENS";"87000";"LIMOGES";"Bâtiment"; 49.0;"Etablissement de soins"
819536;1.17472;45.82306;"01° 10' 29.00'' Est, 45° 49' 23.00'' Nord";"87201";"BOIS DES VASEIX";"CHEM D'EXPLOITATION";"87430";"VERNEUIL-SUR-VIENNE";"Pylône autostable"; 36.0;"ORANGE"
819548;1.03361;45.70444;"01° 02' 01.00'' Est, 45° 42' 16.00'' Nord";"87066";"POIGNADE";"RTE DES CARS";"87230";"FLAVIGNAC";"Pylône autostable"; 24.0;"ORANGE"
819565;1.25639;45.81889;"01° 15' 23.00'' Est, 45° 49' 08.00'' Nord";"87085";;"1-3 ALLÉES PLANTAGENÊT RES LES VIGNES";"87000";"LIMOGES";"Immeuble"; 39.0;"Copropriété, Syndic, SCI"
819567;0.97528;45.90111;"00° 58' 31.00'' Est, 45° 54' 04.00'' Nord";"87140";"L'AGE";"RN N°141";"87200";"SAINT-BRICE-SUR-VIENNE";"Pylône autostable"; 36.0;"ORANGE"
819572;1.26500;45.82639;"01° 15' 54.00'' Est, 45° 49' 35.00'' Nord";"87085";;"33 AV. GEORGES DUMAS";"87000";"LIMOGES";"Immeuble"; 25.0;"Copropriété, Syndic, SCI"
819629;1.15833;46.21500;"01° 09' 30.00'' Est, 46° 12' 54.00'' Nord";"87089";;"AV FRANÇOIS MITTERRAND SILO";"87190";"MAGNAC-LAVAL";"Pylône autostable"; 27.0;"ORANGE"
819650;1.26583;45.85194;"01° 15' 57.00'' Est, 45° 51' 07.00'' Nord";"87085";;"8 R DU CLOS LA BREGERE";"87000";"LIMOGES";"Bâtiment"; 36.0;"ORANGE Services Fixes"
819657;0.90139;46.23250;"00° 54' 05.00'' Est, 46° 13' 57.00'' Nord";"87028";;"3 R LOUIS JALLADEAU D.107/D.4";"87320";"BUSSIERE-POITEVINE";"Pylône autostable"; 31.0;"ORANGE Services Fixes"
819659;1.24111;45.84361;"01° 14' 28.00'' Est, 45° 50' 37.00'' Nord";"87085";;"25 R EDOUARD MICHAUD";"87000";"LIMOGES";"Bâtiment"; 39.0;"ORANGE Services Fixes"
819922;1.83722;45.77333;"01° 50' 14.00'' Est, 45° 46' 24.00'' Nord";"87009";;"CHEM RURAL  PRES RD43 AU NORD EST DU BOURG";"87120";"BEAUMONT-DU-LAC";"Pylône autostable"; 42.0;"Conseil Général"
819945;1.34194;45.82167;"01° 20' 31.00'' Est, 45° 49' 18.00'' Nord";"87065";"PUY MAROT";"R MARIE BERNARD LEZEAUD CHÂTEAU D'EAU DE LA GRANGE";"87220";"FEYTIAT";"Château d'eau - réservoir"; 40.0;"Syndicat des eaux, Adduction"
819949;1.45083;45.62944;"01° 27' 03.00'' Est, 45° 37' 46.00'' Nord";"87203";"LE BANCAUD";;"87260";"VICQ-SUR-BREUILH";"Pylône autostable"; 36.0;"ORANGE"
819957;1.26583;45.84000;"01° 15' 57.00'' Est, 45° 50' 24.00'' Nord";"87085";;"16 R DE L'INDUSTRIE";"87000";"LIMOGES";"Immeuble"; 21.0;"Société HLM"
819969;1.26694;45.81139;"01° 16' 01.00'' Est, 45° 48' 41.00'' Nord";"87085";;"4 R DE TOURCOING";"87000";"LIMOGES";"Pylône tubulaire"; 24.0;"ORANGE"
819973;1.29500;45.89000;"01° 17' 42.00'' Est, 45° 53' 24.00'' Nord";"87085";"LA GRANDE PIÈCE";"ROUTE DES CROUZETTES";"87000";"LIMOGES";"Pylône autostable"; 28.0;"ORANGE"
819996;1.25083;45.83500;"01° 15' 03.00'' Est, 45° 50' 06.00'' Nord";"87085";;"25, R PASTEUR";"87000";"LIMOGES";"Immeuble"; 22.0;"Copropriété, Syndic, SCI"
820004;1.26528;45.86694;"01° 15' 55.00'' Est, 45° 52' 01.00'' Nord";"87050";;"9 R DES FOURNERIES ZI NORD";"87270";"COUZEIX";"Pylône tubulaire"; 38.0;"TDF"
820008;1.26083;45.82750;"01° 15' 39.00'' Est, 45° 49' 39.00'' Nord";"87085";;"64 AV GEORGES DUMAS IMM. MÉTROPOLE";"87000";"LIMOGES";"Immeuble"; 29.0;"Commune, communauté de commune"
820010;1.26056;45.84500;"01° 15' 38.00'' Est, 45° 50' 42.00'' Nord";"87085";;"50 AV DU GÉNÉRAL LECLERC SERVICE TECHNIQUE VILLE DE LIMOGES";"87000";"LIMOGES";"Bâtiment"; 22.0;"Commune, communauté de commune"
820012;1.28417;45.84806;"01° 17' 03.00'' Est, 45° 50' 53.00'' Nord";"87085";"LES AUDOUINES";"95, R DU QUAI MILITAIRE R DU DR RAYMOND";"87000";"LIMOGES";"Immeuble"; 19.0;"Société HLM"
820017;1.24278;45.78722;"01° 14' 34.00'' Est, 45° 47' 14.00'' Nord";"87048";"LE PICQ";;"87920";"CONDAT-SUR-VIENNE";"Pylône autostable"; 30.0;"ORANGE"
820021;1.22306;45.81528;"01° 13' 23.00'' Est, 45° 48' 55.00'' Nord";"87085";;"R DU GUÉ VERTHAMONT";"87000";"LIMOGES";"Pylône autostable"; 24.0;"ORANGE"
820023;1.27417;45.82694;"01° 16' 27.00'' Est, 45° 49' 37.00'' Nord";"87085";;"9 R EUGÈNE VARLIN R DE FONTBONNE";"87000";"LIMOGES";"Immeuble"; 20.0;"ORANGE Services Fixes"
820028;1.22639;45.83361;"01° 13' 35.00'' Est, 45° 50' 01.00'' Nord";"87085";;"86 B  BD  DU MAS BOUYOL CSEC";"87000";"LIMOGES";"Bâtiment"; 45.0;"SDIS, secours, incendie"
820030;1.28333;45.82306;"01° 16' 60.00'' Est, 45° 49' 23.00'' Nord";"87085";;"R CHARLES BACH";"87000";"LIMOGES";"Pylône autostable"; 30.0;"ORANGE"
820032;1.23833;45.82472;"01° 14' 18.00'' Est, 45° 49' 29.00'' Nord";"87085";;"83 R NAUGEAT";"87000";"LIMOGES";"Immeuble"; 25.0;"Copropriété, Syndic, SCI"
820041;1.23500;45.81917;"01° 14' 06.00'' Est, 45° 49' 09.00'' Nord";"87085";;"39 R DE LE CONQUES";"87000";"LIMOGES";"Immeuble"; 35.0;"Copropriété, Syndic, SCI"
820051;1.26139;45.83194;"01° 15' 41.00'' Est, 45° 49' 55.00'' Nord";"87085";;"1 BD CARNOT";"87000";"LIMOGES";"Immeuble"; 30.0;"Société Privée SA"
820053;1.24000;45.82917;"01° 14' 24.00'' Est, 45° 49' 45.00'' Nord";"87085";;"24 R DES HORTICULTEURS";"87000";"LIMOGES";"Bâtiment"; 19.0;"Copropriété, Syndic, SCI"
820060;1.27333;45.83556;"01° 16' 24.00'' Est, 45° 50' 08.00'' Nord";"87085";;"21 R DE LA COTE";"87000";"LIMOGES";"Immeuble"; 21.0;"Société HLM"
820062;1.33361;45.86139;"01° 20' 01.00'' Est, 45° 51' 41.00'' Nord";"87114";"LA FORÊT";"PRÈS USINE INCINÉRATION";"87350";"PANAZOL";"Pylône autostable"; 13.0;"SFR"
820070;1.30028;45.82972;"01° 18' 01.00'' Est, 45° 49' 47.00'' Nord";"87114";;"8 AV PIERRE COT GRANIT LAJOUMARD";"87350";"PANAZOL";"Pylône tubulaire"; 25.0;"ORANGE"
820072;1.25917;45.83972;"01° 15' 33.00'' Est, 45° 50' 23.00'' Nord";"87085";;"39, R HOCHE";"87000";"LIMOGES";"Immeuble"; 21.0;"Copropriété, Syndic, SCI"
820434;0.80611;45.63000;"00° 48' 22.00'' Est, 45° 37' 48.00'' Nord";"87092";;"PUY PAQUOT D 64";"87440";"MARVAL";"Pylône autostable"; 39.0;"Conseil Général"
825435;1.81222;45.80250;"01° 48' 44.00'' Est, 45° 48' 09.00'' Nord";"87117";;"LE MONTEIL";"87470";"PEYRAT-LE-CHATEAU";"Mât métallique"; 20.0;"Commune, communauté de commune"
826050;0.90083;45.89694;"00° 54' 03.00'' Est, 45° 53' 49.00'' Nord";"87154";;"AV COROT";"87200";"SAINT-JUNIEN";"Bâtiment"; 31.0;"Commune, communauté de commune"
831610;1.40972;46.07778;"01° 24' 35.00'' Est, 46° 04' 40.00'' Nord";"87013";"PRÉ DE LAFONT";"RD 28";"87370";"BERSAC-SUR-RIVALIER";"Pylône autostable"; 27.0;"BOUYGUES"
834906;1.14944;45.64722;"01° 08' 58.00'' Est, 45° 38' 50.00'' Nord";"87150";"CARRIÈRE LES MOUNIÈRES";"LES GRANDS CLOS";"87800";"SAINT-HILAIRE-LES-PLACES";"Pylône autostable"; 30.0;"SFR"
835685;0.98694;45.66278;"00° 59' 13.00'' Est, 45° 39' 46.00'' Nord";"87032";"CHEM L'ABBAYE";;"87230";"CHALUS";"Pylône autostable"; 35.0;"TDF"
835692;1.25389;45.85194;"01° 15' 14.00'' Est, 45° 51' 07.00'' Nord";"87085";;"30 BD DU VIGENAL";"87000";"LIMOGES";"Immeuble"; 19.0;"Copropriété, Syndic, SCI"
838325;1.36500;45.98944;"01° 21' 54.00'' Est, 45° 59' 22.00'' Nord";"87183";"FONDANÈCHE";;"87240";"SAINT-SYLVESTRE";"Pylône autostable"; 36.2;"ORANGE"
841985;1.29944;46.18250;"01° 17' 58.00'' Est, 46° 10' 57.00'' Nord";"87180";"LES PEUX";;"87290";"SAINT-SORNIN-LEULAC";"Château d'eau - réservoir"; 32.0;"Commune, communauté de commune"
842006;0.96694;46.14861;"00° 58' 01.00'' Est, 46° 08' 55.00'' Nord";"87139";"BAGNAC";"CHATEAU D'EAU DE BEL AIR";"87300";"SAINT-BONNET-DE-BELLAC";"Château d'eau - réservoir"; 40.5;"Syndicat des eaux, Adduction"
846623;1.31806;45.95944;"01° 19' 05.00'' Est, 45° 57' 34.00'' Nord";"87020";;"IMP DE FONTANAS";"87270";"BONNAC-LA-COTE";"Pylône autostable"; 52.3;"BOUYGUES"
849527;1.29889;45.97139;"01° 17' 56.00'' Est, 45° 58' 17.00'' Nord";"87047";"BEAUSOLEIL";;"87140";"COMPREIGNAC";"Pylône autostable"; 30.3;"SFR"
851982;1.31667;45.77806;"01° 19' 00.00'' Est, 45° 46' 41.00'' Nord";"87019";"LES BESSIÈRES";"3 R YVES MONTAND";"87220";"BOISSEUIL";"Pylône autostable"; 43.0;"Société Privée SA"
851986;1.21972;45.88444;"01° 13' 11.00'' Est, 45° 53' 04.00'' Nord";"87050";"LES COUTURES";"87 RUE DE LA GARE";"87270";"COUZEIX";"Château d'eau - réservoir"; 37.0;"Syndicat des eaux, Adduction"
854125;1.71556;45.81583;"01° 42' 56.00'' Est, 45° 48' 57.00'' Nord";"87153";"LES GRANGES";;"87460";"SAINT-JULIEN-LE-PETIT";"Mât béton"; 14.0;"Société Privée SA"
854127;1.70750;45.82500;"01° 42' 27.00'' Est, 45° 49' 30.00'' Nord";"87153";"D5";"CHAMP DE LA CROIX STADE";"87460";"SAINT-JULIEN-LE-PETIT";"Mât métallique"; 6.0;"Société Privée SA"
857094;1.07000;45.77000;"01° 04' 12.00'' Est, 45° 46' 12.00'' Nord";"87191";"LA MAISON NEUVE";;"87620";"SEREILHAC";"Pylône autostable"; 37.0;"TDF"
859257;1.03667;45.67167;"01° 02' 12.00'' Est, 45° 40' 18.00'' Nord";"87112";"LES FOSSES";;"87230";"PAGEAS";"Pylône autostable"; 50.0;"EDF GDF"
859905;1.53194;45.61778;"01° 31' 55.00'' Est, 45° 37' 04.00'' Nord";"87186";"COUSSAC";;"87380";"SAINT-VITTE-SUR-BRIANCE";"Pylône autostable"; 34.5;"Conseil Général"
870304;1.25361;45.83472;"01° 15' 13.00'' Est, 45° 50' 05.00'' Nord";"87085";;"2 R DU COMMANDANT TULASNE RÉSIDENCE HLM";"87000";"LIMOGES";"Immeuble"; 23.0;"Société HLM"
870310;1.31472;45.90306;"01° 18' 53.00'' Est, 45° 54' 11.00'' Nord";"87125";;"5603 R PIERRE DE COUBERTIN";"87570";"RILHAC-RANCON";"Pylône autostable"; 35.0;"SFR"
875378;0.94222;45.86389;"00° 56' 32.00'' Est, 45° 51' 50.00'' Nord";"87164";"LE PEIRET";"R.D 58";"87200";"SAINT-MARTIN-DE-JUSSAC";"Pylône autostable"; 35.0;"SFR"
875449;1.37889;45.64139;"01° 22' 44.00'' Est, 45° 38' 29.00'' Nord";"87203";"LE CIMETIÈRE";;"87260";"VICQ-SUR-BREUILH";"Pylône autostable"; 35.0;"SFR"
884135;1.41194;45.90639;"01° 24' 43.00'' Est, 45° 54' 23.00'' Nord";"87178";"CHAUVAN";"L'USINE HYDROÉLECTRIQUE DE CHAUVANT";"87480";"SAINT-PRIEST-TAURION";"Pylône autostable"; 20.0;"EDF GDF"
890094;1.26667;45.84944;"01° 15' 60.00'' Est, 45° 50' 58.00'' Nord";"87085";;"3 ALLÉE HÉLÈNE BOUCHER CLOS DE LA BRÉGÈRE";"87000";"LIMOGES";"Immeuble"; 45.0;"Société HLM"
894036;1.46444;45.92500;"01° 27' 52.00'' Est, 45° 55' 30.00'' Nord";"87167";"ST MARC";"USINE EDF DE ST MARC";"87400";"SAINT-MARTIN-TERRESSUS";"Mât béton"; 13.0;"EDF GDF"
894440;1.81389;45.80417;"01° 48' 50.00'' Est, 45° 48' 15.00'' Nord";"87117";"LE MONTEIL";;"87470";"PEYRAT-LE-CHATEAU";"Bâtiment"; 10.0;"EDF GDF"
922427;1.32250;45.83833;"01° 19' 21.00'' Est, 45° 50' 18.00'' Nord";"87114";"CHÂTEAU DE LA RUE";"AV  ADRIEN PRESSEMANE";"87350";"PANAZOL";"Pylône autostable"; 34.0;"ORANGE"
923245;1.18056;45.53722;"01° 10' 50.00'' Est, 45° 32' 14.00'' Nord";"87187";"BELLEVUE";"CHATEAU D'EAU";"87500";"SAINT-YRIEIX-LA-PERCHE";"Château d'eau - réservoir"; 26.8;"Syndicat des eaux, Adduction"
927677;1.28139;45.86167;"01° 16' 53.00'' Est, 45° 51' 42.00'' Nord";"87085";;"AVENUE JEAN MONNET POSTE DE TRANSFORMATION ERDF BEAUBREUIL";"87280";"LIMOGES";"Bâtiment"; 6.0;"EDF GDF"
927680;1.29167;45.85694;"01° 17' 30.00'' Est, 45° 51' 25.00'' Nord";"87085";;"ALLEE THEOPHILE GRAMME AGENCE D'EXPLOITATION";"87280";"LIMOGES";"Bâtiment"; 7.0;"EDF GDF"
927899;1.22250;45.83556;"01° 13' 21.00'' Est, 45° 50' 08.00'' Nord";"87085";;"RUE ARMAND DUTREIX POSTE DE TRANSFORMATION AURENCE";"87280";"LIMOGES";"Bâtiment"; 4.0;"EDF GDF"
939072;1.30028;45.79250;"01° 18' 01.00'' Est, 45° 47' 33.00'' Nord";"87065";"LES TAUBAYES";"ALLÉE DE L'AGE";"87220";"FEYTIAT";"Pylône autostable"; 25.0;"ORANGE"
944819;1.25500;45.83417;"01° 15' 18.00'' Est, 45° 50' 03.00'' Nord";"87085";;"R FRANCOIS CHENIEUX";"87000";"LIMOGES";"Bâtiment"; 8.0;"Conseil Général"
960437;1.33417;45.87889;"01° 20' 03.00'' Est, 45° 52' 44.00'' Nord";"87113";"RIVAILLES";"D 207";"87410";"LE PALAIS-SUR-VIENNE";"Pylône autostable"; 30.0;"SFR"
1002975;1.58222;45.57083;"01° 34' 56.00'' Est, 45° 34' 15.00'' Nord";"87120";"CIRAT";;"87380";"LA PORCHERIE";"Pylône autostable"; 50.0;"DDE"
1006556;1.35889;46.05417;"01° 21' 32.00'' Est, 46° 03' 15.00'' Nord";"87122";"CHANTELOUBE";"AUTOROUTE A20 PR155";"87640";"RAZES";"Pylône tubulaire"; 12.0;"DDE"
1006629;1.38167;46.19806;"01° 22' 54.00'' Est, 46° 11' 53.00'' Nord";"87133";"LA CROISIÉRE";;"87290";"SAINT-AMAND-MAGNAZEIX";"Pylône autostable"; 50.0;"DDE"
1008088;1.30444;45.79056;"01° 18' 16.00'' Est, 45° 47' 26.00'' Nord";"87065";"LA LANDE DU CHAUZAUD";"RD 320";"87220";"FEYTIAT";"Pylône autostable"; 45.0;"Etat, Ministère"
1014322;1.22333;46.19139;"01° 13' 24.00'' Est, 46° 11' 29.00'' Nord";"87057";"LES FAITES";;"87190";"DOMPIERRE-LES-EGLISES";"Pylône autostable"; 42.0;"Société Privée SA"
1015238;1.25472;45.82778;"01° 15' 17.00'' Est, 45° 49' 40.00'' Nord";"87085";;"13 RUE PÉTINIAUD BEAUPEYRAT";"87000";"LIMOGES";"Immeuble"; 25.0;"Copropriété, Syndic, SCI"
1022560;1.16556;45.90694;"01° 09' 56.00'' Est, 45° 54' 25.00'' Nord";"87143";"LA LANDE";;"87510";"SAINT-GENCE";"Château d'eau - réservoir"; 27.0;"Syndicat des eaux, Adduction"
1028425;1.28472;46.02028;"01° 17' 05.00'' Est, 46° 01' 13.00'' Nord";"87047";"CROIX DU DAUMART";"COMPREIGNAC";"87140";"COMPREIGNAC";"Pylône autostable"; 22.0;"BOUYGUES"
1036077;1.23306;45.84528;"01° 13' 59.00'' Est, 45° 50' 43.00'' Nord";"87085";;"3, ALLÉE LE TITIEN";"87000";"LIMOGES";"Immeuble"; 54.5;"Société HLM"
1045554;1.03083;46.02556;"01° 01' 51.00'' Est, 46° 01' 32.00'' Nord";"87018";"BACHELLERIE";"PRÈS DU RADAR";"87300";"BLOND";"Pylône autostable"; 30.0;"DDE"
1049697;1.48611;45.84722;"01° 29' 10.00'' Est, 45° 50' 50.00'' Nord";"87161";;"ROUTE DE ST PRIEST THAURION D 39";"87400";"SAINT-LEONARD-DE-NOBLAT";"Bâtiment"; 4.2;"EDF GDF"
1049706;1.25417;46.31722;"01° 15' 15.00'' Est, 46° 19' 02.00'' Nord";"87160";"LES RANGEADES";"D 88";"87190";"SAINT-LEGER-MAGNAZEIX";"Bâtiment"; 7.0;"EDF GDF"
1050023;1.43694;46.06722;"01° 26' 13.00'' Est, 46° 04' 02.00'' Nord";"87013";"LA VILLE SOUS GRANGE";;"87370";"BERSAC-SUR-RIVALIER";"Bâtiment"; 7.0;"EDF GDF"
1050029;1.34778;45.95028;"01° 20' 52.00'' Est, 45° 57' 01.00'' Nord";"87002";"LE PUY BERTRAND";"POSTE ÉLECTRIQUE PE VC 18 JUNIAT";"87240";"AMBAZAC";"Bâtiment"; 5.5;"EDF GDF"
1066422;0.91444;45.89750;"00° 54' 52.00'' Est, 45° 53' 51.00'' Nord";"87154";"PIGNIER DE BELLEVUE";;"87200";"SAINT-JUNIEN";"Bâtiment"; 4.9;"EDF GDF"
1066424;0.89917;45.71944;"00° 53' 57.00'' Est, 45° 43' 10.00'' Nord";"87034";"LA MAISON NEUVE";"RTE CLOS BOUROU /D6 POSTE ELECTRIQUE";"87150";"CHAMPAGNAC-LA-RIVIERE";"Bâtiment"; 4.5;"EDF GDF"
1067909;1.13167;45.75722;"01° 07' 54.00'' Est, 45° 45' 26.00'' Nord";"87166";"MASSAUVENT";;"87700";"SAINT-MARTIN-LE-VIEUX";"Bâtiment"; 6.0;"EDF GDF"
1093826;1.30194;45.81167;"01° 18' 07.00'' Est, 45° 48' 42.00'' Nord";"87065";;"RUE JEAN MERMOZ ZI DU PONTEIX";"87220";"FEYTIAT";"Pylône autostable"; 11.0;"TDF"
1188494;1.44333;46.01083;"01° 26' 36.00'' Est, 46° 00' 39.00'' Nord";"87159";"PUY DE SAUVAGNAC";;"87340";"SAINT-LEGER-LA-MONTAGNE";"Pylône haubané"; 24.0;"Intérieur"
1188503;1.44306;46.01139;"01° 26' 35.00'' Est, 46° 00' 41.00'' Nord";"87159";"PUY DE SAUVAGNAC";;"87340";"SAINT-LEGER-LA-MONTAGNE";"Pylône autostable"; 67.0;"Autres"
1199567;1.04556;46.10889;"01° 02' 44.00'' Est, 46° 06' 32.00'' Nord";"87011";;"LES PALEINES";"87300";"BELLAC";"Pylône autostable"; 32.0;"BOUYGUES"
1201438;1.43389;45.65500;"01° 26' 02.00'' Est, 45° 39' 18.00'' Nord";"87072";"BOIS L'ÉGLISE";;"87380";"GLANGES";"Pylône autostable"; 30.0;"SNCF Réseau"
1201442;1.47972;45.61000;"01° 28' 47.00'' Est, 45° 36' 36.00'' Nord";"87146";;"RUE DE LA GARE";"87380";"SAINT-GERMAIN-LES-BELLES";"Pylône autostable"; 30.0;"SNCF Réseau"
1213105;1.22917;45.91583;"01° 13' 45.00'' Est, 45° 54' 57.00'' Nord";"87038";"CHANTELAUVE";"CHÂTEAU D'EAU";"87270";"CHAPTELAT";"Château d'eau - réservoir"; 42.0;"Commune, communauté de commune"
1262115;1.67056;45.73278;"01° 40' 14.00'' Est, 45° 43' 58.00'' Nord";"87105";"LA VEYTIZOU";"D 979";"87130";"NEUVIC-ENTIER";"Bâtiment"; 4.0;"EDF GDF"
1262117;1.22111;45.53639;"01° 13' 16.00'' Est, 45° 32' 11.00'' Nord";"87187";"LES RENAUDIES";;"87500";"SAINT-YRIEIX-LA-PERCHE";"Bâtiment"; 5.0;"EDF GDF"
1262119;1.27528;45.83250;"01° 16' 31.00'' Est, 45° 49' 57.00'' Nord";"87085";"LES LONGES";"30 RUE VICTOR DURUY";"87000";"LIMOGES";"Bâtiment"; 4.0;"EDF GDF"
1262121;1.20722;45.51722;"01° 12' 26.00'' Est, 45° 31' 02.00'' Nord";"87187";"LA BACHELLERIE DU NORD";"RUE DE L'EGALITÉ";"87500";"SAINT-YRIEIX-LA-PERCHE";"Bâtiment"; 11.0;"EDF GDF"
1262123;1.22667;45.60889;"01° 13' 36.00'' Est, 45° 36' 32.00'' Nord";"87127";"LA GRANGERE";"POSTE ELECTRIQUE DE LA TRAVERSE";"87800";"LA ROCHE-L'ABEILLE";"Bâtiment"; 6.0;"EDF GDF"
1269516;0.92000;45.87778;"00° 55' 12.00'' Est, 45° 52' 40.00'' Nord";"87154";"LE PUY DE VALETTE";"ENTRE D58 ET D116";"87200";"SAINT-JUNIEN";"Bâtiment"; 11.0;"EDF GDF"
1272155;0.84917;46.16556;"00° 50' 57.00'' Est, 46° 09' 56.00'' Nord";"87163";"LE BOURG";"VOIE COMMUNALE - D.4 CHÂTEAU D'EAU";"87330";"SAINT-MARTIAL-SUR-ISOP";"Château d'eau - réservoir"; 29.2;"ORANGE"
1272169;1.28611;45.80167;"01° 17' 10.00'' Est, 45° 48' 06.00'' Nord";"87085";"LES VERGNES DE CROCHAT";"RUE MARCEL DEPREZ";"87000";"LIMOGES";"Bâtiment"; 6.0;"EDF GDF"
1274457;1.54611;45.56750;"01° 32' 46.00'' Est, 45° 34' 03.00'' Nord";"87120";"LE BOIS DES JAROUSSES";;"87380";"LA PORCHERIE";"Pylône autostable"; 30.0;"Particulier"
1293367;1.27028;45.83972;"01° 16' 13.00'' Est, 45° 50' 23.00'' Nord";"87085";;"16 IMPASSE JACQUARD";"87000";"LIMOGES";"Pylône autostable"; 38.6;"SFR"
1302266;1.46333;45.92556;"01° 27' 48.00'' Est, 45° 55' 32.00'' Nord";"87167";"LE MAUREIX";"POSTE ROUTE LE MAUREIX";"87400";"SAINT-MARTIN-TERRESSUS";"Pylône autostable"; 12.0;"EDF GDF"
1344337;1.27444;45.82778;"01° 16' 28.00'' Est, 45° 49' 40.00'' Nord";"87085";;"RUE DU CLOS JARGOT";"87000";"LIMOGES";"Bâtiment"; 20.0;"ORANGE Services Fixes"
1379833;1.84361;45.80639;"01° 50' 37.00'' Est, 45° 48' 23.00'' Nord";"87117";"AUPHELLE";"ROUTE DU BARRAGE";"87470";"PEYRAT-LE-CHATEAU";"Mât béton"; 12.0;"Commune, communauté de commune"
1379838;1.17861;45.69222;"01° 10' 43.00'' Est, 45° 41' 32.00'' Nord";"87106";;"AVENUE JEAN JAURES";"23160";"NEXON";"Pylône autostable"; 30.0;"SNCF Réseau"
1381780;1.42028;45.63500;"01° 25' 13.00'' Est, 45° 38' 06.00'' Nord";"87203";"LA FEUILLADE";"POSTE ELECTRIQUE LE TUQUET";"87260";"VICQ-SUR-BREUILH";"Bâtiment"; 8.3;"EDF GDF"
1381874;1.80222;45.80222;"01° 48' 08.00'' Est, 45° 48' 08.00'' Nord";"87117";"LE MAZET";"LE MAZET";"87470";"PEYRAT-LE-CHATEAU";"Bâtiment"; 20.9;"EDF GDF"
1382711;1.05361;46.12389;"01° 03' 13.00'' Est, 46° 07' 26.00'' Nord";"87011";"LA NOISETTE";"RUE DES VIEUX BLATS";"87300";"BELLAC";"Bâtiment"; 8.0;"EDF GDF"
1384755;0.90278;45.88528;"00° 54' 10.00'' Est, 45° 53' 07.00'' Nord";"87154";;"BD MARCEL CACHAN PALAIS DES SPORTS";"87200";"SAINT-JUNIEN";"Bâtiment"; 22.0;"Commune, communauté de commune"
1384769;1.43278;46.13472;"01° 25' 58.00'' Est, 46° 08' 05.00'' Nord";"87067";"LA FAURILLE";;"87250";"FOLLES";"Pylône autostable"; 25.0;"SNCF Réseau"
1384775;1.37417;45.69056;"01° 22' 27.00'' Est, 45° 41' 26.00'' Nord";"87119";"CHABANAS";"LIEU DIT LA LOGE À TOURIN";"87260";"PIERRE-BUFFIERE";"Pylône autostable"; 30.0;"SNCF Réseau"
1385638;1.48000;45.99444;"01° 28' 48.00'' Est, 45° 59' 40.00'' Nord";"87079";;"RUE DE LA GARE";"87340";"LA JONCHERE-SAINT-MAURICE";"Pylône autostable"; 20.0;"SNCF Réseau"
1385881;1.31889;45.86472;"01° 19' 08.00'' Est, 45° 51' 53.00'' Nord";"87113";"PONT DURAND SUD";"IMPASSE PUY MARTIN";"87410";"LE PALAIS-SUR-VIENNE";"Pylône autostable"; 30.2;"SNCF Réseau"
1385883;1.25750;45.82167;"01° 15' 27.00'' Est, 45° 49' 18.00'' Nord";"87085";;"RUE DES BASSES PALISSES";"87000";"LIMOGES";"Pylône autostable"; 20.0;"SNCF Réseau"
1386254;1.43222;46.08361;"01° 25' 56.00'' Est, 46° 05' 01.00'' Nord";"87013";"LA GARE";;"87370";"BERSAC-SUR-RIVALIER";"Pylône autostable"; 20.0;"SNCF Réseau"
1386448;1.84556;45.79972;"01° 50' 44.00'' Est, 45° 47' 59.00'' Nord";"87117";;"CLUB NAUTIQUE DE VASSIVIERE LOTISSEMENT D'AUPHELLE";"87470";"PEYRAT-LE-CHATEAU";"Bâtiment"; 12.0;"EDF GDF"
1388209;1.43222;46.17111;"01° 25' 56.00'' Est, 46° 10' 16.00'' Nord";"87068";"LA GARE";"0";"87250";"FROMENTAL";"Pylône autostable"; 30.0;"SNCF Réseau"
1388211;1.32361;45.73056;"01° 19' 25.00'' Est, 45° 43' 50.00'' Nord";"87019";"SOUS LA PLANCHE";"CHEMIN DES TOURS";"87220";"BOISSEUIL";"Pylône autostable"; 25.0;"SNCF Réseau"
1388213;1.23694;45.80639;"01° 14' 13.00'' Est, 45° 48' 23.00'' Nord";"87075";"LE BAS CLUZEAU";;"87170";"ISLE";"Pylône autostable"; 20.0;"SNCF Réseau"
1388215;1.49389;46.01556;"01° 29' 38.00'' Est, 46° 00' 56.00'' Nord";"87079";"LES LANDES";"0";"87340";"LA JONCHERE-SAINT-MAURICE";"Pylône autostable"; 25.0;"SNCF Réseau"
1388478;1.17611;45.74639;"01° 10' 34.00'' Est, 45° 44' 47.00'' Nord";"87025";"LES PALENES";"0";"87800";"BURGNAC";"Pylône autostable"; 25.0;"SNCF Réseau"
1391594;1.45222;46.05778;"01° 27' 08.00'' Est, 46° 03' 28.00'' Nord";"87181";"LE MEILLERI";"0";"87370";"SAINT-SULPICE-LAURIERE";"Pylône autostable"; 20.0;"SNCF Réseau"
1391596;1.25222;45.79139;"01° 15' 08.00'' Est, 45° 47' 29.00'' Nord";"87048";"MAZEROLLAS";"ZAC JEAN MONNET";"87920";"CONDAT-SUR-VIENNE";"Pylône autostable"; 20.0;"SNCF Réseau"
1392409;1.28583;45.75583;"01° 17' 09.00'' Est, 45° 45' 21.00'' Nord";"87205";"MAISON NEUVE";"RUE DE LA GARE";"87110";"LE VIGEN";"Pylône autostable"; 25.0;"SNCF Réseau"
1394436;1.25139;45.84083;"01° 15' 05.00'' Est, 45° 50' 27.00'' Nord";"87085";;"RUE DE BEAUPUY";"87100";"LIMOGES";"Pylône tubulaire"; 20.0;"SNCF Réseau"
1397304;1.48389;46.04500;"01° 29' 02.00'' Est, 46° 02' 42.00'' Nord";"87181";;"RUE DU DÉPÔT";"87370";"SAINT-SULPICE-LAURIERE";"Pylône autostable"; 25.0;"SNCF Réseau"
1403124;1.25333;45.81806;"01° 15' 12.00'' Est, 45° 49' 05.00'' Nord";"87085";;"8, RUE CLOS MOREAU";"87000";"LIMOGES";"Bâtiment"; 14.0;"Société Privée SA"
1403128;1.30333;45.91333;"01° 18' 12.00'' Est, 45° 54' 48.00'' Nord";"87085";;"RUE PILATERIES";"87280";"LIMOGES";"Château d'eau - réservoir"; 33.0;"Société Privée SA"
1404093;1.35750;45.88722;"01° 21' 27.00'' Est, 45° 53' 14.00'' Nord";"87178";"CROUSTATD";;"87480";"SAINT-PRIEST-TAURION";"Pylône autostable"; 30.1;"SNCF Réseau"
1405503;1.19389;45.77917;"01° 11' 38.00'' Est, 45° 46' 45.00'' Nord";"87021";"LE GUÉ DE VERTHAMONT";;"87110";"BOSMIE-L'AIGUILLE";"Pylône autostable"; 29.8;"SNCF Réseau"
1424244;1.44861;45.96528;"01° 26' 55.00'' Est, 45° 57' 55.00'' Nord";"87002";"LE PRÉ BOUTET";;"87240";"AMBAZAC";"Pylône autostable"; 20.0;"SNCF Réseau"
1425904;1.27722;45.84361;"01° 16' 38.00'' Est, 45° 50' 37.00'' Nord";"87085";;"IMPASSE DES COLOMBES";"87000";"LIMOGES";"Pylône autostable"; 21.0;"ORANGE"
1439466;1.22861;45.63056;"01° 13' 43.00'' Est, 45° 37' 50.00'' Nord";"87096";"PLAISANCE";"RD 118";"87800";"LA MEYZE";"Pylône autostable"; 39.3;"TDF"
1443585;1.27222;45.88250;"01° 16' 20.00'' Est, 45° 52' 57.00'' Nord";"87085";;"17 R BARTHÉLÉMY THIMONNIER ZI NORD";"87000";"LIMOGES";"Pylône autostable"; 50.0;"SFR"
1453092;1.36861;45.94111;"01° 22' 07.00'' Est, 45° 56' 28.00'' Nord";"87002";;"LE TARIER, LES MARAIS";"87240";"AMBAZAC";"Pylône autostable"; 35.2;"SFR"
1453096;1.16278;45.81528;"01° 09' 46.00'' Est, 45° 48' 55.00'' Nord";"87075";;"LES LANDES DE REIGNEFORT";"87170";"ISLE";"Pylône autostable"; 43.0;"SFR"
1464818;1.24667;45.83361;"01° 14' 48.00'' Est, 45° 50' 01.00'' Nord";"87085";;"RUE D'ANTHONY";"87000";"LIMOGES";"Tunnel"; 9.0;"SNCF Réseau"
1465500;1.25056;45.83639;"01° 15' 02.00'' Est, 45° 50' 11.00'' Nord";"87085";;"AVENUE MARCELLIN BERTHELOT";"87000";"LIMOGES";"Ouvrage d'art (pont, viaduc)"; 12.0;"SNCF Réseau"
1465674;1.24000;45.83417;"01° 14' 24.00'' Est, 45° 50' 03.00'' Nord";"87085";"CITE ALBERT THOMAS";;"87000";"LIMOGES";"Mât"; 10.0;"SNCF Réseau"
1465676;1.22556;45.83139;"01° 13' 32.00'' Est, 45° 49' 53.00'' Nord";"87085";;"BOULEVARD DU MAS BOUYOUL";"87000";"LIMOGES";"Mât"; 10.0;"SNCF Réseau"
1466283;1.44583;46.06222;"01° 26' 45.00'' Est, 46° 03' 44.00'' Nord";"87013";;"LES PRES DE LA VILLE";"87370";"BERSAC-SUR-RIVALIER";"Mât métallique"; 10.0;"SNCF Réseau"
1466879;1.31361;45.73944;"01° 18' 49.00'' Est, 45° 44' 22.00'' Nord";"87019";;"PETITS BOIS";"87220";"BOISSEUIL";"Tunnel"; 5.8;"SNCF Réseau"
1467929;1.26972;45.85833;"01° 16' 11.00'' Est, 45° 51' 30.00'' Nord";"87085";;"LE MOULIN PINARD";"87000";"LIMOGES";"Tunnel"; 5.2;"SNCF Réseau"
1467931;1.27361;45.85306;"01° 16' 25.00'' Est, 45° 51' 11.00'' Nord";"87085";;"RUE DETAILLE";"87000";"LIMOGES";"Tunnel"; 5.2;"SNCF Réseau"
1467933;1.27750;45.84889;"01° 16' 39.00'' Est, 45° 50' 56.00'' Nord";"87085";;"FERME DU MAS NEUF";"87000";"LIMOGES";"Mât métallique"; 10.0;"SNCF Réseau"
1467935;1.49528;46.03639;"01° 29' 43.00'' Est, 46° 02' 11.00'' Nord";"87076";"PUY COURTY";"ROUTE DE LIMOGES";"87370";"JABREILLES-LES-BORDES";"Tunnel"; 6.0;"SNCF Réseau"
1468218;1.26056;45.83500;"01° 15' 38.00'' Est, 45° 50' 06.00'' Nord";"87085";;"39 B AV GARIBALDI";"87000";"LIMOGES";"Bâtiment"; 20.0;"Société Privée SA"
1468402;1.26556;45.83306;"01° 15' 56.00'' Est, 45° 49' 59.00'' Nord";"87085";;"ALLÉE DE SÉTO";"87000";"LIMOGES";"Tunnel"; 4.9;"SNCF Réseau"
1468404;1.26194;45.82861;"01° 15' 43.00'' Est, 45° 49' 43.00'' Nord";"87085";;"(SOUS LE) BOULEVARD LOUIS BLANC";"87000";"LIMOGES";"Tunnel"; 5.8;"SNCF Réseau"
1470033;1.48972;46.04222;"01° 29' 23.00'' Est, 46° 02' 32.00'' Nord";"87181";"FRÉTILLES";"RUE DU CHATELARD";"87370";"SAINT-SULPICE-LAURIERE";"Tunnel"; 6.0;"SNCF Réseau"
1470035;1.26806;45.78056;"01° 16' 05.00'' Est, 45° 46' 50.00'' Nord";"87192";"LA BORIE";;"87110";"SOLIGNAC";"Tunnel"; 5.8;"SNCF Réseau"
1471452;1.27111;45.77306;"01° 16' 16.00'' Est, 45° 46' 23.00'' Nord";"87192";"POUZOL";;"87110";"SOLIGNAC";"Tunnel"; 5.8;"SNCF Réseau"
1471463;1.39111;45.93722;"01° 23' 28.00'' Est, 45° 56' 14.00'' Nord";"87002";"LES POINTIS";"TUNNEL DE NOUAILLAS";"87240";"AMBAZAC";"Tunnel"; 9.6;"SNCF Réseau"
1471601;1.31139;45.74167;"01° 18' 41.00'' Est, 45° 44' 30.00'' Nord";"87019";"LE GILARDEIX";"ENTRÉE TUNNEL DE GILARDEIX PK 415.815";"87220";"BOISSEUIL";"Tunnel"; 11.0;"SNCF Réseau"
1471602;1.31167;45.74194;"01° 18' 42.00'' Est, 45° 44' 31.00'' Nord";"87019";;"LE GILARDEIX PK 415.810";"87220";"BOISSEUIL";"Mât métallique"; 15.0;"SNCF Réseau"
1471750;1.45000;46.05944;"01° 26' 60.00'' Est, 46° 03' 34.00'' Nord";"87181";;"CHEZ COMBEAU";"87370";"SAINT-SULPICE-LAURIERE";"Mât métallique"; 2.0;"SNCF Réseau"
1486639;0.95361;46.03806;"00° 57' 13.00'' Est, 46° 02' 17.00'' Nord";"87101";"DE LA BARRE";"CIMETIERE";"87330";"MORTEMART";"Pylône autostable"; 37.5;"Conseil Général"
1488647;1.24750;45.83333;"01° 14' 51.00'' Est, 45° 50' 00.00'' Nord";"87085";;"3 IMPASSE DE LA MAUVENDIERE";"87000";"LIMOGES";"Immeuble"; 34.0;"Copropriété, Syndic, SCI"
1489158;1.20306;46.34583;"01° 12' 11.00'' Est, 46° 20' 45.00'' Nord";"87087";"LA GRANDE LANDE";;"87360";"LUSSAC-LES-EGLISES";"Pylône autostable"; 32.5;"Conseil Général"
1519086;1.50556;45.95556;"01° 30' 20.00'' Est, 45° 57' 20.00'' Nord";"87157";;"LE PUY CHAMBON";"87240";"SAINT-LAURENT-LES-EGLISES";"Pylône autostable"; 46.5;"FPS TOWERS"
1536798;1.27167;45.94806;"01° 16' 18.00'' Est, 45° 56' 53.00'' Nord";"87020";;"LA POLOGNE";"87270";"BONNAC-LA-COTE";"Pylône autostable"; 38.0;"FPS TOWERS"
1537489;1.21417;45.50639;"01° 12' 51.00'' Est, 45° 30' 23.00'' Nord";"87187";;"LA ROUSSIE";"87500";"SAINT-YRIEIX-LA-PERCHE";"Pylône autostable"; 36.0;"Altitude Telecom"
1555179;1.42139;45.75611;"01° 25' 17.00'' Est, 45° 45' 22.00'' Nord";"87174";;"CHEM DE LA REDONDE";"87260";"SAINT-PAUL";"Pylône autostable"; 37.0;"SFR"
1562152;1.38194;45.80333;"01° 22' 55.00'' Est, 45° 48' 12.00'' Nord";"87005";"FONTERNE";"0";"87220";"AUREIL";"Pylône autostable"; 33.0;"SFR"
1563270;1.22222;45.51167;"01° 13' 20.00'' Est, 45° 30' 42.00'' Nord";"87187";;"CITE JACQUES BOUTARD";"87500";"SAINT-YRIEIX-LA-PERCHE";"Pylône autostable"; 37.0;"IFW-FREE"
1564054;1.26500;45.83194;"01° 15' 54.00'' Est, 45° 49' 55.00'' Nord";"87085";;"16 PL JOURDAN CHAMBRE DE COMMERCE ET D'INDUSTRIE";"87000";"LIMOGES";"Bâtiment"; 34.0;"CCI,Ch Metiers,Port Aut,Aérop"
1570155;1.25139;45.85222;"01° 15' 05.00'' Est, 45° 51' 08.00'' Nord";"87085";;"54 BD  DU VIGENAL";"87000";"LIMOGES";"Immeuble"; 21.0;"Société HLM"
1571641;1.30056;45.97306;"01° 18' 02.00'' Est, 45° 58' 23.00'' Nord";"87047";"BEAUSOLEIL";"PUY DU BEAUSOLEIL";"87140";"COMPREIGNAC";"Pylône autostable"; 36.0;"ORANGE"
1573202;1.18278;46.14528;"01° 10' 58.00'' Est, 46° 08' 43.00'' Nord";"87121";"DES AJONCS";;"87290";"RANCON";"Château d'eau - réservoir"; 42.6;"Commune, communauté de commune"
1574461;1.17417;45.86667;"01° 10' 27.00'' Est, 45° 52' 00.00'' Nord";"87085";"L'AGE";"R CAMILLE FONDANÈCHE CROISEMENT R SALADAS";"87000";"LIMOGES";"Pylône autostable"; 18.0;"SFR"
1575069;1.28639;45.84444;"01° 17' 11.00'' Est, 45° 50' 40.00'' Nord";"87085";;"8 R SUZANNE VALADON";"87000";"LIMOGES";"Immeuble"; 18.1;"Copropriété, Syndic, SCI"
1575078;1.20333;45.78694;"01° 12' 12.00'' Est, 45° 47' 13.00'' Nord";"87075";"L'ETOILE";"L'ETOILE";"87170";"ISLE";"Pylône autostable"; 34.3;"SFR"
1576314;1.24722;45.79556;"01° 14' 50.00'' Est, 45° 47' 44.00'' Nord";"87048";"CRASSAC";"0 RD N°11";"87920";"CONDAT-SUR-VIENNE";"Pylône autostable"; 24.0;"SFR"
1576775;1.27889;45.83750;"01° 16' 44.00'' Est, 45° 50' 15.00'' Nord";"87085";;"2 RUE MONTHERY";"87000";"LIMOGES";"Bâtiment"; 6.0;"Association"
1577763;1.27944;45.81056;"01° 16' 46.00'' Est, 45° 48' 38.00'' Nord";"87085";;"25 RUE SANTOS DUMONT";"87000";"LIMOGES";"Pylône tubulaire"; 29.0;"ORANGE"
1577938;1.00583;45.86972;"01° 00' 21.00'' Est, 45° 52' 11.00'' Nord";"87185";"LES COMBES";"PROCHE V C DE ST VICTURNIEN À COGNAC ENTRE LE MAS ET LE NORMANDIE";"87420";"SAINT-VICTURNIEN";"Pylône autostable"; 40.0;"SFR"
1578862;1.27167;45.81694;"01° 16' 18.00'' Est, 45° 49' 01.00'' Nord";"87085";;"32 R DOMNOLET LAFARGE";"87000";"LIMOGES";"Immeuble"; 35.0;"SFR"
1584333;1.22028;45.82333;"01° 13' 13.00'' Est, 45° 49' 24.00'' Nord";"87085";;"364 RUE FRANCOIS PERRIN";"87000";"LIMOGES";"Immeuble"; 19.7;"Copropriété, Syndic, SCI"
1584789;0.87250;45.73028;"00° 52' 21.00'' Est, 45° 43' 49.00'' Nord";"87111";;"8 R CITÉ DES MOTTES  PRÈS CHATEAU D'EAU";"87150";"ORADOUR-SUR-VAYRES";"Pylône autostable"; 28.0;"FPS TOWERS"
1588690;0.90167;46.23250;"00° 54' 06.00'' Est, 46° 13' 57.00'' Nord";"87028";;"R LOUIS JALLADEAU";"87320";"BUSSIERE-POITEVINE";"Château d'eau - réservoir"; 34.1;"Syndicat des eaux, Adduction"
1590317;1.17250;46.22111;"01° 10' 21.00'' Est, 46° 13' 16.00'' Nord";"87089";"LES VIGNES";;"87190";"MAGNAC-LAVAL";"Pylône autostable"; 38.0;"TDF"
1590786;1.40861;46.27333;"01° 24' 31.00'' Est, 46° 16' 24.00'' Nord";"87003";"CHANTEMERLE";;"87160";"ARNAC-LA-POSTE";"Pylône autostable"; 49.0;"TDF"
1593074;1.27750;45.93417;"01° 16' 39.00'' Est, 45° 56' 03.00'' Nord";"87020";"LA PLIÈRE";"ALLÉE DE LA PLIERE";"87270";"BONNAC-LA-COTE";"Pylône autostable"; 35.5;"SFR"
1593108;1.25778;45.80778;"01° 15' 28.00'' Est, 45° 48' 28.00'' Nord";"87085";;"IMP DE PÉLISSERIE RTE DE NEXON";"87000";"LIMOGES";"Pylône autostable"; 20.0;"SFR"
