Numéro du support;Longitude;Latitude;"Position";"Insee";"Lieu dit";"Adresse";"Code postal";"Commune";"Nature du support";Hauteur en m;"Propriétaire"
43359;2.42139;48.91972;"02° 25' 17.00'' Est, 48° 55' 11.00'' Nord";"93029";;"60, R ST STENAY CCAL";"93700";"DRANCY";"Bâtiment"; 13.0;"Société Privée SA"
43561;2.53694;48.86417;"02° 32' 13.00'' Est, 48° 51' 51.00'' Nord";"93050";;"1 R DUGAY TROUIN LES FAUCHERETS";"93330";"NEUILLY-SUR-MARNE";"Immeuble"; 25.5;"Société HLM"
43669;2.57194;48.96000;"02° 34' 19.00'' Est, 48° 57' 36.00'' Nord";"93073";;"69 R HENRI BARBUSSE RÉSIDENCE BARBUSSE";"93290";"TREMBLAY-EN-FRANCE";"Immeuble"; 17.5;"Copropriété, Syndic, SCI"
88383;2.33167;48.90639;"02° 19' 54.00'' Est, 48° 54' 23.00'' Nord";"93070";;"1 R FARCOT";"93400";"SAINT-OUEN";"Immeuble"; 25.0;"Particulier"
107976;2.37000;48.96389;"02° 22' 12.00'' Est, 48° 57' 50.00'' Nord";"93059";;"13 R DES MARRONNIERS";"93380";"PIERREFITTE-SUR-SEINE";"Immeuble"; 35.0;"ORANGE"
108148;2.37056;48.92056;"02° 22' 14.00'' Est, 48° 55' 14.00'' Nord";"93001";;"CHEM DU HAUT ST DENIS (LATÉRAL NORD)";"93300";"AUBERVILLIERS";"Ouvrage d'art (pont, viaduc)"; 26.0;"DDE"
108168;2.52028;48.88222;"02° 31' 13.00'' Est, 48° 52' 56.00'' Nord";"93077";;"2 R GIRARDOT";"93250";"VILLEMOMBLE";"Immeuble"; 27.0;"Copropriété, Syndic, SCI"
120538;2.50750;48.88972;"02° 30' 27.00'' Est, 48° 53' 23.00'' Nord";"93077";;"38 R BERNARD GANTE";"93250";"VILLEMOMBLE";"Immeuble"; 18.3;"Particulier"
129243;2.43667;48.91000;"02° 26' 12.00'' Est, 48° 54' 36.00'' Nord";"93008";;"203 AV JEAN JAURES";"93000";"BOBIGNY";"Immeuble"; 33.0;"Société HLM"
132285;2.47444;48.89611;"02° 28' 28.00'' Est, 48° 53' 46.00'' Nord";"93010";;"16 R DU SERGENT BOBILLOT";"93140";"BONDY";"Immeuble"; 34.0;"Société HLM"
132720;2.45472;48.91083;"02° 27' 17.00'' Est, 48° 54' 39.00'' Nord";"93008";;"68, CHEM DE LA MADELEINE";"93000";"BOBIGNY";"Immeuble"; 25.0;"Copropriété, Syndic, SCI"
132852;2.40583;48.91639;"02° 24' 21.00'' Est, 48° 54' 59.00'' Nord";"93055";"LA COURTILLIÈRE";"190 AV JEAN JAURES LA COURTILLIERE";"93500";"PANTIN";"Immeuble"; 27.0;"Société HLM"
132854;2.43889;48.90556;"02° 26' 20.00'' Est, 48° 54' 20.00'' Nord";"93008";;"119-127 AV JEAN JAURÈS";"93000";"BOBIGNY";"Immeuble"; 31.0;"Société HLM"
145927;2.52556;48.95000;"02° 31' 32.00'' Est, 48° 57' 00.00'' Nord";"93071";;"RTE DES PETITS PONTS  CENTRE C";"93270";"SEVRAN";"Bâtiment"; 10.0;"Société Privée SA"
157379;2.55694;48.96389;"02° 33' 25.00'' Est, 48° 57' 50.00'' Nord";"93073";;"46 R MARCEL PAUL ZI";"93290";"TREMBLAY-EN-FRANCE";"Support non décrit"; 15.0;
159003;2.41389;48.86361;"02° 24' 50.00'' Est, 48° 51' 49.00'' Nord";"93006";;"1 AV DE LA REPUBLIQUE";"93170";"BAGNOLET";"Support non décrit"; 3.0;
159391;2.46889;48.94194;"02° 28' 08.00'' Est, 48° 56' 31.00'' Nord";"93007";;"AVE PASTEUR";"93150";"LE BLANC-MESNIL";"Support non décrit"; 20.0;
179616;2.57056;48.95139;"02° 34' 14.00'' Est, 48° 57' 05.00'' Nord";"93073";;"18 BOULEVARD DE L'HÔTEL DE VILLE MAIRIE";"93290";"TREMBLAY-EN-FRANCE";"Bâtiment"; 20.0;"Commune, communauté de commune"
203147;2.49028;48.94194;"02° 29' 25.00'' Est, 48° 56' 31.00'' Nord";"93005";;"72 R CAMILLE PELLETAN";"93600";"AULNAY-SOUS-BOIS";"Support non décrit"; 42.0;
203169;2.46528;48.94361;"02° 27' 55.00'' Est, 48° 56' 37.00'' Nord";"93007";;"CH D EAU AV DIVISION LECLERC";"93150";"LE BLANC-MESNIL";"Support non décrit"; 25.0;
207681;2.38556;48.92361;"02° 23' 08.00'' Est, 48° 55' 25.00'' Nord";"93027";;"R SUZANNE MASSON PROCHE GARE RER";"93120";"LA COURNEUVE";"Mât métallique"; 12.0;"DDE"
216732;2.35000;48.91917;"02° 21' 00.00'' Est, 48° 55' 09.00'' Nord";"93066";;"RST LANDY EX POSTE 7 PK 004.350";"93210";"SAINT-DENIS";"Mât"; 15.0;"SNCF Réseau"
216734;2.35694;48.95250;"02° 21' 25.00'' Est, 48° 57' 09.00'' Nord";"93059";;"RST JONCHEROLLES PK 008.500";"93380";"PIERREFITTE-SUR-SEINE";"Mât"; 15.0;"SNCF Réseau"
216750;2.52417;48.94806;"02° 31' 27.00'' Est, 48° 56' 53.00'' Nord";"93071";;"RST SEVRAN BEAUDOTTES PK 017.855";"93270";"SEVRAN";"Tunnel"; 5.0;"SNCF Réseau"
216754;2.51278;48.96056;"02° 30' 46.00'' Est, 48° 57' 38.00'' Nord";"93078";;"RST VILLEPINTE PK 019.795";"93420";"VILLEPINTE";"Mât"; 10.0;"SNCF Réseau"
216758;2.55250;49.00556;"02° 33' 09.00'' Est, 49° 00' 20.00'' Nord";"93073";;"RST ROISSY PK 027.360";"93290";"TREMBLAY-EN-FRANCE";"Mât"; 7.0;"SNCF Réseau"
216760;2.47861;48.88778;"02° 28' 43.00'' Est, 48° 53' 16.00'' Nord";"93064";;"RST VILLEMONBLE PRS PK 005.000";"93110";"ROSNY-SOUS-BOIS";"Mât"; 13.0;"SNCF Réseau"
216764;2.52639;48.87250;"02° 31' 35.00'' Est, 48° 52' 21.00'' Nord";"93050";;"RST GAGNY RACCORDEMENT PK 009.000";"93330";"NEUILLY-SUR-MARNE";"Mât"; 22.0;"SNCF Réseau"
224030;2.39000;48.95000;"02° 23' 24.00'' Est, 48° 57' 00.00'' Nord";"93072";;"15 R VICTOR RENELLE";"93240";"STAINS";"Immeuble"; 23.0;"Société HLM"
225641;2.46333;48.85861;"02° 27' 48.00'' Est, 48° 51' 31.00'' Nord";"93048";;"R DES GRANDS PECHERS 18/20 R ROBERT LEGROS";"93100";"MONTREUIL";"Immeuble"; 25.0;"Société HLM"
239313;2.47528;48.92694;"02° 28' 31.00'' Est, 48° 55' 37.00'' Nord";"93007";;"45 AV PAUL  VAILLANT COUTURIER";"93150";"LE BLANC-MESNIL";"Immeuble"; 44.0;"Société HLM"
243203;2.52306;48.90444;"02° 31' 23.00'' Est, 48° 54' 16.00'' Nord";"93014";;"4 CHEM DES POSTES";"93390";"CLICHY-SOUS-BOIS";"Immeuble"; 18.0;"Copropriété, Syndic, SCI"
244132;2.55139;48.87861;"02° 33' 05.00'' Est, 48° 52' 43.00'' Nord";"93032";;"8 R PIERRE BEZET";"93220";"GAGNY";"Immeuble"; 25.0;"Copropriété, Syndic, SCI"
244134;2.41333;48.87389;"02° 24' 48.00'' Est, 48° 52' 26.00'' Nord";"93045";;"27 R DE VILLEGRANGES";"93260";"LES LILAS";"Immeuble"; 26.0;"ORANGE"
262713;2.54167;48.92861;"02° 32' 30.00'' Est, 48° 55' 43.00'' Nord";"93046";;"41/45, AV JEAN-JACQUES ROUSSEAU";"93190";"LIVRY-GARGAN";"Immeuble"; 14.0;"Copropriété, Syndic, SCI"
267716;2.36028;48.95167;"02° 21' 37.00'' Est, 48° 57' 06.00'' Nord";"93059";;"25 R NUNGESSER ET COLI";"93380";"PIERREFITTE-SUR-SEINE";"Immeuble"; 19.0;"Copropriété, Syndic, SCI"
270870;2.36639;48.96556;"02° 21' 59.00'' Est, 48° 57' 56.00'' Nord";"93059";;"21 R ETIENNE DOLET";"93380";"PIERREFITTE-SUR-SEINE";"Immeuble"; 18.0;"Société HLM"
270976;2.38417;48.94083;"02° 23' 03.00'' Est, 48° 56' 27.00'' Nord";"93066";;"6 R DES MARNAUDES";"93210";"SAINT-DENIS";"Immeuble"; 36.0;"Société HLM"
275188;2.44583;48.88750;"02° 26' 45.00'' Est, 48° 53' 15.00'' Nord";"93053";;"15 R EMILE ZOLA";"93130";"NOISY-LE-SEC";"Immeuble"; 12.4;"Particulier"
275190;2.54111;48.88750;"02° 32' 28.00'' Est, 48° 53' 15.00'' Nord";"93032";;"1 AV BLANCHE";"93220";"GAGNY";"Immeuble"; 10.9;"Particulier"
275281;2.35500;48.96417;"02° 21' 18.00'' Est, 48° 57' 51.00'' Nord";"93059";;"20 R FRANCOIS GILLET";"93380";"PIERREFITTE-SUR-SEINE";"Immeuble"; 11.6;"Particulier"
275285;2.56056;48.86861;"02° 33' 38.00'' Est, 48° 52' 07.00'' Nord";"93032";;"24 AV CENTRALE";"93220";"GAGNY";"Immeuble"; 11.4;"Particulier"
276047;2.50917;48.91639;"02° 30' 33.00'' Est, 48° 54' 59.00'' Nord";"93046";;"71 AV GALLIENI";"93190";"LIVRY-GARGAN";"Mât"; 11.4;"Particulier"
278086;2.54056;48.92222;"02° 32' 26.00'' Est, 48° 55' 20.00'' Nord";"93046";;"9 R PACHOT LAINÉ";"93190";"LIVRY-GARGAN";"Bâtiment"; 22.6;"Copropriété, Syndic, SCI"
280250;2.53944;48.92361;"02° 32' 22.00'' Est, 48° 55' 25.00'' Nord";"93046";;"27/29 R PACHOT LAINÉ";"93190";"LIVRY-GARGAN";"Bâtiment"; 14.0;"Copropriété, Syndic, SCI"
281086;2.50194;48.95250;"02° 30' 07.00'' Est, 48° 57' 09.00'' Nord";"93005";;"115, R DU MOULIN DE LA VILLE";"93600";"AULNAY-SOUS-BOIS";"Immeuble"; 28.0;"Société HLM"
283008;2.48194;48.94250;"02° 28' 55.00'' Est, 48° 56' 33.00'' Nord";"93005";;"68 R DE POLOGNE";"93600";"AULNAY-SOUS-BOIS";"Bâtiment"; 11.5;"Particulier"
283095;2.59028;48.94333;"02° 35' 25.00'' Est, 48° 56' 36.00'' Nord";"93073";;"132, AV ALBERT SARRAULT";"93290";"TREMBLAY-EN-FRANCE";"Bâtiment"; 19.2;"Particulier"
284828;2.44028;48.85861;"02° 26' 25.00'' Est, 48° 51' 31.00'' Nord";"93048";;"12 R MOLIÈRE";"93100";"MONTREUIL";"Immeuble"; 21.0;"Copropriété, Syndic, SCI"
286582;2.58139;48.94222;"02° 34' 53.00'' Est, 48° 56' 32.00'' Nord";"93073";;"R DE REIMS";"93290";"TREMBLAY-EN-FRANCE";"Pylône tubulaire"; 25.0;"Commune, communauté de commune"
289893;2.50306;48.90472;"02° 30' 11.00'' Est, 48° 54' 17.00'' Nord";"93057";;"100/102 AV  JEAN JAURÈS";"93320";"LES PAVILLONS-SOUS-BOIS";"Immeuble"; 30.0;"Copropriété, Syndic, SCI"
294757;2.41528;48.92444;"02° 24' 55.00'' Est, 48° 55' 28.00'' Nord";"93027";;"126 AV PAUL VAILLANT COUTURIER SITE 12";"93120";"LA COURNEUVE";"Immeuble"; 34.0;
294765;2.44417;48.95444;"02° 26' 39.00'' Est, 48° 57' 16.00'' Nord";"93007";;"R DES FRERES LUMIERE PYLONE SITE 40";"93150";"LE BLANC-MESNIL";"Pylône autostable"; 26.0;
294773;2.36361;48.91500;"02° 21' 49.00'' Est, 48° 54' 54.00'' Nord";"93066";;"25 R DU LANDY SITE 1037";"93210";"SAINT-DENIS";"Immeuble"; 27.0;
295502;2.41306;48.93500;"02° 24' 47.00'' Est, 48° 56' 06.00'' Nord";"93027";;"7/9 R MARYSE BASTIÉ";"93120";"LA COURNEUVE";"Bâtiment"; 23.3;"Copropriété, Syndic, SCI"
295965;2.55333;48.84583;"02° 33' 12.00'' Est, 48° 50' 45.00'' Nord";"93051";;"36 R REPUBLIQUE ESPACE MICHEL SIMON";"93160";"NOISY-LE-GRAND";"Immeuble"; 25.0;"Commune, communauté de commune"
296168;2.41750;48.85056;"02° 25' 03.00'' Est, 48° 51' 02.00'' Nord";"93048";;"41 R DE VALMY";"93100";"MONTREUIL";"Immeuble"; 41.0;"Société Privée SA"
298917;2.56889;48.84500;"02° 34' 08.00'' Est, 48° 50' 42.00'' Nord";"93051";;"10 R DU SOUVENIR";"93160";"NOISY-LE-GRAND";"Bâtiment"; 11.6;"Société Privée SA"
300944;2.44778;48.93917;"02° 26' 52.00'' Est, 48° 56' 21.00'' Nord";"93029";;"76, R DU 11 NOVEMBRE";"93700";"DRANCY";"Immeuble"; 12.2;"Particulier"
305335;2.49611;48.89222;"02° 29' 46.00'' Est, 48° 53' 32.00'' Nord";"93010";;"2 ALLÉE BECQUEREL";"93140";"BONDY";"Bâtiment"; 14.8;"Copropriété, Syndic, SCI"
305939;2.48778;48.93806;"02° 29' 16.00'' Est, 48° 56' 17.00'' Nord";"93005";;"38  R PASCAL LECOINTRE";"93600";"AULNAY-SOUS-BOIS";"Immeuble"; 12.4;"Particulier"
307637;2.53444;48.94944;"02° 32' 04.00'' Est, 48° 56' 58.00'' Nord";"93071";;"3, ALLÉE DE LA BOETIE";"93270";"SEVRAN";"Immeuble"; 48.4;"Copropriété, Syndic, SCI"
307758;2.51806;48.93167;"02° 31' 05.00'' Est, 48° 55' 54.00'' Nord";"93071";;"32 ALLÉE DU MARÉCHAL MORTIER";"93270";"SEVRAN";"Bâtiment"; 11.4;"Particulier"
310569;2.50167;48.89083;"02° 30' 06.00'' Est, 48° 53' 27.00'' Nord";"93077";;"BOIS DORE PK 012.000 DE LA LIGNE 70000";"93250";"VILLEMOMBLE";"Pylône autostable"; 24.0;
310571;2.52694;48.88306;"02° 31' 37.00'' Est, 48° 52' 59.00'' Nord";"93032";;"GARE PK 014.000 DE LA LIGNE 70000";"93220";"GAGNY";"Pylône autostable"; 19.0;
310575;2.40417;48.89889;"02° 24' 15.00'' Est, 48° 53' 56.00'' Nord";"93055";;"GARE MARCHANDISES PK 004 760 DE LA LIGNE 1000 PYL ECLAIRAGE";"93500";"PANTIN";"Pylône autostable"; 31.0;"SNCF Réseau"
313183;2.46111;48.89694;"02° 27' 40.00'' Est, 48° 53' 49.00'' Nord";"93053";;"AV GALLIENI PK 008 950 DE LA LIGNE 1000 LE PETIT NOISY";"93130";"NOISY-LE-SEC";"Pylône autostable"; 30.0;"SNCF Réseau"
325692;2.44611;48.93000;"02° 26' 46.00'' Est, 48° 55' 48.00'' Nord";"93029";;"R ALSACE LORRAINE STADE M. BAQUET";"93700";"DRANCY";"Pylône tubulaire"; 20.0;"ORANGE"
326875;2.40250;48.89083;"02° 24' 09.00'' Est, 48° 53' 27.00'' Nord";"93055";;"60 AV JEAN LOLIVE  HOCHE  L5";"93500";"PANTIN";"Intérieur galerie"; 0.0;
337253;2.51222;48.93222;"02° 30' 44.00'' Est, 48° 55' 56.00'' Nord";"93071";;"ROUGEMONT N 370 PN ROUGEMONT PK 015 770";"93270";"SEVRAN";"Pylône autostable"; 25.0;
337255;2.48556;48.86972;"02° 29' 08.00'' Est, 48° 52' 11.00'' Nord";"93064";;"AV DE LA REPUBLIQUE PE ROSNY S BOIS PK 012660";"93110";"ROSNY-SOUS-BOIS";"Pylône autostable"; 20.0;
348554;2.30833;48.95417;"02° 18' 30.00'' Est, 48° 57' 15.00'' Nord";"93031";;"1 À 3 AV DU 18 JUIN 1940 HOTEL IBIS";"93800";"EPINAY-SUR-SEINE";"Immeuble"; 21.0;"Société Privée SA"
351235;2.48806;48.89778;"02° 29' 17.00'' Est, 48° 53' 52.00'' Nord";"93010";;"1 R HENRI DUNANT";"93140";"BONDY";"Immeuble"; 56.0;"Société HLM"
353016;2.49611;48.94306;"02° 29' 46.00'' Est, 48° 56' 35.00'' Nord";"93005";;"23 R JACQUES DUCLOS";"93600";"AULNAY-SOUS-BOIS";"Bâtiment"; 36.0;"ORANGE"
353594;2.49500;48.86500;"02° 29' 42.00'' Est, 48° 51' 54.00'' Nord";"93064";;"10 R DES ANCIENS COMBATTANTS D'AFRIQUE DU NORD";"93110";"ROSNY-SOUS-BOIS";"Immeuble"; 18.0;"Société HLM"
364122;2.53639;49.00056;"02° 32' 11.00'' Est, 49° 00' 02.00'' Nord";"93073";;"24 R DU TRAIT D UNION";"93290";"TREMBLAY-EN-FRANCE";"Bâtiment"; 10.0;
367345;2.51222;48.91806;"02° 30' 44.00'' Est, 48° 55' 05.00'' Nord";"93046";;"43/45 AV DE LA CONVENTION";"93190";"LIVRY-GARGAN";"Mât métallique"; 12.0;"Copropriété, Syndic, SCI"
368184;2.52333;48.88222;"02° 31' 24.00'' Est, 48° 52' 56.00'' Nord";"93077";;"33 R DE LA BOURDONNAIS";"93250";"VILLEMOMBLE";"Immeuble"; 20.0;"Copropriété, Syndic, SCI"
371087;2.56556;49.00944;"02° 33' 56.00'' Est, 49° 00' 34.00'' Nord";"93073";;"45 R DE PARIS BAT 6053";"93290";"TREMBLAY-EN-FRANCE";"Bâtiment"; 21.3;
375451;2.44528;48.94833;"02° 26' 43.00'' Est, 48° 56' 54.00'' Nord";"93007";;"AVENUE VLADIMIR ILITCH LÉNINE SUR TUNNEL A1";"93150";"LE BLANC-MESNIL";"Mât"; 4.0;"SFR"
384466;2.53861;48.86278;"02° 32' 19.00'' Est, 48° 51' 46.00'' Nord";"93050";;"288 AV DE VERDUN STADE GEORGES FOULON";"93330";"NEUILLY-SUR-MARNE";"Pylône tubulaire"; 22.0;"ORANGE"
384468;2.34056;48.92889;"02° 20' 26.00'' Est, 48° 55' 44.00'' Nord";"93066";;"2, QUAI DE ST OUEN HOTEL CAMPANILE";"93210";"SAINT-DENIS";"Immeuble"; 25.0;"Société Privée SA"
396210;2.55417;48.92028;"02° 33' 15.00'' Est, 48° 55' 13.00'' Nord";"93046";;"CHEM DE LA GLAISIÈRE RTE STRATEGIQUE RD 129";"93190";"LIVRY-GARGAN";"Pylône autostable"; 33.1;"CELLNEX"
403655;2.53861;48.94139;"02° 32' 19.00'' Est, 48° 56' 29.00'' Nord";"93071";;"4 CHEM DE LA MARE AUX POUTRES";"93270";"SEVRAN";"Bâtiment"; 5.0;
415768;2.34139;48.92139;"02° 20' 29.00'' Est, 48° 55' 17.00'' Nord";"93066";"VIEUX PORT";"BLD ANATOLE FRANCE";"93200";"SAINT-DENIS";"Bâtiment"; 32.0;"EDF ou GDF"
419480;2.53028;48.99111;"02° 31' 49.00'' Est, 48° 59' 28.00'' Nord";"93073";;"R DES VOYELLES BAT 3520";"93290";"TREMBLAY-EN-FRANCE";"Bâtiment"; 15.0;
421115;2.35222;48.93667;"02° 21' 08.00'' Est, 48° 56' 12.00'' Nord";"93066";;"77 R DE LA REPUBLIQUE";"93200";"SAINT-DENIS";"Bâtiment"; 16.3;"BOUYGUES"
422944;2.56028;48.89389;"02° 33' 37.00'' Est, 48° 53' 38.00'' Nord";"93047";;"111 AV DANIEL PERDRIGE";"93370";"MONTFERMEIL";"Pylône tubulaire"; 27.0;"SFR"
424145;2.48250;48.94639;"02° 28' 57.00'' Est, 48° 56' 47.00'' Nord";"93005";"LES MARDELLES";"44 R MAURICE DE BROGLIE GVIO- PARC DES MARDELLES";"93600";"AULNAY-SOUS-BOIS";"Pylône tubulaire"; 23.0;"ORANGE"
425227;2.36556;48.94111;"02° 21' 56.00'' Est, 48° 56' 28.00'' Nord";"93066";;"14 AV JEAN MOULIN CITÉ ST LÉGER BÂTIMENT B";"93200";"SAINT-DENIS";"Bâtiment"; 31.0;"ORANGE"
426934;2.44139;48.86306;"02° 26' 29.00'' Est, 48° 51' 47.00'' Nord";"93048";;"PL JEAN JAURES TOUR RD POINT 93";"93100";"MONTREUIL";"Bâtiment"; 50.0;
435218;2.42500;48.85222;"02° 25' 30.00'' Est, 48° 51' 08.00'' Nord";"93048";;"66/72 R MARCEAU";"93100";"MONTREUIL";"Immeuble"; 29.0;"Copropriété, Syndic, SCI"
437037;2.53306;48.90528;"02° 31' 59.00'' Est, 48° 54' 19.00'' Nord";"93014";;"20, ALLÉE DE LA FOSSE MAUSSOIN";"93390";"CLICHY-SOUS-BOIS";"Bâtiment"; 13.5;"Société Privée SA"
437360;2.38778;48.93417;"02° 23' 16.00'' Est, 48° 56' 03.00'' Nord";"93027";;"AV ROGER SALENGRO PRES A1 CENTRE HIPPIQUE";"93120";"LA COURNEUVE";"Ouvrage de signalisation (portique routier, panneau routier, panneau publicitaire)"; 14.0;"DDE"
437469;2.44611;48.90333;"02° 26' 46.00'' Est, 48° 54' 12.00'' Nord";"93008";;"18 AV SALVADOR ALLENDE";"93000";"BOBIGNY";"Immeuble"; 40.0;"Conseil Départemental"
441242;2.55333;48.84917;"02° 33' 12.00'' Est, 48° 50' 57.00'' Nord";"93051";;"1 AV EMILE COSSONNEAU";"93160";"NOISY-LE-GRAND";"Bâtiment"; 21.0;"La Poste"
441601;2.47472;48.96528;"02° 28' 29.00'' Est, 48° 57' 55.00'' Nord";"93005";;"A1 PR 12.6 PARIS PROVINCE PONT BRETELLE A3";"93600";"AULNAY-SOUS-BOIS";"Tunnel"; 9.0;"DDE"
442484;2.42611;48.88611;"02° 25' 34.00'' Est, 48° 53' 10.00'' Nord";"93045";;"6 R GUYNEMER";"93260";"LES LILAS";"Immeuble"; 60.0;"Société HLM"
444302;2.46250;48.85722;"02° 27' 45.00'' Est, 48° 51' 26.00'' Nord";"93048";;"156, 158 R DE TILLEMONT";"93100";"MONTREUIL";"Immeuble"; 29.0;"Copropriété, Syndic, SCI"
444326;2.36306;48.96778;"02° 21' 47.00'' Est, 48° 58' 04.00'' Nord";"93059";;"11 R ETIENNE DOLET";"93380";"PIERREFITTE-SUR-SEINE";"Immeuble"; 20.0;"Société HLM"
444357;2.50778;48.86111;"02° 30' 28.00'' Est, 48° 51' 40.00'' Nord";"93049";;"64 R DU MARÉCHAL FOCH";"93360";"NEUILLY-PLAISANCE";"Immeuble"; 22.0;"Société HLM"
444375;2.56833;48.82778;"02° 34' 06.00'' Est, 48° 49' 40.00'' Nord";"93051";;"12 R PAUL SERELLE";"93160";"NOISY-LE-GRAND";"Bâtiment"; 12.0;"Particulier"
444391;2.46944;48.88583;"02° 28' 10.00'' Est, 48° 53' 09.00'' Nord";"93053";;"14 R PAUL VERLAINE CITÉ LONDEAU";"93130";"NOISY-LE-SEC";"Immeuble"; 67.3;"Commune, communauté de commune"
445805;2.36667;48.96056;"02° 22' 00.00'' Est, 48° 57' 38.00'' Nord";"93059";;"115 R ETIENNE DOLET";"93380";"PIERREFITTE-SUR-SEINE";"Pylône tubulaire"; 37.0;"Particulier"
446722;2.42722;48.91333;"02° 25' 38.00'' Est, 48° 54' 48.00'' Nord";"93008";;"R DE LA PROSPÉRITÉ CITÉ JEAN GRÉMILLON";"93000";"BOBIGNY";"Immeuble"; 25.0;"Société HLM"
447660;2.57583;48.82306;"02° 34' 33.00'' Est, 48° 49' 23.00'' Nord";"93051";;"60 R LUCIEN SALLES";"93160";"NOISY-LE-GRAND";"Immeuble"; 16.6;"Société Privée SA"
449491;2.47194;48.94000;"02° 28' 19.00'' Est, 48° 56' 24.00'' Nord";"93007";;"130 AV PASTEUR";"93150";"LE BLANC-MESNIL";"Immeuble"; 35.3;"Société HLM"
452057;2.37028;48.93667;"02° 22' 13.00'' Est, 48° 56' 12.00'' Nord";"93066";;"79-83 R DE STRASBOURG";"93200";"SAINT-DENIS";"Immeuble"; 45.8;"Copropriété, Syndic, SCI"
455053;2.51167;48.97972;"02° 30' 42.00'' Est, 48° 58' 47.00'' Nord";"93073";"LA SENTE ST MAUR";"SENTE D'AMOUR PROCHE INTERSEC A1 ET A 104";"93290";"TREMBLAY-EN-FRANCE";"Pylône tubulaire"; 35.0;"FPS TOWERS"
455471;2.41472;48.86750;"02° 24' 53.00'' Est, 48° 52' 03.00'' Nord";"93006";;"40, AV JEAN JAURES TOUR MERCURIALES OUEST TOUR PONANT";"93170";"BAGNOLET";"Immeuble"; 155.0;"Copropriété, Syndic, SCI"
456246;2.38750;48.90167;"02° 23' 15.00'' Est, 48° 54' 06.00'' Nord";"93001";"PORTE DE LA VILLETTE";"6, R EMILE RAYNAUD TOUR LA VILLETTE";"93300";"AUBERVILLIERS";"Immeuble"; 146.0;"Société Privée SA"
457656;2.57083;49.00389;"02° 34' 15.00'' Est, 49° 00' 14.00'' Nord";"93073";;"HOTEL SHERATON TERMINAUX C, D, G2";"93290";"TREMBLAY-EN-FRANCE";"Bâtiment"; 29.4;"Société Privée SA"
459320;2.44694;48.91500;"02° 26' 49.00'' Est, 48° 54' 54.00'' Nord";"93029";;"11 R HENRI LANGLOIS";"93700";"DRANCY";"Bâtiment"; 24.0;"Copropriété, Syndic, SCI"
460498;2.53444;48.87333;"02° 32' 04.00'' Est, 48° 52' 24.00'' Nord";"93050";;"2 R DES ROITELETS";"93330";"NEUILLY-SUR-MARNE";"Bâtiment"; 40.0;"Société HLM"
461763;2.45611;48.86972;"02° 27' 22.00'' Est, 48° 52' 11.00'' Nord";"93048";;"9 AV PRÉSIDENT SALVADOR ALLENDÉ";"93100";"MONTREUIL";"Immeuble"; 38.0;"Société HLM"
463995;2.41611;48.86250;"02° 24' 58.00'' Est, 48° 51' 45.00'' Nord";"93006";;"88 AV DU GÉNÉRAL DE GAULLE";"93170";"BAGNOLET";"Immeuble"; 29.0;"Copropriété, Syndic, SCI"
464246;2.37083;48.94556;"02° 22' 15.00'' Est, 48° 56' 44.00'' Nord";"93066";;"12 R DAVID SIQUEIROS";"93200";"SAINT-DENIS";"Immeuble"; 35.5;"Société HLM"
465967;2.36139;48.92944;"02° 21' 41.00'' Est, 48° 55' 46.00'' Nord";"93066";;"A.1 - CARREFOUR PORTE DE PARIS RTE DE LA COURNEUVE PORTIQUE EXISTANT PROCHE HÔPITAL CASANOVA";"93200";"SAINT-DENIS";"Ouvrage de signalisation (portique routier, panneau routier, panneau publicitaire)"; 10.2;"DDE"
466541;2.46333;48.93722;"02° 27' 48.00'' Est, 48° 56' 14.00'' Nord";"93007";;"46/48 AV DE LA RÉPUBLIQUE";"93150";"LE BLANC-MESNIL";"Bâtiment"; 25.0;"Société Privée SA"
466899;2.45472;48.94667;"02° 27' 17.00'' Est, 48° 56' 48.00'' Nord";"93007";;"20 R HENRI MATISSE";"93150";"LE BLANC-MESNIL";"Immeuble"; 43.0;"Société HLM"
467080;2.48667;48.91056;"02° 29' 12.00'' Est, 48° 54' 38.00'' Nord";"93010";;"20 R MARX DORMOY";"93140";"BONDY";"Immeuble"; 38.0;"Société HLM"
478538;2.53694;48.85444;"02° 32' 13.00'' Est, 48° 51' 16.00'' Nord";"93050";"ECLUSE DE NEUILLY";"CHEM DE L'ÉCLUSE";"93330";"NEUILLY-SUR-MARNE";"Bâtiment"; 6.0;"Voies navigables de France"
479049;2.34444;48.95000;"02° 20' 40.00'' Est, 48° 57' 00.00'' Nord";"93079";;"AV DE LA DIVISION LECLERC AUCHAN";"93430";"VILLETANEUSE";"Bâtiment"; 13.0;"Société Privée SA"
479626;2.55583;48.90694;"02° 33' 21.00'' Est, 48° 54' 25.00'' Nord";"93014";;"BD  EMILE ZOLA CITE DE LA FORESTIERE";"93390";"CLICHY-SOUS-BOIS";"Bâtiment"; 62.0;"Particulier"
480681;2.32889;48.95611;"02° 19' 44.00'' Est, 48° 57' 22.00'' Nord";"93031";"L'ETANG COQUENARD";"31, R DE L'AVENIR";"93800";"EPINAY-SUR-SEINE";"Immeuble"; 61.9;"Société HLM"
481874;2.33917;48.91250;"02° 20' 21.00'' Est, 48° 54' 45.00'' Nord";"93070";;"1, 7 ALL LA MOTTE";"93400";"SAINT-OUEN";"Immeuble"; 37.6;"Société HLM"
482487;2.37444;48.93278;"02° 22' 28.00'' Est, 48° 55' 58.00'' Nord";"93066";;"A.1/FORT DE L'EST/N.186/PR 4,3 CROISEMENT A.1/RTE DE LA COURNEUVE DIRECTION PROVINCE/PARIS";"93200";"SAINT-DENIS";"Tunnel"; 9.0;"DDE"
483027;2.34028;48.92528;"02° 20' 25.00'' Est, 48° 55' 31.00'' Nord";"93066";;"A 86- ST DENIS ENTRE N14 ET ILE ST DENIS - PR 0,5 VERS OUEST PORTIQUE PROCHE DE LA RN154";"93200";"SAINT-DENIS";"Ouvrage de signalisation (portique routier, panneau routier, panneau publicitaire)"; 6.2;"DDE"
486140;2.43722;48.91250;"02° 26' 14.00'' Est, 48° 54' 45.00'' Nord";"93008";;"AV PAUL VAILLANT COUTURIER  A86 NORMANDIE INTÉRIEUR TUNNEL";"93000";"BOBIGNY";"Tunnel"; 7.5;"DDE"
487477;2.56444;49.00417;"02° 33' 52.00'' Est, 49° 00' 15.00'' Nord";"93073";;"AEROGARE 2BD NIVEAU TERRASSE AER PARIS CDG LOCAL 5H261";"93290";"TREMBLAY-EN-FRANCE";"Bâtiment"; 22.0;"Aviation Civile"
494813;2.54806;48.83556;"02° 32' 53.00'' Est, 48° 50' 08.00'' Nord";"93051";"REMISE DE VILLIERS";"R GRAHAM BELL ROUTE DE VILLIERS";"93160";"NOISY-LE-GRAND";"Bâtiment"; 26.5;"ORANGE Services Fixes"
496042;2.34278;48.92056;"02° 20' 34.00'' Est, 48° 55' 14.00'' Nord";"93066";;"1 PL PLEYEL CAP AMPERE";"93200";"SAINT-DENIS";"Bâtiment"; 40.0;"EDF ou GDF"
497218;2.48528;48.95306;"02° 29' 07.00'' Est, 48° 57' 11.00'' Nord";"93005";;"65, R MICHEL ANGE";"93600";"AULNAY-SOUS-BOIS";"Immeuble"; 23.0;"Société Privée SA"
499596;2.46000;48.92639;"02° 27' 36.00'' Est, 48° 55' 35.00'' Nord";"93029";;"110/112AV CASTELNAU CITE DES COQUELICOTS";"93700";"DRANCY";"Immeuble"; 35.0;"Société HLM"
500414;2.54417;48.90778;"02° 32' 39.00'' Est, 48° 54' 28.00'' Nord";"93014";;"4 ALLÉE VICTOR HUGO ALLÉE FRÉDÉRIC LADRETTE TOUR VICTOR HUGO";"93390";"CLICHY-SOUS-BOIS";"Bâtiment"; 54.0;"Société Privée SA"
501532;2.53250;48.88528;"02° 31' 57.00'' Est, 48° 53' 07.00'' Nord";"93032";;"2 R CONTANT";"93220";"GAGNY";"Immeuble"; 41.6;"Société HLM"
505106;2.35583;48.91472;"02° 21' 21.00'' Est, 48° 54' 53.00'' Nord";"93066";;"91, R DU LANDY";"93200";"SAINT-DENIS";"Immeuble"; 33.0;"Société HLM"
507608;2.54667;48.84167;"02° 32' 48.00'' Est, 48° 50' 30.00'' Nord";"93051";;"102 ESPLANADE DE VILLE DE PARIS SITE 3006";"93160";"NOISY-LE-GRAND";"Immeuble"; 46.0;"RATP"
507638;2.51611;48.85222;"02° 30' 58.00'' Est, 48° 51' 08.00'' Nord";"93049";;"10 R VINCENT VAN GOGH SITE 3014";"93360";"NEUILLY-PLAISANCE";"Immeuble"; 22.0;"RATP"
509721;2.45778;48.86167;"02° 27' 28.00'' Est, 48° 51' 42.00'' Nord";"93048";;"31 R LENAIN DE TILLEMONT RÉSIDENCE PAUL DOUMER";"93100";"MONTREUIL";"Immeuble"; 75.0;"Société HLM"
510311;2.49556;48.94333;"02° 29' 44.00'' Est, 48° 56' 36.00'' Nord";"93005";;"72 R CAMILLE PELLETAN";"93600";"AULNAY-SOUS-BOIS";"Immeuble"; 40.0;"Société HLM"
521824;2.42250;48.88556;"02° 25' 21.00'' Est, 48° 53' 08.00'' Nord";"93045";"FORT DE ROMAINVILLE";"AV DE LA RÉSISTANCE";"93260";"LES LILAS";"Tour hertzienne"; 144.0;"TDF"
522968;2.49167;48.90333;"02° 29' 30.00'' Est, 48° 54' 12.00'' Nord";"93010";;"21 PL NICOLE NEUBERGER";"93140";"BONDY";"Immeuble"; 19.0;"Société HLM"
523642;2.42556;48.92500;"02° 25' 32.00'' Est, 48° 55' 30.00'' Nord";"93029";"L'AVENIR PARISIEN";"A 86-TUN DE DRANCY";"93700";"DRANCY";"Tunnel"; 9.9;"Sociétés d'Autoroutes"
524511;2.41583;48.91611;"02° 24' 57.00'' Est, 48° 54' 58.00'' Nord";"93008";;"R TOUSSAINT LOUVERTURE ZAC DE LA VACHE À L'AISE";"93000";"BOBIGNY";"Pylône autostable"; 53.4;"BOUYGUES"
525305;2.35056;48.94028;"02° 21' 02.00'' Est, 48° 56' 25.00'' Nord";"93066";;"13 R GASTON PHILIPPE";"93200";"SAINT-DENIS";"Immeuble"; 17.0;"Particulier"
528893;2.54556;48.89806;"02° 32' 44.00'' Est, 48° 53' 53.00'' Nord";"93032";;"RTE DU 19 MARS 1962 BAT A 3 DOMAINE DES 7 ILES";"93220";"GAGNY";"Immeuble"; 20.0;"Société HLM"
530493;2.56194;48.84028;"02° 33' 43.00'' Est, 48° 50' 25.00'' Nord";"93051";;"10 R JEAN MERMOZ RES LE MARNOIS";"93160";"NOISY-LE-GRAND";"Immeuble"; 26.6;"Société HLM"
530614;2.38472;48.94583;"02° 23' 05.00'' Est, 48° 56' 45.00'' Nord";"93072";;"12 R SALVADOR ALLENDÉ";"93240";"STAINS";"Immeuble"; 54.0;"Société HLM"
530628;2.38639;48.90222;"02° 23' 11.00'' Est, 48° 54' 08.00'' Nord";"93001";;"23 R DE L'UNION";"93300";"AUBERVILLIERS";"Immeuble"; 66.2;"Société HLM"
530810;2.47639;48.91111;"02° 28' 35.00'' Est, 48° 54' 40.00'' Nord";"93010";;"5 AV JEAN MOULIN";"93140";"BONDY";"Immeuble"; 31.5;"Société HLM"
532718;2.55667;48.84917;"02° 33' 24.00'' Est, 48° 50' 57.00'' Nord";"93051";;"13 AV EMILE COSSONEAU";"93160";"NOISY-LE-GRAND";"Immeuble"; 38.0;"Copropriété, Syndic, SCI"
533981;2.51750;48.94694;"02° 31' 03.00'' Est, 48° 56' 49.00'' Nord";"93071";;"1, 3 ALL DE BOUGAINVILLE";"93270";"SEVRAN";"Immeuble"; 34.0;"Société HLM"
535147;2.32722;48.90611;"02° 19' 38.00'' Est, 48° 54' 22.00'' Nord";"93070";;"18/20 AV DU CAPITAINE GLARNER";"93400";"SAINT-OUEN";"Immeuble"; 28.0;"Société HLM"
536910;2.44722;48.90583;"02° 26' 50.00'' Est, 48° 54' 21.00'' Nord";"93008";;"2 BD  MAURICE THOREZ - CC BOBIGNY";"93000";"BOBIGNY";"Bâtiment"; 5.0;"Société Privée SA"
539215;2.41528;48.86972;"02° 24' 55.00'' Est, 48° 52' 11.00'' Nord";"93006";;"21 R HOCHE";"93170";"BAGNOLET";"Immeuble"; 24.0;"Société HLM"
540232;2.38583;48.90917;"02° 23' 09.00'' Est, 48° 54' 33.00'' Nord";"93001";;"62/68 AV DE LA RÉPUBLIQUE";"93300";"AUBERVILLIERS";"Bâtiment"; 50.0;"Société HLM"
543374;2.45222;48.86000;"02° 27' 08.00'' Est, 48° 51' 36.00'' Nord";"93048";;"28 R JEAN MOULIN";"93100";"MONTREUIL";"Immeuble"; 50.0;"Société HLM"
544096;2.45361;48.90750;"02° 27' 13.00'' Est, 48° 54' 27.00'' Nord";"93008";;"AV PAUL VAILLANT COUTURIER / A86 PREF";"93000";"BOBIGNY";"Tunnel"; 6.5;"Sociétés d'Autoroutes"
544111;2.50222;48.97444;"02° 30' 08.00'' Est, 48° 58' 28.00'' Nord";"93078";;"R DES EPIS CCAL DE PARIS NORD 2";"93420";"VILLEPINTE";"Pylône tubulaire"; 25.0;"BOUYGUES"
544115;2.50194;48.89361;"02° 30' 07.00'' Est, 48° 53' 37.00'' Nord";"93077";;"51 BD AULNAY";"93250";"VILLEMOMBLE";"Immeuble"; 22.0;"Société HLM"
544652;2.48611;48.93139;"02° 29' 10.00'' Est, 48° 55' 53.00'' Nord";"93005";;"17 R DES PETITS PONTS IMM DE LA S.A H.L.M LA SABLIÈRE QUARTIER DE LA GARE (NONNEVILLE)";"93600";"AULNAY-SOUS-BOIS";"Immeuble"; 30.0;"Société HLM"
546223;2.54639;48.95639;"02° 32' 47.00'' Est, 48° 57' 23.00'' Nord";"93078";;"1 R EUGENIE COTTON";"93420";"VILLEPINTE";"Immeuble"; 29.0;"Société HLM"
546429;2.55111;48.92167;"02° 33' 04.00'' Est, 48° 55' 18.00'' Nord";"93046";"LA MARE BAROIS";"46 R DE VAUJOURS SILO DE LA CARRIÈRE";"93190";"LIVRY-GARGAN";"Silo"; 35.0;"Société Privée SA"
547237;2.52083;48.92528;"02° 31' 15.00'' Est, 48° 55' 31.00'' Nord";"93071";;"4 BD WESTINGHOUSE";"93270";"SEVRAN";"Bâtiment"; 19.0;"Société Privée SA"
547994;2.35778;48.96472;"02° 21' 28.00'' Est, 48° 57' 53.00'' Nord";"93059";;"20 CHEM SENTIER DU CLOS";"93380";"PIERREFITTE-SUR-SEINE";"Immeuble"; 33.0;"Commune, communauté de commune"
548826;2.35861;48.90944;"02° 21' 31.00'' Est, 48° 54' 34.00'' Nord";"93066";;"TUNNEL DU LANDY 145 AV PRÉSIDENT WILSON A1 AU NIVEAU DE LA ZI LANDY";"93200";"SAINT-DENIS";"Tunnel"; 11.0;"Sociétés d'Autoroutes"
549178;2.43250;48.88028;"02° 25' 57.00'' Est, 48° 52' 49.00'' Nord";"93063";;"144 R DE LA REPUBLIQUE CITÉ MARCEL CACHIN";"93230";"ROMAINVILLE";"Immeuble"; 31.5;"Société HLM"
549249;2.50000;48.90861;"02° 30' 00.00'' Est, 48° 54' 31.00'' Nord";"93057";;"98 R ARISTIDE BRIAND";"93320";"LES PAVILLONS-SOUS-BOIS";"Immeuble"; 30.7;"Société Privée SA"
550689;2.42778;48.92861;"02° 25' 40.00'' Est, 48° 55' 43.00'' Nord";"93029";;"9 R PIERRE SEMARD CITÉ DU NORD - TOUR L";"93700";"DRANCY";"Immeuble"; 35.3;"Société HLM"
550697;2.41528;48.92806;"02° 24' 55.00'' Est, 48° 55' 41.00'' Nord";"93027";;"157 AV PAUL VAILLANT COUTURIER IMP BLOCH PRAEGER";"93120";"LA COURNEUVE";"Pylône autostable"; 35.0;"SFR"
551650;2.48194;48.94417;"02° 28' 55.00'' Est, 48° 56' 39.00'' Nord";"93005";;"2 R DE CORSE";"93600";"AULNAY-SOUS-BOIS";"Immeuble"; 19.0;"Société HLM"
551805;2.56528;48.95333;"02° 33' 55.00'' Est, 48° 57' 12.00'' Nord";"93073";;"2 AV DE LA PAIX";"93290";"TREMBLAY-EN-FRANCE";"Immeuble"; 50.0;"Société HLM"
553304;2.47139;48.88639;"02° 28' 17.00'' Est, 48° 53' 11.00'' Nord";"93064";;"268, 270 R BRÉMANT";"93110";"ROSNY-SOUS-BOIS";"Immeuble"; 20.0;"Copropriété, Syndic, SCI"
553704;2.51833;48.94278;"02° 31' 06.00'' Est, 48° 56' 34.00'' Nord";"93071";;"1 R BERTHELOT";"93270";"SEVRAN";"Immeuble"; 36.1;"Société HLM"
553784;2.42194;48.93194;"02° 25' 19.00'' Est, 48° 55' 55.00'' Nord";"93013";;"27 AV DE LA DIVISION LECLERC";"93350";"LE BOURGET";"Immeuble"; 37.3;"Société HLM"
554552;2.54444;48.89778;"02° 32' 40.00'' Est, 48° 53' 52.00'' Nord";"93032";;"8 DOMAINE DES SEPT ILES RTE DU 19 MARS 1962";"93220";"GAGNY";"Immeuble"; 19.0;"Société HLM"
554607;2.48889;48.89028;"02° 29' 20.00'' Est, 48° 53' 25.00'' Nord";"93010";;"146,154 RTE DE VILLEMOMBLE";"93140";"BONDY";"Immeuble"; 36.0;"Société HLM"
554611;2.53278;48.89750;"02° 31' 58.00'' Est, 48° 53' 51.00'' Nord";"93014";;"137 ALL DE MONTFERMEIL";"93390";"CLICHY-SOUS-BOIS";"Château d'eau - réservoir"; 19.0;"Syndicat des eaux, Adduction"
555127;2.50972;48.92806;"02° 30' 35.00'' Est, 48° 55' 41.00'' Nord";"93005";;"PL ROGER VAILLANT 5/7 R JEAN LECORBUSIER";"93600";"AULNAY-SOUS-BOIS";"Immeuble"; 30.0;"Société HLM"
555685;2.41778;48.85472;"02° 25' 04.00'' Est, 48° 51' 17.00'' Nord";"93048";;"3 R  PARIS";"93100";"MONTREUIL";"Immeuble"; 27.3;"Société Privée SA"
556499;2.49389;48.87833;"02° 29' 38.00'' Est, 48° 52' 42.00'' Nord";"93064";;"AV DU PRESIDENT JOHN KENNEDY STADE ARMAND GIRODIT";"93110";"ROSNY-SOUS-BOIS";"Pylône autostable"; 32.0;"SNCF Réseau"
557685;2.33750;48.91639;"02° 20' 15.00'' Est, 48° 54' 59.00'' Nord";"93070";;"30/36, R SALVADOR ALLENDÉ";"93400";"SAINT-OUEN";"Immeuble"; 56.3;"Société HLM"
558152;2.48083;48.90139;"02° 28' 51.00'' Est, 48° 54' 05.00'' Nord";"93010";;"25/27/29 COURS DE LA RÉPUBLIQUE C.P.E.";"93140";"BONDY";"Bâtiment"; 31.0;"ORANGE Services Fixes"
559379;2.56333;49.00917;"02° 33' 48.00'' Est, 49° 00' 33.00'' Nord";"93073";;"41 R DE PARIS BAT 6050";"93290";"TREMBLAY-EN-FRANCE";"Bâtiment"; 43.0;"CCI,Ch Metiers,Port Aut,Aérop"
559431;2.37194;48.92583;"02° 22' 19.00'' Est, 48° 55' 33.00'' Nord";"93066";;"15 ALL DU LANGUEDOC";"93200";"SAINT-DENIS";"Immeuble"; 28.0;"Société HLM"
561920;2.37278;48.93778;"02° 22' 22.00'' Est, 48° 56' 16.00'' Nord";"93066";;"3 AV ROMAIN ROLLAND";"93200";"SAINT-DENIS";"Immeuble"; 37.0;"Société HLM"
562421;2.56083;49.01028;"02° 33' 39.00'' Est, 49° 00' 37.00'' Nord";"93073";"AEROPORTE CHARLES DE GAULLE";"ROISSYPOLE 2-10 R DU VERSEAU-HOTEL IBIS";"93290";"TREMBLAY-EN-FRANCE";"Bâtiment"; 39.0;"Société Privée SA"
565120;2.36444;48.97056;"02° 21' 52.00'' Est, 48° 58' 14.00'' Nord";"93059";;"52 - 64 AV DU GL GALLIENI BAT A";"93380";"PIERREFITTE-SUR-SEINE";"Immeuble"; 45.0;"Société Privée SA"
565179;2.44528;48.94833;"02° 26' 43.00'' Est, 48° 56' 54.00'' Nord";"93007";;"AV VLADIMIR ILITCH LÉNINE TUNNEL A1";"93150";"LE BLANC-MESNIL";"Tunnel"; 10.0;"DDE"
565942;2.47667;48.93167;"02° 28' 36.00'' Est, 48° 55' 54.00'' Nord";"93007";;"PL DU 19 MARS 1962 GARE";"93150";"LE BLANC-MESNIL";"Pylône tubulaire"; 20.0;"ORANGE"
566278;2.41861;48.85250;"02° 25' 07.00'' Est, 48° 51' 09.00'' Nord";"93048";;"59, R DE LA RÉPUBLIQUE";"93100";"MONTREUIL";"Immeuble"; 48.0;"Société Privée SA"
566711;2.53000;48.84444;"02° 31' 48.00'' Est, 48° 50' 40.00'' Nord";"93051";;"34 R CARNOT";"93160";"NOISY-LE-GRAND";"Bâtiment"; 16.0;"Société Privée SA"
567628;2.46278;48.89750;"02° 27' 46.00'' Est, 48° 53' 51.00'' Nord";"93053";;"18 AV GALLIÉNI";"93130";"NOISY-LE-SEC";"Immeuble"; 38.0;"Société HLM"
567643;2.43639;48.89139;"02° 26' 11.00'' Est, 48° 53' 29.00'' Nord";"93063";;"R DES CHANTALOUPS CITÉ PARAT";"93230";"ROMAINVILLE";"Immeuble"; 48.4;"Société HLM"
568148;2.47500;48.87889;"02° 28' 30.00'' Est, 48° 52' 44.00'' Nord";"93064";;"5 R DE LISBONNE";"93110";"ROSNY-SOUS-BOIS";"Bâtiment"; 22.0;"Société Privée SA"
569104;2.36083;48.93722;"02° 21' 39.00'' Est, 48° 56' 14.00'' Nord";"93066";;"CCAL LA BASILIQUE 4, PL CAQUET";"93200";"SAINT-DENIS";"Bâtiment"; 18.0;"Société Privée SA"
571476;2.47500;48.90417;"02° 28' 30.00'' Est, 48° 54' 15.00'' Nord";"93010";;"15/23 R JULES GUESDE";"93140";"BONDY";"Immeuble"; 36.0;"Société HLM"
571731;2.57806;48.95139;"02° 34' 41.00'' Est, 48° 57' 05.00'' Nord";"93073";;"1 R URBAIN LE VERRIER";"93290";"TREMBLAY-EN-FRANCE";"Immeuble"; 34.0;"Copropriété, Syndic, SCI"
571987;2.50194;48.91833;"02° 30' 07.00'' Est, 48° 55' 06.00'' Nord";"93057";;"18,20 ,22 ALL STE ANNE";"93320";"LES PAVILLONS-SOUS-BOIS";"Immeuble"; 21.0;"Société HLM"
574992;2.49944;48.87806;"02° 29' 58.00'' Est, 48° 52' 41.00'' Nord";"93077";;"CHEM DE LA PELOUSE FOYER SONACOTRA";"93250";"VILLEMOMBLE";"Immeuble"; 19.0;"Société HLM"
575447;2.45083;48.90722;"02° 27' 03.00'' Est, 48° 54' 26.00'' Nord";"93008";;"11 R CARNOT";"93000";"BOBIGNY";"Immeuble"; 35.4;"Société HLM"
575451;2.42750;48.90528;"02° 25' 39.00'' Est, 48° 54' 19.00'' Nord";"93008";;"R HENRI GAUTIER CTRE DE TRI POSTAL";"93000";"BOBIGNY";"Immeuble"; 25.0;"La Poste"
575453;2.44139;48.90111;"02° 26' 29.00'' Est, 48° 54' 04.00'' Nord";"93008";;"44 R JEAN JAURÈS";"93000";"BOBIGNY";"Immeuble"; 21.0;"Copropriété, Syndic, SCI"
575455;2.44889;48.90889;"02° 26' 56.00'' Est, 48° 54' 32.00'' Nord";"93008";;"R PABLO PICASSO COUVERTURE A86 PK 9.9 AV P V COUTURIER";"93000";"BOBIGNY";"Tunnel"; 7.0;"DDE"
576143;2.43444;48.91361;"02° 26' 04.00'' Est, 48° 54' 49.00'' Nord";"93008";;"DIRECTION PL NORMANDIE NIÉMEN COUVERTURE A 86 PK 8.4 AV P V COUTURIER";"93000";"BOBIGNY";"Tunnel"; 7.0;"DDE"
576149;2.45167;48.90917;"02° 27' 06.00'' Est, 48° 54' 33.00'' Nord";"93008";;"13/19 R RENÉ CAMIER";"93000";"BOBIGNY";"Immeuble"; 50.5;"Société HLM"
576153;2.43278;48.90833;"02° 25' 58.00'' Est, 48° 54' 30.00'' Nord";"93008";;"2 R DE LA GARE CITÉ AMITIÉ - BÂT 2";"93000";"BOBIGNY";"Immeuble"; 20.0;"Société HLM"
576156;2.44056;48.90667;"02° 26' 26.00'' Est, 48° 54' 24.00'' Nord";"93008";;"2 R DU LIEUTENANT LEBRUN";"93000";"BOBIGNY";"Immeuble"; 40.0;"Copropriété, Syndic, SCI"
576158;2.42639;48.91528;"02° 25' 35.00'' Est, 48° 54' 55.00'' Nord";"93008";;"R ROMAIN ROLAND RÉSIDENCE JEAN GRÉMILLON - BÂT 3";"93000";"BOBIGNY";"Immeuble"; 23.0;"Société HLM"
576169;2.42361;48.90667;"02° 25' 25.00'' Est, 48° 54' 24.00'' Nord";"93008";;"5 R HENRI BARBUSSE";"93000";"BOBIGNY";"Immeuble"; 24.0;"Copropriété, Syndic, SCI"
581941;2.43472;48.94556;"02° 26' 05.00'' Est, 48° 56' 44.00'' Nord";"93030";;"AÉROPORT DU BOURGET ADP BÂT 66";"93440";"DUGNY";"Bâtiment"; 32.0;"CCI,Ch Metiers,Port Aut,Aérop"
583208;2.47111;48.94056;"02° 28' 16.00'' Est, 48° 56' 26.00'' Nord";"93007";;"138, AV PASTEUR";"93150";"LE BLANC-MESNIL";"Immeuble"; 35.0;"Société HLM"
583219;2.48056;48.86611;"02° 28' 50.00'' Est, 48° 51' 58.00'' Nord";"93048";;"40 AL ROMAIN ROLLAND";"93100";"MONTREUIL";"Immeuble"; 37.0;"Société HLM"
583231;2.46194;48.87417;"02° 27' 43.00'' Est, 48° 52' 27.00'' Nord";"93048";;"118 AV DU PRÉSIDENT SALVADOR ALLENDE";"93100";"MONTREUIL";"Immeuble"; 36.0;"Société HLM"
583243;2.33528;48.90528;"02° 20' 07.00'' Est, 48° 54' 19.00'' Nord";"93070";;"12 R GAMBETTA";"93400";"SAINT-OUEN";"Immeuble"; 24.0;"Commune, communauté de commune"
585154;2.53500;48.90833;"02° 32' 06.00'' Est, 48° 54' 30.00'' Nord";"93014";;"74/78 R DU CHEM DES POSTES";"93390";"CLICHY-SOUS-BOIS";"Immeuble"; 19.0;"Copropriété, Syndic, SCI"
587339;2.51944;48.97111;"02° 31' 10.00'' Est, 48° 58' 16.00'' Nord";"93078";"PARC DES EXPOSITIONS";"PARC DES EXPOSITIONS PARIS NORD VILLEPINTE";"93420";"VILLEPINTE";"Bâtiment"; 25.0;"Société Privée SA"
587796;2.44806;48.95389;"02° 26' 53.00'' Est, 48° 57' 14.00'' Nord";"93007";"LE PONT YBLON";"R DES FRÈRES LUMIÈRE";"93150";"LE BLANC-MESNIL";"Pylône autostable"; 55.0;"ORANGE"
590908;2.52111;48.91250;"02° 31' 16.00'' Est, 48° 54' 45.00'' Nord";"93046";;"3 À 5 AV DE SULLY AV ARISTIDE BRIAND";"93190";"LIVRY-GARGAN";"Immeuble"; 28.0;"Société Privée SA"
592398;2.47472;48.95556;"02° 28' 29.00'' Est, 48° 57' 20.00'' Nord";"93005";"PARINOR";"ZONE PARINOR-SECTEUR N°2-CCL INTERSECTION A3 ET BVD ANDRE CITROEN";"93600";"AULNAY-SOUS-BOIS";"Bâtiment"; 17.8;"Copropriété, Syndic, SCI"
595534;2.49222;48.88667;"02° 29' 32.00'' Est, 48° 53' 12.00'' Nord";"93077";"PARC GLANDAZ";"2 R GIFFARD IMM DU QUARTIER MARNAUD";"93250";"VILLEMOMBLE";"Immeuble"; 53.6;"Société HLM"
595924;2.53833;48.95583;"02° 32' 18.00'' Est, 48° 57' 21.00'' Nord";"93078";;"173, BD  ROBERT BALLANGER";"93420";"VILLEPINTE";"Château d'eau - réservoir"; 69.0;"Commune, communauté de commune"
596932;2.46611;48.95694;"02° 27' 58.00'' Est, 48° 57' 25.00'' Nord";"93005";"GARONOR";"BAT G  A1";"93600";"AULNAY-SOUS-BOIS";"Immeuble"; 36.1;"Société Privée SA"
599882;2.39250;48.91833;"02° 23' 33.00'' Est, 48° 55' 06.00'' Nord";"93001";;"50, R DANIELLE CASANOVA";"93300";"AUBERVILLIERS";"Immeuble"; 55.5;"Société HLM"
600325;2.42056;48.87917;"02° 25' 14.00'' Est, 48° 52' 45.00'' Nord";"93045";;"94-96-102 R ROMAIN ROLLAND";"93260";"LES LILAS";"Immeuble"; 29.0;"Société HLM"
602318;2.45472;48.94861;"02° 27' 17.00'' Est, 48° 56' 55.00'' Nord";"93007";;"2 R PAUL CEZANNE";"93150";"LE BLANC-MESNIL";"Immeuble"; 45.7;"Copropriété, Syndic, SCI"
603932;2.50000;48.94167;"02° 30' 00.00'' Est, 48° 56' 30.00'' Nord";"93005";;"3 R ANDRÉ ROMAND";"93600";"AULNAY-SOUS-BOIS";"Immeuble"; 20.2;"Société HLM"
604321;2.54250;48.85194;"02° 32' 33.00'' Est, 48° 51' 07.00'' Nord";"93051";;"58 R DE LA BAIGNADE";"93160";"NOISY-LE-GRAND";"Bâtiment"; 15.3;"Particulier"
604331;2.55028;48.91139;"02° 33' 01.00'' Est, 48° 54' 41.00'' Nord";"93014";;"2 ALLÉE DE COUBRON";"93390";"CLICHY-SOUS-BOIS";"Immeuble"; 22.0;"Copropriété, Syndic, SCI"
604343;2.37417;48.94083;"02° 22' 27.00'' Est, 48° 56' 27.00'' Nord";"93066";;"20 R DE LA SAUSSAIE";"93200";"SAINT-DENIS";"Immeuble"; 14.3;"Particulier"
604361;2.42694;48.88361;"02° 25' 37.00'' Est, 48° 53' 01.00'' Nord";"93063";;"R PAUL DOUMER CITE YOURI GAGARINE - BAT B ET C";"93230";"ROMAINVILLE";"Immeuble"; 36.0;"Société HLM"
608851;2.43194;48.90417;"02° 25' 55.00'' Est, 48° 54' 15.00'' Nord";"93008";;"35 R BENOIT FRACHON";"93000";"BOBIGNY";"Bâtiment"; 10.0;"Société Privée SA"
609593;2.59167;48.93778;"02° 35' 30.00'' Est, 48° 56' 16.00'' Nord";"93074";;"183 R  DE BEARN";"93410";"VAUJOURS";"Pylône autostable"; 13.0;"FPS TOWERS"
611977;2.35889;48.90611;"02° 21' 32.00'' Est, 48° 54' 22.00'' Nord";"93066";;"84 AV DU PRÉSIDENT WILSON SOCIÉTÉ ESPACE";"93200";"SAINT-DENIS";"Immeuble"; 24.0;"Copropriété, Syndic, SCI"
612019;2.45861;48.85944;"02° 27' 31.00'' Est, 48° 51' 34.00'' Nord";"93048";;"3 - 9 R HENRI SCHMITT IMM OPHLM DE MONTREUIL SOUS BOIS";"93100";"MONTREUIL";"Immeuble"; 36.0;"Société HLM"
612026;2.39750;48.90806;"02° 23' 51.00'' Est, 48° 54' 29.00'' Nord";"93055";;"140/142 AV JEAN JAURES";"93500";"PANTIN";"Immeuble"; 53.0;"Société HLM"
612047;2.41667;48.89361;"02° 24' 60.00'' Est, 48° 53' 37.00'' Nord";"93055";;"146, R JEAN LOLIVE";"93500";"PANTIN";"Immeuble"; 30.0;"Société Privée SA"
612755;2.33306;48.91167;"02° 19' 59.00'' Est, 48° 54' 42.00'' Nord";"93070";;"10, PL DE LA RÉPUBLIQUE";"93400";"SAINT-OUEN";"Bâtiment"; 32.0;"Société HLM"
613441;2.50417;48.95278;"02° 30' 15.00'' Est, 48° 57' 10.00'' Nord";"93005";;"R 137 R MAXIMILIEN ROBESPIERRE";"93600";"AULNAY-SOUS-BOIS";"Pylône autostable"; 31.3;"BOUYGUES"
613986;2.31528;48.95917;"02° 18' 55.00'' Est, 48° 57' 33.00'' Nord";"93031";;"20 AV LÉON BLUM LES GRADINS";"93800";"EPINAY-SUR-SEINE";"Immeuble"; 37.3;"Copropriété, Syndic, SCI"
613992;2.29556;48.95889;"02° 17' 44.00'' Est, 48° 57' 32.00'' Nord";"93031";;"2/4 R DE RENNES";"93800";"EPINAY-SUR-SEINE";"Immeuble"; 45.0;"Société HLM"
614121;2.44806;48.86000;"02° 26' 53.00'' Est, 48° 51' 36.00'' Nord";"93048";;"12 , R EUGÈNE VARLIN";"93100";"MONTREUIL";"Immeuble"; 32.0;"Société HLM"
614141;2.50056;48.86972;"02° 30' 02.00'' Est, 48° 52' 11.00'' Nord";"93064";;"133 R DES CHARDONS";"93110";"ROSNY-SOUS-BOIS";"Immeuble"; 42.0;"Société HLM"
614396;2.46694;48.92389;"02° 28' 01.00'' Est, 48° 55' 26.00'' Nord";"93007";;"5 AV MARCEL CACHIN";"93150";"LE BLANC-MESNIL";"Immeuble"; 21.0;"Société HLM"
614538;2.36944;48.92417;"02° 22' 10.00'' Est, 48° 55' 27.00'' Nord";"93066";;"113/115, R DANIEL CASANOVA";"93200";"SAINT-DENIS";"Immeuble"; 28.0;"Société HLM"
614804;2.38306;48.91361;"02° 22' 59.00'' Est, 48° 54' 49.00'' Nord";"93001";;"R A. DOMART R DU DR PESQUÉ";"93300";"AUBERVILLIERS";"Bâtiment"; 34.0;"ORANGE Services Fixes"
615328;2.52861;48.95889;"02° 31' 43.00'' Est, 48° 57' 32.00'' Nord";"93078";;"88 BLD LAURENT ET DANIELLE CASANOVA CTRE TECHNIQUE MUNICIPAL";"93420";"VILLEPINTE";"pylône arbre"; 20.0;"Commune, communauté de commune"
617418;2.44833;48.92167;"02° 26' 54.00'' Est, 48° 55' 18.00'' Nord";"93029";;"32 AV JEAN JAURÈS";"93700";"DRANCY";"Immeuble"; 18.0;"Copropriété, Syndic, SCI"
617461;2.54333;48.98361;"02° 32' 36.00'' Est, 48° 59' 01.00'' Nord";"93073";;"LA FERME DU VIEUX PAYS";"93290";"TREMBLAY-EN-FRANCE";"Pylône tubulaire"; 30.0;"ORANGE"
617467;2.41111;48.91167;"02° 24' 40.00'' Est, 48° 54' 42.00'' Nord";"93055";;"40 AV DE LA DIVISION LECLERC";"93500";"PANTIN";"Immeuble"; 42.0;"Société HLM"
617483;2.43861;48.87278;"02° 26' 19.00'' Est, 48° 52' 22.00'' Nord";"93063";;"118 R DE LA LIBRE PENSÉE";"93230";"ROMAINVILLE";"Pylône tubulaire"; 20.0;"SFR"
617487;2.36861;48.92861;"02° 22' 07.00'' Est, 48° 55' 43.00'' Nord";"93066";;"41 COUR DU RÛ DE MONFORT";"93200";"SAINT-DENIS";"Immeuble"; 24.0;"Société HLM"
618763;2.51500;48.85833;"02° 30' 54.00'' Est, 48° 51' 30.00'' Nord";"93049";"LE PETIT MARAIS";"27 R MARGUERITE STADE MUNICIPALE";"93360";"NEUILLY-PLAISANCE";"Pylône autostable"; 30.0;"SFR"
620754;2.38917;48.94722;"02° 23' 21.00'' Est, 48° 56' 50.00'' Nord";"93072";;"90 R VICTOR RENELLE CITÉ L'ORÉE DU BOIS / BÂT. 7";"93240";"STAINS";"Immeuble"; 36.0;"Société HLM"
621954;2.58333;48.91111;"02° 35' 00.00'' Est, 48° 54' 40.00'' Nord";"93015";;"51 55 AV COROT RÉS. L'ETANG DU MOULIN";"93470";"COUBRON";"Immeuble"; 26.0;"Société HLM"
622115;2.45222;48.86861;"02° 27' 08.00'' Est, 48° 52' 07.00'' Nord";"93048";;"9, AV PAUL SIGNAC";"93100";"MONTREUIL";"Immeuble"; 26.5;"Société HLM"
623219;2.55250;48.87944;"02° 33' 09.00'' Est, 48° 52' 46.00'' Nord";"93032";;"1BIS IMP DES VERGERS";"93220";"GAGNY";"Immeuble"; 45.4;"Société HLM"
626397;2.41417;48.88194;"02° 24' 51.00'' Est, 48° 52' 55.00'' Nord";"93045";;"47-51 BVD EUGENES DECROS";"93260";"LES LILAS";"Immeuble"; 56.2;"Copropriété, Syndic, SCI"
629158;2.41528;48.91917;"02° 24' 55.00'' Est, 48° 55' 09.00'' Nord";"93029";;"280, AV DE STALINGRAD";"93700";"DRANCY";"Immeuble"; 28.0;"Société HLM"
630896;2.37472;48.90611;"02° 22' 29.00'' Est, 48° 54' 22.00'' Nord";"93001";;"87-95 R VICTOR HUGO N.301";"93300";"AUBERVILLIERS";"Immeuble"; 39.7;"Société Privée SA"
632218;2.34889;48.94417;"02° 20' 56.00'' Est, 48° 56' 39.00'' Nord";"93066";;"4 R JACQUES DUCLOS";"93200";"SAINT-DENIS";"Immeuble"; 54.2;"Société HLM"
632228;2.44139;48.88083;"02° 26' 29.00'' Est, 48° 52' 51.00'' Nord";"93063";;"51 BD HENRI BARBUSSE";"93230";"ROMAINVILLE";"Immeuble"; 20.0;"Société HLM"
632645;2.34889;48.93639;"02° 20' 56.00'' Est, 48° 56' 11.00'' Nord";"93066";;"14/18 R ERNEST RENAN";"93200";"SAINT-DENIS";"Immeuble"; 29.0;"Société HLM"
632651;2.44083;48.86556;"02° 26' 27.00'' Est, 48° 51' 56.00'' Nord";"93048";;"16 R DES CAILLOTS";"93100";"MONTREUIL";"Immeuble"; 40.0;"Société HLM"
637491;2.50056;48.95583;"02° 30' 02.00'' Est, 48° 57' 21.00'' Nord";"93005";;"5, R HENRI MATISSE";"93600";"AULNAY-SOUS-BOIS";"Immeuble"; 44.5;"Société HLM"
640672;2.32806;48.90194;"02° 19' 41.00'' Est, 48° 54' 07.00'' Nord";"93070";;"5, 7 R  LA FONTAINE";"93400";"SAINT-OUEN";"Immeuble"; 28.0;"Copropriété, Syndic, SCI"
644092;2.36028;48.92444;"02° 21' 37.00'' Est, 48° 55' 28.00'' Nord";"93066";;"AV DU PRÉSIDENT WILSON STADE DE FRANCE";"93200";"SAINT-DENIS";"Bâtiment"; 67.0;"Commune, communauté de commune"
646153;2.45611;48.93028;"02° 27' 22.00'' Est, 48° 55' 49.00'' Nord";"93029";;"2, R VICTOR HAUSSONVILLE";"93700";"DRANCY";"Immeuble"; 22.0;"Copropriété, Syndic, SCI"
646213;2.34056;48.95167;"02° 20' 26.00'' Est, 48° 57' 06.00'' Nord";"93079";;"9 R PAUL LANGEVIN";"93430";"VILLETANEUSE";"Bâtiment"; 42.3;"Société HLM"
649145;2.38667;48.93056;"02° 23' 12.00'' Est, 48° 55' 50.00'' Nord";"93027";;"2, AV ROGER SALENGRO IMM OPHLM LA COURNEUVE";"93120";"LA COURNEUVE";"Immeuble"; 31.0;"Société HLM"
651514;2.36000;48.94583;"02° 21' 36.00'' Est, 48° 56' 45.00'' Nord";"93066";;"2 R JULES VÉDRINES AV. DE LÉNINE - N.1";"93200";"SAINT-DENIS";"Bâtiment"; 42.0;"ORANGE Services Fixes"
651516;2.34361;48.93444;"02° 20' 37.00'' Est, 48° 56' 04.00'' Nord";"93066";;"23 R CHARLES MICHELS FOYER SNCF";"93200";"SAINT-DENIS";"Immeuble"; 32.0;"Société HLM"
651520;2.37167;48.93417;"02° 22' 18.00'' Est, 48° 56' 03.00'' Nord";"93066";;"7 R DU DR LAMAZE";"93200";"SAINT-DENIS";"Immeuble"; 37.0;"Société HLM"
651522;2.35444;48.94056;"02° 21' 16.00'' Est, 48° 56' 26.00'' Nord";"93066";;"12 ALLÉE VERTE";"93200";"SAINT-DENIS";"Immeuble"; 33.0;"La Poste"
651912;2.34833;48.94556;"02° 20' 54.00'' Est, 48° 56' 44.00'' Nord";"93066";;"31 AV COLONEL FABIEN";"93200";"SAINT-DENIS";"Immeuble"; 45.0;"Société HLM"
651914;2.35000;48.94583;"02° 21' 00.00'' Est, 48° 56' 45.00'' Nord";"93066";;"34 38 AV DU COLONEL FABIEN";"93200";"SAINT-DENIS";"Immeuble"; 35.2;"Société HLM"
651922;2.35750;48.90889;"02° 21' 27.00'' Est, 48° 54' 32.00'' Nord";"93066";;"139 AV DU PRÉSIDENT WILSON";"93200";"SAINT-DENIS";"Immeuble"; 27.0;"Copropriété, Syndic, SCI"
652002;2.43528;48.91750;"02° 26' 07.00'' Est, 48° 55' 03.00'' Nord";"93029";;"110 R ROGER SALENGRO CITÉ GASTON ROULAND TOUR E";"93700";"DRANCY";"Immeuble"; 56.0;"Société HLM"
652021;2.54139;48.83833;"02° 32' 29.00'' Est, 48° 50' 18.00'' Nord";"93051";;"10 ALLÉE BIENVENUE IMM HORIZON ET ATRIA";"93160";"NOISY-LE-GRAND";"Immeuble"; 38.4;"Société Privée SA"
652028;2.37056;48.92556;"02° 22' 14.00'' Est, 48° 55' 32.00'' Nord";"93066";;"19/35 R DE LORRAINE";"93200";"SAINT-DENIS";"Immeuble"; 33.0;"Société HLM"
652042;2.35028;48.93611;"02° 21' 01.00'' Est, 48° 56' 10.00'' Nord";"93066";;"32 38 BD  JULES GUESDES";"93200";"SAINT-DENIS";"Immeuble"; 35.0;"Copropriété, Syndic, SCI"
652044;2.35222;48.92639;"02° 21' 08.00'' Est, 48° 55' 35.00'' Nord";"93066";;"41 BD ANATOLE FRANCE";"93200";"SAINT-DENIS";"Immeuble"; 23.0;"Copropriété, Syndic, SCI"
652048;2.37417;48.94111;"02° 22' 27.00'' Est, 48° 56' 28.00'' Nord";"93066";;"18 R DE LA SAUSSAIS";"93200";"SAINT-DENIS";"Immeuble"; 16.0;"Copropriété, Syndic, SCI"
652050;2.35806;48.91556;"02° 21' 29.00'' Est, 48° 54' 56.00'' Nord";"93066";;"TUNNEL  A1/PONT DE SOISSONS R DU LANDY";"93200";"SAINT-DENIS";"Tunnel"; 11.0;"DDE"
652223;2.35583;48.95167;"02° 21' 21.00'' Est, 48° 57' 06.00'' Nord";"93066";;"27 R GASTON MONMOUSSEAU";"93200";"SAINT-DENIS";"Immeuble"; 33.7;"Commune, communauté de commune"
652228;2.38444;48.94056;"02° 23' 04.00'' Est, 48° 56' 26.00'' Nord";"93066";;"93 AV ROMAIN ROLLAND";"93200";"SAINT-DENIS";"Immeuble"; 46.0;"Société HLM"
652232;2.35306;48.93167;"02° 21' 11.00'' Est, 48° 55' 54.00'' Nord";"93066";;"1 SQ PIERRE DE GEYTER";"93200";"SAINT-DENIS";"Immeuble"; 24.0;"Société Privée SA"
652235;2.35139;48.92778;"02° 21' 05.00'' Est, 48° 55' 40.00'' Nord";"93066";;"114 R AMBROISE CROIZAT";"93200";"SAINT-DENIS";"Immeuble"; 36.0;"Société Privée SA"
652583;2.34500;48.92611;"02° 20' 42.00'' Est, 48° 55' 34.00'' Nord";"93066";;"38, R JULES GÉNOVÉSI";"93200";"SAINT-DENIS";"Immeuble"; 18.7;"Copropriété, Syndic, SCI"
652585;2.35667;48.92222;"02° 21' 24.00'' Est, 48° 55' 20.00'' Nord";"93066";;"AVE DU PRÉSIDENT WILSON AU NIVEAU DU 250 SENS PROV/PARIS SOUS LE VIADUC DE L'A86 (PK 2,1) CROISANT L'A1";"93200";"SAINT-DENIS";"Ouvrage d'art (pont, viaduc)"; 8.7;"DDE"
652599;2.36083;48.93806;"02° 21' 39.00'' Est, 48° 56' 17.00'' Nord";"93066";;"15 RUE EDOUARD VAILLANT";"93200";"SAINT-DENIS";"Immeuble"; 26.0;"Société HLM"
652605;2.38194;48.93167;"02° 22' 55.00'' Est, 48° 55' 54.00'' Nord";"93066";;"1 PL YOURI GAGARINE";"93200";"SAINT-DENIS";"Immeuble"; 51.0;"Copropriété, Syndic, SCI"
652613;2.36750;48.93194;"02° 22' 03.00'' Est, 48° 55' 55.00'' Nord";"93066";;"2 4 R MAURICE AUDIN 1 ALL LÉONARD DE VINCI";"93200";"SAINT-DENIS";"Immeuble"; 30.0;"Société HLM"
652621;2.34944;48.91444;"02° 20' 58.00'' Est, 48° 54' 52.00'' Nord";"93066";;"147 R DE LANDY LA PLAINE ST DENIS";"93200";"SAINT-DENIS";"Bâtiment"; 28.0;"SNCF Réseau"
652640;2.34389;48.92611;"02° 20' 38.00'' Est, 48° 55' 34.00'' Nord";"93066";;"22 R JULES GENOVESI";"93200";"SAINT-DENIS";"Immeuble"; 19.0;"Copropriété, Syndic, SCI"
653191;2.42944;48.85083;"02° 25' 46.00'' Est, 48° 51' 03.00'' Nord";"93048";;"47 R DES DEUX COMMUNES";"93100";"MONTREUIL";"Immeuble"; 27.0;"Particulier"
665507;2.51056;48.88944;"02° 30' 38.00'' Est, 48° 53' 22.00'' Nord";"93077";;"13 PL DE LA GARE";"93250";"VILLEMOMBLE";"Immeuble"; 26.4;"Société HLM"
667916;2.51083;48.88306;"02° 30' 39.00'' Est, 48° 52' 59.00'' Nord";"93077";"BOIS CHÂTEL";"6-12, R MARC VIÉVILLE RÉSIDENCE H.L.M DU RENOUVEAU (PRÈS DU L.E.P)";"93250";"VILLEMOMBLE";"Immeuble"; 57.0;"Société HLM"
668751;2.54361;48.84222;"02° 32' 37.00'' Est, 48° 50' 32.00'' Nord";"93051";;"8 AV MONTAIGNE IMM MAILLE NORD";"93160";"NOISY-LE-GRAND";"Immeuble"; 46.0;"Société Privée SA"
669224;2.40250;48.91472;"02° 24' 09.00'' Est, 48° 54' 53.00'' Nord";"93001";;"36 ALLÉE GABRIEL RABOT";"93300";"AUBERVILLIERS";"Immeuble"; 28.6;"Société HLM"
669605;2.43778;48.86333;"02° 26' 16.00'' Est, 48° 51' 48.00'' Nord";"93048";;"94 B  R ALEXIS PESNON";"93100";"MONTREUIL";"Immeuble"; 37.0;"ORANGE Services Fixes"
669607;2.43000;48.85639;"02° 25' 48.00'' Est, 48° 51' 23.00'' Nord";"93048";;"87 B  R DE PARIS IMM SEMIMO B";"93100";"MONTREUIL";"Immeuble"; 27.0;"Copropriété, Syndic, SCI"
669609;2.45000;48.87528;"02° 27' 00.00'' Est, 48° 52' 31.00'' Nord";"93048";;"159 RUE ST DENIS";"93100";"MONTREUIL";"Immeuble"; 31.5;"Société HLM"
669611;2.45750;48.86833;"02° 27' 27.00'' Est, 48° 52' 06.00'' Nord";"93048";;"2/20 AVENUE PRÉSIDENT ALLENDE";"93100";"MONTREUIL";"Immeuble"; 34.0;"Société Privée SA"
669614;2.41750;48.85306;"02° 25' 03.00'' Est, 48° 51' 11.00'' Nord";"93048";;"22 R ARMAND CARREL";"93100";"MONTREUIL";"Immeuble"; 29.0;"Société Privée SA"
669616;2.44250;48.85917;"02° 26' 33.00'' Est, 48° 51' 33.00'' Nord";"93048";;"30 R DE STALINGRAD";"93100";"MONTREUIL";"Immeuble"; 41.0;"Société HLM"
669618;2.47750;48.86417;"02° 28' 39.00'' Est, 48° 51' 51.00'' Nord";"93048";;"71 ALLÉE FANNY DEWERPE";"93100";"MONTREUIL";"Immeuble"; 31.0;"Société HLM"
669622;2.42528;48.84917;"02° 25' 31.00'' Est, 48° 50' 57.00'' Nord";"93048";;"46 R LAGNY";"93100";"MONTREUIL";"Immeuble"; 34.0;"ORANGE"
669624;2.47000;48.86222;"02° 28' 12.00'' Est, 48° 51' 44.00'' Nord";"93048";;"7 R DES RUFFINS";"93100";"MONTREUIL";"Immeuble"; 31.0;"Société HLM"
669790;2.43556;48.87306;"02° 26' 08.00'' Est, 48° 52' 23.00'' Nord";"93048";;"A3 - SENS PARIS / PROVINCE PR 2D";"93100";"MONTREUIL";"Ouvrage d'art (pont, viaduc)"; 10.0;"DDE"
669794;2.48250;48.86361;"02° 28' 57.00'' Est, 48° 51' 49.00'' Nord";"93048";;"A A86 SENS EXTÉRIEUR - PR 17,8";"93100";"MONTREUIL";"Ouvrage d'art (pont, viaduc)"; 9.3;"DDE"
669797;2.46694;48.86444;"02° 28' 01.00'' Est, 48° 51' 52.00'' Nord";"93048";;"150 BD THEOPHILE SUEUR";"93100";"MONTREUIL";"Immeuble"; 37.0;"Société HLM"
669803;2.43528;48.86028;"02° 26' 07.00'' Est, 48° 51' 37.00'' Nord";"93048";;"10 R PARMENTIER";"93100";"MONTREUIL";"Bâtiment"; 30.0;"Société Privée SA"
669808;2.41722;48.85250;"02° 25' 02.00'' Est, 48° 51' 09.00'' Nord";"93048";;"52 R DE LA REPUBLIQUE";"93100";"MONTREUIL";"Immeuble"; 32.5;"Société HLM"
669818;2.44972;48.87556;"02° 26' 59.00'' Est, 48° 52' 32.00'' Nord";"93048";;"171 R ST DENIS";"93100";"MONTREUIL";"Immeuble"; 34.0;"Copropriété, Syndic, SCI"
669826;2.46444;48.87722;"02° 27' 52.00'' Est, 48° 52' 38.00'' Nord";"93048";;"205 BD DE LA BOISSIERE";"93100";"MONTREUIL";"Immeuble"; 22.0;"Copropriété, Syndic, SCI"
669851;2.44944;48.86667;"02° 26' 58.00'' Est, 48° 52' 00.00'' Nord";"93048";;"22 R DE ROCHEBRUNE";"93100";"MONTREUIL";"Immeuble"; 24.0;"Société HLM"
675945;2.46167;48.95056;"02° 27' 42.00'' Est, 48° 57' 02.00'' Nord";"93007";;"183 AV DESCARTE CENTRE D'AFFAIRES PARIS NORD IMMEUBLE CONTINENTAL";"93150";"LE BLANC-MESNIL";"Immeuble"; 34.1;"Société Privée SA"
676723;2.36194;48.91472;"02° 21' 43.00'' Est, 48° 54' 53.00'' Nord";"93066";;"11 AV DES ARTS ET METIERS";"93200";"SAINT-DENIS";"Bâtiment"; 12.0;"Société Privée SA"
679466;2.51944;48.88250;"02° 31' 10.00'' Est, 48° 52' 57.00'' Nord";"93077";;"117 GRANDE RUE";"93250";"VILLEMOMBLE";"Immeuble"; 23.0;"Copropriété, Syndic, SCI"
684935;2.55111;48.95417;"02° 33' 04.00'' Est, 48° 57' 15.00'' Nord";"93078";;"2 R NICÉPHORE NIEPCE";"93420";"VILLEPINTE";"Immeuble"; 20.0;"Société HLM"
691892;2.57722;48.93500;"02° 34' 38.00'' Est, 48° 56' 06.00'' Nord";"93074";;"164, 168 R DE MEAUX";"93410";"VAUJOURS";"Immeuble"; 23.0;"Copropriété, Syndic, SCI"
692915;2.43611;48.94694;"02° 26' 10.00'' Est, 48° 56' 49.00'' Nord";"93030";;"AÉROPORT LE BOURGET PARC DES EXPOSITIONS PORTE O";"93440";"DUGNY";"Bâtiment"; 14.3;"Société Privée SA"
693101;2.52028;48.95250;"02° 31' 13.00'' Est, 48° 57' 09.00'' Nord";"93005";;"3 R DU DR CLAUDE BERNARD";"93600";"AULNAY-SOUS-BOIS";"Immeuble"; 32.1;"Société HLM"
693542;2.33167;48.91361;"02° 19' 54.00'' Est, 48° 54' 49.00'' Nord";"93070";;"48 R ALBERT DHALENNE";"93400";"SAINT-OUEN";"Bâtiment"; 28.6;"Société Privée SA"
694409;2.53000;48.90056;"02° 31' 48.00'' Est, 48° 54' 02.00'' Nord";"93062";;"21 ALLÉE DE CLICHY";"93340";"LE RAINCY";"Bâtiment"; 12.0;"Copropriété, Syndic, SCI"
695291;2.40306;48.89250;"02° 24' 11.00'' Est, 48° 53' 33.00'' Nord";"93055";;"6 R DE LA LIBERTÉ";"93500";"PANTIN";"Immeuble"; 31.0;"EDF ou GDF"
703302;2.55972;48.87472;"02° 33' 35.00'' Est, 48° 52' 29.00'' Nord";"93032";;"ALLÉE DE L'HORLOGE";"93220";"GAGNY";"Immeuble"; 32.0;"Société HLM"
707308;2.42222;48.89528;"02° 25' 20.00'' Est, 48° 53' 43.00'' Nord";"93055";;"233 AV. JEAN LOLIVE CHEM DE HALAGE";"93500";"PANTIN";"Bâtiment"; 43.0;"ORANGE Services Fixes"
707314;2.40611;48.89167;"02° 24' 22.00'' Est, 48° 53' 30.00'' Nord";"93055";;"94 AV JEAN LOLIVE LA POSTE";"93500";"PANTIN";"Immeuble"; 31.0;"La Poste"
707318;2.40167;48.90389;"02° 24' 06.00'' Est, 48° 54' 14.00'' Nord";"93055";;"88 R DIDEROT";"93500";"PANTIN";"Immeuble"; 20.0;"Copropriété, Syndic, SCI"
707322;2.41639;48.89250;"02° 24' 59.00'' Est, 48° 53' 33.00'' Nord";"93055";;"R COURTOIS 140 AV JEAN LOLIVE";"93500";"PANTIN";"Immeuble"; 27.0;"Copropriété, Syndic, SCI"
707332;2.40667;48.90194;"02° 24' 24.00'' Est, 48° 54' 07.00'' Nord";"93055";;"158/160 R DIDEROT";"93500";"PANTIN";"Immeuble"; 24.0;"Copropriété, Syndic, SCI"
707338;2.41056;48.89111;"02° 24' 38.00'' Est, 48° 53' 28.00'' Nord";"93055";;"3 AV DU 8 MAI 1945";"93500";"PANTIN";"Immeuble"; 37.0;"Copropriété, Syndic, SCI"
707340;2.39528;48.89944;"02° 23' 43.00'' Est, 48° 53' 58.00'' Nord";"93055";;"24 R DAVOUST";"93500";"PANTIN";"Bâtiment"; 33.0;"Société Privée SA"
711275;2.53417;48.88472;"02° 32' 03.00'' Est, 48° 53' 05.00'' Nord";"93032";;"1BIS PL DU GÉNÉRAL DE GAULLE RÉSIDENCE HENRY MAILLARD";"93220";"GAGNY";"Bâtiment"; 28.0;"Société HLM"
715492;2.51444;48.85667;"02° 30' 52.00'' Est, 48° 51' 24.00'' Nord";"93049";;"R MARGUERITE STADE MUNICIPAL";"93360";"NEUILLY-PLAISANCE";"Pylône tubulaire"; 29.0;"ORANGE"
715504;2.33667;48.91667;"02° 20' 12.00'' Est, 48° 54' 60.00'' Nord";"93070";;"26-28 R SALVADOR ALLENDE CITÉ ALLENDE";"93400";"SAINT-OUEN";"Immeuble"; 43.0;"Société HLM"
719434;2.35528;48.92972;"02° 21' 19.00'' Est, 48° 55' 47.00'' Nord";"93066";;"10 BD ANATOLE FRANCE";"93200";"SAINT-DENIS";"Bâtiment"; 32.2;"BOUYGUES"
721397;2.53667;48.92222;"02° 32' 12.00'' Est, 48° 55' 20.00'' Nord";"93046";;"36/40 ALL JOSEPH NOIZE";"93190";"LIVRY-GARGAN";"Immeuble"; 22.0;"Société HLM"
738394;2.41472;48.86861;"02° 24' 53.00'' Est, 48° 52' 07.00'' Nord";"93006";;"7, AV GAMBETTA AV PARMENTIER";"93170";"BAGNOLET";"Bâtiment"; 52.3;"ORANGE"
738443;2.35833;48.91778;"02° 21' 30.00'' Est, 48° 55' 04.00'' Nord";"93066";;"264 AV DU PRÉSIDENT WILSON IMM RSI";"93200";"SAINT-DENIS";"Immeuble"; 24.0;"Société Privée SA"
743905;2.48500;48.92500;"02° 29' 06.00'' Est, 48° 55' 30.00'' Nord";"93005";;"18 R ANDRÉ THEURIET";"93600";"AULNAY-SOUS-BOIS";"Immeuble"; 19.8;"Copropriété, Syndic, SCI"
752191;2.36917;48.91750;"02° 22' 09.00'' Est, 48° 55' 03.00'' Nord";"93001";;"6 R ALBINET/R BENGALI";"93300";"AUBERVILLIERS";"Immeuble"; 23.0;"Société HLM"
752246;2.57694;48.93528;"02° 34' 37.00'' Est, 48° 56' 07.00'' Nord";"93074";"LE VERT GALLANT";"160 R DE MEAUX (RD.44) IMM SCI DU GRAND PARC";"93410";"VAUJOURS";"Immeuble"; 20.0;"SFR"
763425;2.38694;48.90278;"02° 23' 13.00'' Est, 48° 54' 10.00'' Nord";"93001";;"21 R DE L UNION";"93300";"AUBERVILLIERS";"Immeuble"; 50.3;"Société HLM"
778891;2.42611;48.86528;"02° 25' 34.00'' Est, 48° 51' 55.00'' Nord";"93006";;"2/14, R JEAN LOLIVE CAGE N°2";"93170";"BAGNOLET";"Immeuble"; 29.0;"Société HLM"
780565;2.38306;48.92139;"02° 22' 59.00'' Est, 48° 55' 17.00'' Nord";"93027";;"35 BD PASTEUR";"93120";"LA COURNEUVE";"Immeuble"; 27.0;"Société HLM"
781275;2.42917;48.86528;"02° 25' 45.00'' Est, 48° 51' 55.00'' Nord";"93048";;"ALLEE EUGENIE COTTON";"93100";"MONTREUIL";"Immeuble"; 55.0;"Société Privée SA"
781317;2.51889;48.86639;"02° 31' 08.00'' Est, 48° 51' 59.00'' Nord";"93050";;"93R DES FRÈRES LUMIÈRE 97 BD LOUIS AMAND";"93330";"NEUILLY-SUR-MARNE";"Pylône autostable"; 59.0;"ORANGE"
783716;2.39750;48.93306;"02° 23' 51.00'' Est, 48° 55' 59.00'' Nord";"93027";;"105 AV HENRI BARBUSSE";"93120";"LA COURNEUVE";"Immeuble"; 31.0;"Société HLM"
784516;2.44139;48.91556;"02° 26' 29.00'' Est, 48° 54' 56.00'' Nord";"93029";;"3 AV HENRI BARBUSSE  RES CASANOVA";"93700";"DRANCY";"Immeuble"; 36.0;"Société HLM"
784570;2.48500;48.89833;"02° 29' 06.00'' Est, 48° 53' 54.00'' Nord";"93010";;"8 R PAUL ELUARD";"93140";"BONDY";"Immeuble"; 38.0;"Société HLM"
784576;2.33861;48.93306;"02° 20' 19.00'' Est, 48° 55' 59.00'' Nord";"93039";;"12, 14 R DU PRESIDENT ALLENDE";"93450";"L'ILE-SAINT-DENIS";"Immeuble"; 35.0;"Société HLM"
784637;2.43722;48.89556;"02° 26' 14.00'' Est, 48° 53' 44.00'' Nord";"93063";;"4 R JEAN JACQUES ROUSSEAU";"93230";"ROMAINVILLE";"Immeuble"; 39.0;"RTE"
785601;2.57583;48.83861;"02° 34' 33.00'' Est, 48° 50' 19.00'' Nord";"93051";;"6 R DE LA BUTTE AUX CAILLES";"93160";"NOISY-LE-GRAND";"Immeuble"; 37.0;"Société HLM"
786690;2.46000;48.89167;"02° 27' 36.00'' Est, 48° 53' 30.00'' Nord";"93053";;"59 BD MICHELET BAT C";"93130";"NOISY-LE-SEC";"Immeuble"; 47.0;"Copropriété, Syndic, SCI"
786788;2.37194;48.97139;"02° 22' 19.00'' Est, 48° 58' 17.00'' Nord";"93059";;"120 R JULES CHATENAY 39 R PAUL LAFARGUES";"93380";"PIERREFITTE-SUR-SEINE";"Immeuble"; 38.0;"Copropriété, Syndic, SCI"
786798;2.44611;48.88167;"02° 26' 46.00'' Est, 48° 52' 54.00'' Nord";"93063";;"88 AV PIERRE KERAUTRET";"93230";"ROMAINVILLE";"Immeuble"; 27.0;"Copropriété, Syndic, SCI"
790299;2.45139;48.95306;"02° 27' 05.00'' Est, 48° 57' 11.00'' Nord";"93007";;"2 R JEAN PERRIN";"93150";"LE BLANC-MESNIL";"Immeuble"; 22.0;"Société Privée SA"
790317;2.51306;48.85306;"02° 30' 47.00'' Est, 48° 51' 11.00'' Nord";"93049";;"2, 4 R EDGARD QUINET";"93360";"NEUILLY-PLAISANCE";"Immeuble"; 24.0;"Société HLM"
790322;2.33222;48.91861;"02° 19' 56.00'' Est, 48° 55' 07.00'' Nord";"93070";;"4 R DES CHATEAUX";"93400";"SAINT-OUEN";"Immeuble"; 27.0;"Société HLM"
790398;2.37806;48.95806;"02° 22' 41.00'' Est, 48° 57' 29.00'' Nord";"93072";;"1 R HENNEQUIN CHAUFFERIE DE STAINS";"93240";"STAINS";"Bâtiment"; 55.0;"Société Privée SA"
790426;2.38917;48.91583;"02° 23' 21.00'' Est, 48° 54' 57.00'' Nord";"93001";;"9 R HEMET";"93300";"AUBERVILLIERS";"Immeuble"; 31.0;"Société HLM"
790441;2.30778;48.96139;"02° 18' 28.00'' Est, 48° 57' 41.00'' Nord";"93031";;"5, 11 R D'ORMESSON";"93800";"EPINAY-SUR-SEINE";"Immeuble"; 29.0;"Société HLM"
791335;2.46194;48.91361;"02° 27' 43.00'' Est, 48° 54' 49.00'' Nord";"93029";;"252 AV JEAN JAURÈS";"93700";"DRANCY";"Pylône autostable"; 19.0;"BOUYGUES"
798365;2.38194;48.91333;"02° 22' 55.00'' Est, 48° 54' 48.00'' Nord";"93001";;"15 R DE LA COMMUNE DE PARIS";"93300";"AUBERVILLIERS";"Immeuble"; 27.0;"Société HLM"
798406;2.42278;48.92222;"02° 25' 22.00'' Est, 48° 55' 20.00'' Nord";"93029";;"1 ALL TITOV CITE YOURI GAGARINE";"93700";"DRANCY";"Immeuble"; 48.0;"Copropriété, Syndic, SCI"
798410;2.33972;48.95306;"02° 20' 23.00'' Est, 48° 57' 11.00'' Nord";"93079";;"17 R PAUL LANGEVIN";"93430";"VILLETANEUSE";"Immeuble"; 49.0;"Copropriété, Syndic, SCI"
798415;2.53556;48.86389;"02° 32' 08.00'' Est, 48° 51' 50.00'' Nord";"93050";;"80 AV DU 8 MAI 1945";"93330";"NEUILLY-SUR-MARNE";"Immeuble"; 53.0;"Copropriété, Syndic, SCI"
798460;2.34889;48.90444;"02° 20' 56.00'' Est, 48° 54' 16.00'' Nord";"93070";;"16-18-20 R ADRIEN LESESNE";"93400";"SAINT-OUEN";"Immeuble"; 32.0;"Copropriété, Syndic, SCI"
798473;2.40500;48.88444;"02° 24' 18.00'' Est, 48° 53' 04.00'' Nord";"93061";;"13 R DANTON";"93310";"LE PRE-SAINT-GERVAIS";"Immeuble"; 26.0;"Copropriété, Syndic, SCI"
799124;2.50278;48.95750;"02° 30' 10.00'' Est, 48° 57' 27.00'' Nord";"93005";"LA ROSE DES VENTS";"7 PL JUPITER RÉSIDENCE DES FERRIÈRES";"93600";"AULNAY-SOUS-BOIS";"Immeuble"; 28.0;"Société HLM"
800957;2.42222;48.95222;"02° 25' 20.00'' Est, 48° 57' 08.00'' Nord";"93030";;"1 AV DE LA 2ÈME DIVISION BLINDÉE";"93440";"DUGNY";"Pylône tubulaire"; 34.8;"SFR"
801636;2.52806;48.95944;"02° 31' 41.00'' Est, 48° 57' 34.00'' Nord";"93078";;"BD LAURENT ET DANIELLE CASANOVA DÉCHETTERIE MUNICIPALE";"93420";"VILLEPINTE";"Pylône tubulaire"; 22.0;"SFR"
802351;2.43194;48.91389;"02° 25' 55.00'' Est, 48° 54' 50.00'' Nord";"93008";;"TUNNEL DE L'A86 AU NIVEAU DE BOBIGNY EN FACE DE L'USINE";"93000";"BOBIGNY";"Tunnel"; 11.4;"DDE"
803181;2.42000;48.86806;"02° 25' 12.00'' Est, 48° 52' 05.00'' Nord";"93006";;"7 R JULES VERCRUYSSE";"93170";"BAGNOLET";"Immeuble"; 19.0;"Société HLM"
803232;2.44528;48.94028;"02° 26' 43.00'' Est, 48° 56' 25.00'' Nord";"93007";;"13 R DE LA VICTOIRE AV CHARLES FLOQUET";"93150";"LE BLANC-MESNIL";"Pylône autostable"; 25.0;"BOUYGUES"
803818;2.45278;48.89056;"02° 27' 10.00'' Est, 48° 53' 26.00'' Nord";"93053";;"2 R PAUL VAILLANT";"93130";"NOISY-LE-SEC";"Immeuble"; 56.0;"Société HLM"
804579;2.29556;48.95611;"02° 17' 44.00'' Est, 48° 57' 22.00'' Nord";"93031";;"2, 4 PL  D'OBERURSEL CITÉ D'ORGEMONT";"93800";"EPINAY-SUR-SEINE";"Immeuble"; 95.0;"Société Privée SA"
805461;2.43306;48.87389;"02° 25' 59.00'' Est, 48° 52' 26.00'' Nord";"93006";;"85 R DES RIGONDES";"93170";"BAGNOLET";"Immeuble"; 28.0;"Société HLM"
805471;2.42194;48.87222;"02° 25' 19.00'' Est, 48° 52' 20.00'' Nord";"93006";;"126 AV SADI CARNOT";"93170";"BAGNOLET";"Immeuble"; 35.0;"Société HLM"
805713;2.41194;48.92139;"02° 24' 43.00'' Est, 48° 55' 17.00'' Nord";"93027";;"66 AV PAUL VAILLANT COUTURIER";"93120";"LA COURNEUVE";"Bâtiment"; 28.0;"Société Privée SA"
806839;2.48306;48.87444;"02° 28' 59.00'' Est, 48° 52' 28.00'' Nord";"93064";;"56 R RICHARD GARDEBLED";"93110";"ROSNY-SOUS-BOIS";"Immeuble"; 24.0;"Société HLM"
809610;2.56111;48.96472;"02° 33' 40.00'' Est, 48° 57' 53.00'' Nord";"93073";;"46 R MARCEL PAUL";"93290";"TREMBLAY-EN-FRANCE";"Immeuble"; 10.0;"Société Privée SA"
816336;2.37556;48.90417;"02° 22' 32.00'' Est, 48° 54' 15.00'' Nord";"93001";;"17 R DE LA GARE CTRE COMMERCIAL";"93300";"AUBERVILLIERS";"Bâtiment"; 4.0;"Société Privée SA"
820186;2.38361;48.95556;"02° 23' 01.00'' Est, 48° 57' 20.00'' Nord";"93072";;"AV LOUIS BORDES PL HENRI BARBUSSE CENTRE ADMINISTRATIF";"93240";"STAINS";"Bâtiment"; 28.0;"Commune, communauté de commune"
820781;2.38694;48.96111;"02° 23' 13.00'' Est, 48° 57' 40.00'' Nord";"93072";;"1 RUE MICHEL ROLNIKAS TERRAIN DE SPORT";"93240";"STAINS";"Pylône autostable"; 27.8;"CELLNEX"
822573;2.49222;48.92667;"02° 29' 32.00'' Est, 48° 55' 36.00'' Nord";"93005";;"3 AV YVONNE";"93600";"AULNAY-SOUS-BOIS";"Immeuble"; 21.0;"Copropriété, Syndic, SCI"
822577;2.38306;48.90556;"02° 22' 59.00'' Est, 48° 54' 20.00'' Nord";"93001";;"19 R ANDRÉ KARMAN";"93300";"AUBERVILLIERS";"Immeuble"; 37.0;"Société HLM"
822584;2.38556;48.95444;"02° 23' 08.00'' Est, 48° 57' 16.00'' Nord";"93072";;"21 R LOUIS BORDES";"93240";"STAINS";"Immeuble"; 25.2;"Société HLM"
822588;2.52000;48.95250;"02° 31' 12.00'' Est, 48° 57' 09.00'' Nord";"93005";;"5 ALLÉE DU DR CLAUDE BERNARD";"93600";"AULNAY-SOUS-BOIS";"Immeuble"; 26.0;"Société HLM"
822599;2.39167;48.92750;"02° 23' 30.00'' Est, 48° 55' 39.00'' Nord";"93027";;"ALL PHILIPPE ROUX";"93120";"LA COURNEUVE";"Immeuble"; 32.0;"Société HLM"
822606;2.41056;48.93222;"02° 24' 38.00'' Est, 48° 55' 56.00'' Nord";"93027";;"104 AVENUE JEAN MERMOZ";"93120";"LA COURNEUVE";"Immeuble"; 20.0;"Particulier"
822617;2.40028;48.88556;"02° 24' 01.00'' Est, 48° 53' 08.00'' Nord";"93061";;"35 R D'ESTIENNE D'ORVES";"93310";"LE PRE-SAINT-GERVAIS";"Immeuble"; 27.0;"Société HLM"
822621;2.32306;48.90944;"02° 19' 23.00'' Est, 48° 54' 34.00'' Nord";"93070";;"R DES DOCKS GARE DE TRIAGE";"93400";"SAINT-OUEN";"Pylône autostable"; 30.0;"SNCF Réseau"
822631;2.41500;48.85889;"02° 24' 54.00'' Est, 48° 51' 32.00'' Nord";"93006";;"163 AV. GALLIENI IMM ECLATEC";"93170";"BAGNOLET";"Immeuble"; 23.0;"Copropriété, Syndic, SCI"
822663;2.43000;48.87278;"02° 25' 48.00'' Est, 48° 52' 22.00'' Nord";"93006";;"47/49 AV DE STALINGRAD TOUR POLLUX";"93170";"BAGNOLET";"Immeuble"; 45.0;"Société HLM"
822674;2.43972;48.87806;"02° 26' 23.00'' Est, 48° 52' 41.00'' Nord";"93063";"FORT DE NOISY";"72 R DE BENFLEET";"93230";"ROMAINVILLE";"Immeuble"; 37.0;"Société HLM"
822692;2.44167;48.88500;"02° 26' 30.00'' Est, 48° 53' 06.00'' Nord";"93053";;"126 R EMILE ZOLA";"93130";"NOISY-LE-SEC";"Immeuble"; 21.0;"Copropriété, Syndic, SCI"
822698;2.57694;48.93556;"02° 34' 37.00'' Est, 48° 56' 08.00'' Nord";"93074";;"166 R DE MEAUX";"93410";"VAUJOURS";"Immeuble"; 23.0;"Copropriété, Syndic, SCI"
822704;2.47750;48.94806;"02° 28' 39.00'' Est, 48° 56' 53.00'' Nord";"93005";;"26/36 R ALFRED NOBEL";"93600";"AULNAY-SOUS-BOIS";"Immeuble"; 28.0;"ORANGE Services Fixes"
822706;2.56528;49.00917;"02° 33' 55.00'' Est, 49° 00' 33.00'' Nord";"93073";;"AÉROPORT DE ROISSY  SIÈGE AIR FRANCE";"93290";"TREMBLAY-EN-FRANCE";"Bâtiment"; 25.0;"CCI,Ch Metiers,Port Aut,Aérop"
822708;2.51389;48.90056;"02° 30' 50.00'' Est, 48° 54' 02.00'' Nord";"93062";;"28/30AV THIERS";"93340";"LE RAINCY";"Immeuble"; 31.0;"Copropriété, Syndic, SCI"
822710;2.48306;48.90500;"02° 28' 59.00'' Est, 48° 54' 18.00'' Nord";"93010";;"40-48 AV DE LATTRE DE TASSIGNY";"93140";"BONDY";"Immeuble"; 37.0;"Société HLM"
822716;2.48722;48.87111;"02° 29' 14.00'' Est, 48° 52' 16.00'' Nord";"93064";;"9 R DU GÉNÉRAL LECLERC";"93110";"ROSNY-SOUS-BOIS";"Immeuble"; 27.0;"Etat, Ministère"
822721;2.35361;48.95722;"02° 21' 13.00'' Est, 48° 57' 26.00'' Nord";"93059";;"43/45 CHEM DES JONCHEROLLES";"93380";"PIERREFITTE-SUR-SEINE";"Immeuble"; 36.0;"Copropriété, Syndic, SCI"
822723;2.53083;48.89667;"02° 31' 51.00'' Est, 48° 53' 48.00'' Nord";"93062";;"110 ALLÉE DE MONTFERMEIL";"93340";"LE RAINCY";"Immeuble"; 16.0;"Copropriété, Syndic, SCI"
822725;2.42833;48.93722;"02° 25' 42.00'' Est, 48° 56' 14.00'' Nord";"93013";;"90 AV DE LA DIVISION LECLERC";"93350";"LE BOURGET";"Immeuble"; 26.0;"Copropriété, Syndic, SCI"
822727;2.33917;48.95222;"02° 20' 21.00'' Est, 48° 57' 08.00'' Nord";"93079";;"66 RTE DE ST LEU";"93430";"VILLETANEUSE";"Immeuble"; 32.0;"Particulier"
822729;2.49444;48.91167;"02° 29' 40.00'' Est, 48° 54' 42.00'' Nord";"93057";;"36 ALL D'ATHENES ZI LA POUDRETTE";"93320";"LES PAVILLONS-SOUS-BOIS";"Bâtiment"; 14.0;"Société Privée SA"
822731;2.57694;48.86278;"02° 34' 37.00'' Est, 48° 51' 46.00'' Nord";"93033";;"10 AV PAUL DOUMER";"93460";"GOURNAY-SUR-MARNE";"Immeuble"; 18.0;"Copropriété, Syndic, SCI"
822733;2.51833;48.97750;"02° 31' 06.00'' Est, 48° 58' 39.00'' Nord";"93073";;"CIRCUIT CAROLE SENTE D'AMOUR D 40";"93290";"TREMBLAY-EN-FRANCE";"Pylône autostable"; 26.0;"ORANGE"
822735;2.56833;48.87167;"02° 34' 06.00'' Est, 48° 52' 18.00'' Nord";"93032";;"1 ALL DES PEUPLIERS";"93220";"GAGNY";"Immeuble"; 40.0;"Société HLM"
822737;2.51000;48.97444;"02° 30' 36.00'' Est, 48° 58' 28.00'' Nord";"93078";;"47 ALL DES IMPRESSIONISTES";"93420";"VILLEPINTE";"Immeuble"; 31.0;"Société Privée SA"
822739;2.53889;48.92778;"02° 32' 20.00'' Est, 48° 55' 40.00'' Nord";"93071";;"31 R DE BRETAGNE";"93270";"SEVRAN";"Immeuble"; 20.0;"Copropriété, Syndic, SCI"
822741;2.39750;48.93028;"02° 23' 51.00'' Est, 48° 55' 49.00'' Nord";"93027";;"38 R EDGAR QUINET CTRE TÉLÉPHONIQUE";"93120";"LA COURNEUVE";"Immeuble"; 30.0;"ORANGE Services Fixes"
822743;2.57722;48.84389;"02° 34' 38.00'' Est, 48° 50' 38.00'' Nord";"93051";;"4 PROMENADE MICHEL SIMON";"93160";"NOISY-LE-GRAND";"Immeuble"; 32.0;"Société HLM"
822746;2.45944;48.88389;"02° 27' 34.00'' Est, 48° 53' 02.00'' Nord";"93053";"A3 PR4.2";"A3 - SENS PROVINCE / PARIS (W) SENS PARIS-PROVINCE (W) PR 4,2";"93130";"NOISY-LE-SEC";"Pylône autostable"; 10.0;"ORANGE"
822748;2.42972;48.94167;"02° 25' 47.00'' Est, 48° 56' 30.00'' Nord";"93013";;"A.1 - PR 8.4 - SENS PARIS-PROVINCE";"93350";"LE BOURGET";"Ouvrage d'art (pont, viaduc)"; 7.0;"DDE"
822750;2.37222;48.91556;"02° 22' 20.00'' Est, 48° 54' 56.00'' Nord";"93001";;"32 R DU LANDY";"93300";"AUBERVILLIERS";"Immeuble"; 32.0;"Particulier"
822753;2.50306;48.91056;"02° 30' 11.00'' Est, 48° 54' 38.00'' Nord";"93057";;"20, AV LOUIS CALMANOVIC";"93320";"LES PAVILLONS-SOUS-BOIS";"Immeuble"; 31.0;"Société Privée SA"
822758;2.42750;48.86583;"02° 25' 39.00'' Est, 48° 51' 57.00'' Nord";"93006";;"16 R JEAN LOLIVE";"93170";"BAGNOLET";"Immeuble"; 43.0;"Société HLM"
822760;2.38444;48.91778;"02° 23' 04.00'' Est, 48° 55' 04.00'' Nord";"93001";;"39 R DE LA COURNEUVE";"93300";"AUBERVILLIERS";"Immeuble"; 33.0;"Société HLM"
822768;2.36833;48.91056;"02° 22' 06.00'' Est, 48° 54' 38.00'' Nord";"93001";;"28 R DU PILIER";"93300";"AUBERVILLIERS";"Pylône tubulaire"; 25.0;"ORANGE"
822770;2.36556;48.95639;"02° 21' 56.00'' Est, 48° 57' 23.00'' Nord";"93059";;"1-4 PL JEAN MOULIN";"93380";"PIERREFITTE-SUR-SEINE";"Immeuble"; 40.0;"Société HLM"
822772;2.34056;48.90250;"02° 20' 26.00'' Est, 48° 54' 09.00'' Nord";"93070";;"5 R PAUL BERT";"93400";"SAINT-OUEN";"Immeuble"; 26.0;"Société Privée SA"
822780;2.42000;48.92028;"02° 25' 12.00'' Est, 48° 55' 13.00'' Nord";"93029";"L'AVENIR PARISIEN";"1 ALLÉE CARPENTER CITÉ GARGARINE - BÂT.J";"93700";"DRANCY";"Immeuble"; 38.0;"Société HLM"
822787;2.43000;48.88500;"02° 25' 48.00'' Est, 48° 53' 06.00'' Nord";"93063";;"ALLÉE VICTOR GRISSOM CITÉ YOURI GAGARINE - BÂT.L2";"93230";"ROMAINVILLE";"Immeuble"; 35.0;"Société HLM"
822791;2.42167;48.87167;"02° 25' 18.00'' Est, 48° 52' 18.00'' Nord";"93006";;"120 R SADI CARNOT";"93170";"BAGNOLET";"Immeuble"; 37.0;"Société HLM"
822793;2.48833;48.89639;"02° 29' 18.00'' Est, 48° 53' 47.00'' Nord";"93010";;"ALLÉE DES SYPHLES ENTRÉE 122 R LOUIS AUGUSTE BLANQUI 93010";"93140";"BONDY";"Immeuble"; 35.0;"Commune, communauté de commune"
822795;2.52361;48.94972;"02° 31' 25.00'' Est, 48° 56' 59.00'' Nord";"93071";;"AV RAOUL DAUTRY";"93270";"SEVRAN";"Immeuble"; 24.0;"Société Privée SA"
822797;2.41583;48.93833;"02° 24' 57.00'' Est, 48° 56' 18.00'' Nord";"93027";;"PORTIQUE SUR L'A1 SENS PARIS PROVINCE PK 7,3";"93120";"LA COURNEUVE";"Ouvrage d'art (pont, viaduc)"; 10.0;"DDE"
822799;2.51722;48.96667;"02° 31' 02.00'' Est, 48° 58' 00.00'' Nord";"93078";;"PARC DES EXPOS HÔTEL IBIS";"93420";"VILLEPINTE";"Immeuble"; 21.0;"Société Privée SA"
822801;2.48028;48.93861;"02° 28' 49.00'' Est, 48° 56' 19.00'' Nord";"93005";;"R DE FLORE ET DE ROUMANIE STADE BELVAL";"93600";"AULNAY-SOUS-BOIS";"Pylône tubulaire"; 24.0;"Commune, communauté de commune"
822803;2.38917;48.94556;"02° 23' 21.00'' Est, 48° 56' 44.00'' Nord";"93072";;"90/100 R VICTOR RENELLE BÂT. T1";"93240";"STAINS";"Immeuble"; 38.0;"Société Privée SA"
822805;2.47556;48.88028;"02° 28' 32.00'' Est, 48° 52' 49.00'' Nord";"93064";;"A86 PORTIQUE";"93110";"ROSNY-SOUS-BOIS";"Ouvrage d'art (pont, viaduc)"; 10.0;"DDE"
822809;2.48250;48.92833;"02° 28' 57.00'' Est, 48° 55' 42.00'' Nord";"93005";;"R DE LA DIVISION LECLERC";"93600";"AULNAY-SOUS-BOIS";"Bâtiment"; 22.0;"ORANGE Services Fixes"
822814;2.47028;48.95556;"02° 28' 13.00'' Est, 48° 57' 20.00'' Nord";"93005";;"PROLOGIS GARONOR BAT D -A1";"93600";"AULNAY-SOUS-BOIS";"Bâtiment"; 38.0;"Société Privée SA"
822816;2.39028;48.96278;"02° 23' 25.00'' Est, 48° 57' 46.00'' Nord";"93072";"STADE PABLO NERUDA";"R DES HULEUX";"93240";"STAINS";"Pylône tubulaire"; 24.0;"ORANGE"
822818;2.35056;48.90333;"02° 21' 02.00'' Est, 48° 54' 12.00'' Nord";"93070";;"17/19 R DU MARÉCHAL LECLERC";"93400";"SAINT-OUEN";"Immeuble"; 24.0;"Société HLM"
822820;2.32278;48.95139;"02° 19' 22.00'' Est, 48° 57' 05.00'' Nord";"93031";;"69-73 AV. DE LA RÉPUBLIQUE";"93800";"EPINAY-SUR-SEINE";"Immeuble"; 41.0;"Société HLM"
822822;2.50694;48.94556;"02° 30' 25.00'' Est, 48° 56' 44.00'' Nord";"93005";;"2 ALL DES CYPRES BAT 28";"93600";"AULNAY-SOUS-BOIS";"Immeuble"; 33.0;"Société HLM"
822828;2.57361;48.83806;"02° 34' 25.00'' Est, 48° 50' 17.00'' Nord";"93051";;"6 ALLÉE DE LA COLLINE RÉS LA BUTTE VERTE";"93160";"NOISY-LE-GRAND";"Immeuble"; 38.0;"Société HLM"
822830;2.50528;48.89556;"02° 30' 19.00'' Est, 48° 53' 44.00'' Nord";"93077";;"78, BD  D'AULNAY";"93250";"VILLEMOMBLE";"Immeuble"; 19.0;"Copropriété, Syndic, SCI"
822832;2.53417;48.87250;"02° 32' 03.00'' Est, 48° 52' 21.00'' Nord";"93050";;"10 R DES CHARDONNERETS";"93330";"NEUILLY-SUR-MARNE";"Immeuble"; 43.0;"Société HLM"
822838;2.55861;48.92917;"02° 33' 31.00'' Est, 48° 55' 45.00'' Nord";"93046";;"CHEM DE VAUJOURS";"93190";"LIVRY-GARGAN";"Pylône autostable"; 25.0;"ORANGE"
822840;2.50000;48.91917;"02° 30' 00.00'' Est, 48° 55' 09.00'' Nord";"93005";;"6 ALL STE ANNE 132 AVE DE ROME";"93600";"AULNAY-SOUS-BOIS";"Bâtiment"; 32.7;"RATP"
822842;2.56972;48.89750;"02° 34' 11.00'' Est, 48° 53' 51.00'' Nord";"93047";"LES CÈDRES";"VIEUX CHEM DE L'ABÎME RÉS. CHÂTEAU DES PERRIERS";"93370";"MONTFERMEIL";"Immeuble"; 23.0;"Copropriété, Syndic, SCI"
822844;2.54056;48.91833;"02° 32' 26.00'' Est, 48° 55' 06.00'' Nord";"93046";;"10-12 R FURSTENFLEBRUCK";"93190";"LIVRY-GARGAN";"Immeuble"; 32.0;"Société HLM"
822846;2.43694;48.92833;"02° 26' 13.00'' Est, 48° 55' 42.00'' Nord";"93029";;"26 AV. MARCEAU";"93700";"DRANCY";"Immeuble"; 26.0;"Association"
822848;2.34472;48.91083;"02° 20' 41.00'' Est, 48° 54' 39.00'' Nord";"93070";;"39 AV MICHELET";"93400";"SAINT-OUEN";"Immeuble"; 29.0;"Société HLM"
822850;2.51528;48.91139;"02° 30' 55.00'' Est, 48° 54' 41.00'' Nord";"93046";;"7 AVE QUESNAY";"93190";"LIVRY-GARGAN";"Immeuble"; 33.0;"Société HLM"
822856;2.51750;48.94361;"02° 31' 03.00'' Est, 48° 56' 37.00'' Nord";"93071";;"42 R CURIE";"93270";"SEVRAN";"Immeuble"; 36.0;"Société HLM"
822859;2.45778;48.88778;"02° 27' 28.00'' Est, 48° 53' 16.00'' Nord";"93053";;"1 ALLÉE MANSART FOYER NOISEEN";"93130";"NOISY-LE-SEC";"Immeuble"; 51.0;"Société HLM"
822861;2.46778;48.91833;"02° 28' 04.00'' Est, 48° 55' 06.00'' Nord";"93029";;"R DE L'ARGONNE";"93700";"DRANCY";"Immeuble"; 49.7;"Société HLM"
822864;2.44639;48.89500;"02° 26' 47.00'' Est, 48° 53' 42.00'' Nord";"93053";;"46 AVE DE BOBIGNY";"93130";"NOISY-LE-SEC";"Pylône tubulaire"; 30.0;"SNCF Réseau"
822870;2.33167;48.90417;"02° 19' 54.00'' Est, 48° 54' 15.00'' Nord";"93070";;"95 AV. GABRIEL PÉRI D.111";"93400";"SAINT-OUEN";"Immeuble"; 33.0;"Copropriété, Syndic, SCI"
823451;2.36250;48.95722;"02° 21' 45.00'' Est, 48° 57' 26.00'' Nord";"93059";;"13 R PIERRE DE GEYTER";"93380";"PIERREFITTE-SUR-SEINE";"Pylône autostable"; 15.0;"ORANGE"
823464;2.53861;48.84861;"02° 32' 19.00'' Est, 48° 50' 55.00'' Nord";"93051";;"73 RTE DE NEUILLY";"93160";"NOISY-LE-GRAND";"Immeuble"; 14.0;"Copropriété, Syndic, SCI"
823475;2.56667;49.00250;"02° 33' 60.00'' Est, 49° 00' 09.00'' Nord";"93073";;"AÉROPORT CDG AÉROGARE 2 TERMINAL C";"93290";"TREMBLAY-EN-FRANCE";"Bâtiment"; 15.0;"CCI,Ch Metiers,Port Aut,Aérop"
823477;2.56306;49.00444;"02° 33' 47.00'' Est, 49° 00' 16.00'' Nord";"93073";;"AÉROPORT CDG AÉROGARE 2 TERMINAL B";"93290";"TREMBLAY-EN-FRANCE";"Bâtiment"; 15.0;"CCI,Ch Metiers,Port Aut,Aérop"
823479;2.53056;48.94222;"02° 31' 50.00'' Est, 48° 56' 32.00'' Nord";"93071";;"5 R HENRI BECQUEREL";"93270";"SEVRAN";"Pylône autostable"; 30.0;"ORANGE"
823485;2.53000;48.93444;"02° 31' 48.00'' Est, 48° 56' 04.00'' Nord";"93071";;"24 BD  STALINGRAD";"93270";"SEVRAN";"Bâtiment"; 17.0;"Association"
823487;2.45694;48.92222;"02° 27' 25.00'' Est, 48° 55' 20.00'' Nord";"93029";;"208 R HENRI BARBUSSE";"93700";"DRANCY";"Immeuble"; 32.0;"Société HLM"
823491;2.47917;48.87667;"02° 28' 45.00'' Est, 48° 52' 36.00'' Nord";"93064";;"7 R DE METZ";"93110";"ROSNY-SOUS-BOIS";"Immeuble"; 19.0;"Copropriété, Syndic, SCI"
823495;2.41861;48.86472;"02° 25' 07.00'' Est, 48° 51' 53.00'' Nord";"93006";;"1, R ROBESPIERRE";"93170";"BAGNOLET";"Pylône autostable"; 24.0;"ORANGE"
823497;2.32972;48.94889;"02° 19' 47.00'' Est, 48° 56' 56.00'' Nord";"93031";;"51 53 BD FOCH RÉSIDENCE LA BRICHE";"93800";"EPINAY-SUR-SEINE";"Immeuble"; 39.0;"Copropriété, Syndic, SCI"
823501;2.56111;48.83917;"02° 33' 40.00'' Est, 48° 50' 21.00'' Nord";"93051";;"13 AV DU PAVÉ NEUF";"93160";"NOISY-LE-GRAND";"Immeuble"; 28.0;"Copropriété, Syndic, SCI"
823507;2.56056;48.89278;"02° 33' 38.00'' Est, 48° 53' 34.00'' Nord";"93047";;"111 AV DANIEL PERDRIGE STADE";"93370";"MONTFERMEIL";"Pylône autostable"; 26.0;"ORANGE"
823513;2.51000;48.87333;"02° 30' 36.00'' Est, 48° 52' 24.00'' Nord";"93049";;"13 AV DANIEL PERDRIGE";"93360";"NEUILLY-PLAISANCE";"Immeuble"; 22.0;"Copropriété, Syndic, SCI"
823523;2.39417;48.90917;"02° 23' 39.00'' Est, 48° 54' 33.00'' Nord";"93001";;"21 R DE LA MOTTE";"93300";"AUBERVILLIERS";"Pylône autostable"; 53.0;"ORANGE Services Fixes"
823541;2.30556;48.95833;"02° 18' 20.00'' Est, 48° 57' 30.00'' Nord";"93031";;"145 AV. DELATTRE DE TASSIGNY SHUGARD";"93800";"EPINAY-SUR-SEINE";"Bâtiment"; 14.0;"Société Privée SA"
823543;2.50333;48.93750;"02° 30' 12.00'' Est, 48° 56' 15.00'' Nord";"93005";;"17 R DE LA ROSERAIE";"93600";"AULNAY-SOUS-BOIS";"Immeuble"; 33.0;"Société HLM"
823545;2.49306;48.96472;"02° 29' 35.00'' Est, 48° 57' 53.00'' Nord";"93005";;"BD  ANDRÉ CITROEN USINE PSA";"93600";"AULNAY-SOUS-BOIS";"Pylône tubulaire"; 25.0;"ORANGE"
823550;2.44694;48.93278;"02° 26' 49.00'' Est, 48° 55' 58.00'' Nord";"93029";;"CHEM DES BARRIÈRES/ CHEM LATÉRAL";"93700";"DRANCY";"Pylône tubulaire"; 20.0;"Commune, communauté de commune"
823553;2.50222;48.97306;"02° 30' 08.00'' Est, 48° 58' 23.00'' Nord";"93078";;"154 ALLÉE DES ERABLES";"93420";"VILLEPINTE";"Pylône tubulaire"; 15.0;"ORANGE"
823562;2.46472;48.90222;"02° 27' 53.00'' Est, 48° 54' 08.00'' Nord";"93053";;"8 R JEAN RENOIR";"93130";"NOISY-LE-SEC";"Immeuble"; 47.0;"Société HLM"
823567;2.49417;48.88861;"02° 29' 39.00'' Est, 48° 53' 19.00'' Nord";"93077";;"89 R DE LA FOSSE AUX BERGERS";"93250";"VILLEMOMBLE";"Immeuble"; 34.0;"Société HLM"
823571;2.41000;48.91972;"02° 24' 36.00'' Est, 48° 55' 11.00'' Nord";"93027";;"36 38 AV PAUL VAILLANT-COUTURIER";"93120";"LA COURNEUVE";"Immeuble"; 24.0;"Copropriété, Syndic, SCI"
823573;2.59528;48.94000;"02° 35' 43.00'' Est, 48° 56' 24.00'' Nord";"93073";;"146 R DE BRETAGNE STADE FERNAND NOEL";"93290";"TREMBLAY-EN-FRANCE";"Pylône autostable"; 25.0;"Commune, communauté de commune"
823575;2.51472;48.93583;"02° 30' 53.00'' Est, 48° 56' 09.00'' Nord";"93071";;"10 R PIERRE BROSSOLETTE";"93270";"SEVRAN";"Immeuble"; 30.0;"Société HLM"
823581;2.56639;49.00500;"02° 33' 59.00'' Est, 49° 00' 18.00'' Nord";"93073";;"AÉROPORT CDG AÉROGARE 2 TERMINAL D";"93290";"TREMBLAY-EN-FRANCE";"Bâtiment"; 14.2;"CCI,Ch Metiers,Port Aut,Aérop"
823583;2.47833;48.87444;"02° 28' 42.00'' Est, 48° 52' 28.00'' Nord";"93064";;"37 R JULES FERRY CENTRAL TÉLÉPHONIQUE";"93110";"ROSNY-SOUS-BOIS";"Bâtiment"; 22.0;"ORANGE Services Fixes"
823591;2.56222;49.00222;"02° 33' 44.00'' Est, 49° 00' 08.00'' Nord";"93073";"AÉROPORT CDG";"AÉROGARE 2 TERMINAL A";"93290";"TREMBLAY-EN-FRANCE";"Bâtiment"; 15.0;"CCI,Ch Metiers,Port Aut,Aérop"
823892;2.44639;48.92222;"02° 26' 47.00'' Est, 48° 55' 20.00'' Nord";"93029";;"2 R DE LA HAUTE BORNE 5 AV JEAN JAURES";"93700";"DRANCY";"Bâtiment"; 28.0;"Société HLM"
827970;2.42389;48.91417;"02° 25' 26.00'' Est, 48° 54' 51.00'' Nord";"93008";;"125 R DE STALINGRAD HOP AVICIENNE";"93000";"BOBIGNY";"Immeuble"; 40.0;"Etablissement de soins"
828525;2.35250;48.92250;"02° 21' 09.00'' Est, 48° 55' 21.00'' Nord";"93066";;"Z.A. LANDY (GDF) TALUS A A86";"93210";"SAINT-DENIS";"Mât"; 3.0;"ORANGE"
833691;2.45611;48.94056;"02° 27' 22.00'' Est, 48° 56' 26.00'' Nord";"93007";;"66 AVENUE CHARLES FLOQUET";"93150";"LE BLANC-MESNIL";"Bâtiment"; 20.0;"Société HLM"
833755;2.43389;48.92111;"02° 26' 02.00'' Est, 48° 55' 16.00'' Nord";"93029";;"57, R DANTON";"93700";"DRANCY";"Immeuble"; 20.0;"Société HLM"
835335;2.42778;48.92806;"02° 25' 40.00'' Est, 48° 55' 41.00'' Nord";"93029";;"R EMMANUEL VINSON";"93700";"DRANCY";"Immeuble"; 26.0;"Société HLM"
836212;2.38472;48.95528;"02° 23' 05.00'' Est, 48° 57' 19.00'' Nord";"93072";;"29 AV LOUIS BORDES";"93240";"STAINS";"Immeuble"; 22.0;"Copropriété, Syndic, SCI"
836223;2.38944;48.90750;"02° 23' 22.00'' Est, 48° 54' 27.00'' Nord";"93001";;"1 ALL DE FONTAINEBLEAU";"93300";"AUBERVILLIERS";"Immeuble"; 27.0;"Société Privée SA"
836244;2.52222;48.86000;"02° 31' 20.00'' Est, 48° 51' 36.00'' Nord";"93050";;"PL DE LA GARE BAT E4";"93330";"NEUILLY-SUR-MARNE";"Immeuble"; 31.0;"Copropriété, Syndic, SCI"
836246;2.48861;48.95028;"02° 29' 19.00'' Est, 48° 57' 01.00'' Nord";"93005";;"11 R DE MADRID";"93600";"AULNAY-SOUS-BOIS";"Immeuble"; 32.0;"Société HLM"
836252;2.41889;48.86056;"02° 25' 08.00'' Est, 48° 51' 38.00'' Nord";"93006";;"62 AV DE LA RÉPUBLIQUE";"93170";"BAGNOLET";"Immeuble"; 26.0;"Copropriété, Syndic, SCI"
836256;2.45833;48.88417;"02° 27' 30.00'' Est, 48° 53' 03.00'' Nord";"93053";;"3 ALL DES VIOLETTES";"93130";"NOISY-LE-SEC";"Immeuble"; 30.0;"Copropriété, Syndic, SCI"
836258;2.56139;48.82972;"02° 33' 41.00'' Est, 48° 49' 47.00'' Nord";"93051";;"14 R DES HETRES";"93160";"NOISY-LE-GRAND";"Immeuble"; 18.0;"Copropriété, Syndic, SCI"
836268;2.33889;48.90667;"02° 20' 20.00'' Est, 48° 54' 24.00'' Nord";"93070";;"21 R BLANQUI";"93400";"SAINT-OUEN";"Immeuble"; 28.0;"Société Privée SA"
836270;2.53861;48.92778;"02° 32' 19.00'' Est, 48° 55' 40.00'' Nord";"93071";;"27 AV DE BRETAGNE";"93270";"SEVRAN";"Bâtiment"; 19.0;"Copropriété, Syndic, SCI"
836274;2.43556;48.92889;"02° 26' 08.00'' Est, 48° 55' 44.00'' Nord";"93029";;"46 AV MARCEAU";"93700";"DRANCY";"Immeuble"; 29.0;"Société Privée SA"
836280;2.56472;49.00417;"02° 33' 53.00'' Est, 49° 00' 15.00'' Nord";"93073";"ROISSY CDG";"AÉROGARE 2 TOUR L B";"93290";"TREMBLAY-EN-FRANCE";"Immeuble"; 32.0;"CCI,Ch Metiers,Port Aut,Aérop"
836291;2.56028;48.83972;"02° 33' 37.00'' Est, 48° 50' 23.00'' Nord";"93051";;"7 AV DU PAVÉ NEUF";"93160";"NOISY-LE-GRAND";"Immeuble"; 27.0;"Copropriété, Syndic, SCI"
836293;2.34778;48.90167;"02° 20' 52.00'' Est, 48° 54' 06.00'' Nord";"93070";;"40 R DU PR GOSSET";"93400";"SAINT-OUEN";"Immeuble"; 21.0;"Copropriété, Syndic, SCI"
836295;2.40194;48.91833;"02° 24' 07.00'' Est, 48° 55' 06.00'' Nord";"93001";;"1 ALLÉE PAUL ELUARD";"93300";"AUBERVILLIERS";"Immeuble"; 36.0;"Société HLM"
836297;2.42889;48.93861;"02° 25' 44.00'' Est, 48° 56' 19.00'' Nord";"93013";;"123 AV DE LA DIVISION LECLERC";"93350";"LE BOURGET";"Immeuble"; 26.0;"Copropriété, Syndic, SCI"
836307;2.56556;48.94528;"02° 33' 56.00'' Est, 48° 56' 43.00'' Nord";"93078";;"7 AV DE LA GARE HOTEL";"93420";"VILLEPINTE";"Immeuble"; 17.0;"Société Privée SA"
836309;2.35889;48.95556;"02° 21' 32.00'' Est, 48° 57' 20.00'' Nord";"93059";;"135 AV LENINE";"93380";"PIERREFITTE-SUR-SEINE";"Immeuble"; 35.0;"Copropriété, Syndic, SCI"
836315;2.56972;48.89806;"02° 34' 11.00'' Est, 48° 53' 53.00'' Nord";"93047";;"R DU VIEUX CHATEAU DE L'ABIME BAT C";"93370";"MONTFERMEIL";"Immeuble"; 38.0;"Copropriété, Syndic, SCI"
836345;2.32083;48.90361;"02° 19' 15.00'' Est, 48° 54' 13.00'' Nord";"93070";;"169 BD VICTOR HUGO OPHLM DE ST OUEN";"93400";"SAINT-OUEN";"Immeuble"; 30.0;"Société HLM"
836347;2.47778;48.91333;"02° 28' 40.00'' Est, 48° 54' 48.00'' Nord";"93010";;"7 R LÉON BLUM";"93140";"BONDY";"Immeuble"; 39.0;"Société HLM"
836355;2.50417;48.90361;"02° 30' 15.00'' Est, 48° 54' 13.00'' Nord";"93057";;"66 R PIERRE BROSSOLETTE";"93320";"LES PAVILLONS-SOUS-BOIS";"Immeuble"; 23.0;"Copropriété, Syndic, SCI"
836381;2.55972;48.89333;"02° 33' 35.00'' Est, 48° 53' 36.00'' Nord";"93047";;"111 AV DANIEL PERDRIGE STADE";"93370";"MONTFERMEIL";"Pylône autostable"; 27.0;"BOUYGUES"
836398;2.56333;49.00889;"02° 33' 48.00'' Est, 49° 00' 32.00'' Nord";"93073";;"20 R DE PARIS";"93290";"TREMBLAY-EN-FRANCE";"Immeuble"; 45.0;"CCI,Ch Metiers,Port Aut,Aérop"
836831;2.39861;48.91250;"02° 23' 55.00'' Est, 48° 54' 45.00'' Nord";"93001";;"2  R HENRI MANIGART";"93300";"AUBERVILLIERS";"Immeuble"; 29.0;"Société HLM"
837051;2.55111;48.90500;"02° 33' 04.00'' Est, 48° 54' 18.00'' Nord";"93014";;"8 ALLÉE ROMAIN ROLLAND R ETIENNE LAURENT";"93390";"CLICHY-SOUS-BOIS";"Bâtiment"; 18.0;"Copropriété, Syndic, SCI"
841123;2.47389;48.92694;"02° 28' 26.00'' Est, 48° 55' 37.00'' Nord";"93007";;"2 PL DE BRETAGNE  RÉSIDENCE LES QUATRE TOURS -BÂTIMENT  H";"93150";"LE BLANC-MESNIL";"Immeuble"; 47.0;"Société HLM"
841128;2.39417;48.91417;"02° 23' 39.00'' Est, 48° 54' 51.00'' Nord";"93001";;"11, R DE L'ABEILLE";"93300";"AUBERVILLIERS";"Immeuble"; 29.0;"Société HLM"
841173;2.43667;48.93972;"02° 26' 12.00'' Est, 48° 56' 23.00'' Nord";"93007";;"7/9 R DU PARC ZAC DE LA MOLETTE";"93150";"LE BLANC-MESNIL";"Pylône tubulaire"; 26.0;"ORANGE"
841186;2.49278;48.92056;"02° 29' 34.00'' Est, 48° 55' 14.00'' Nord";"93005";;"205 AV DE NONNEVILLE";"93600";"AULNAY-SOUS-BOIS";"Bâtiment"; 12.0;"Société Privée SA"
846558;2.47694;48.88361;"02° 28' 37.00'' Est, 48° 53' 01.00'' Nord";"93064";;"2 AV DU GL DE GAULLE CCAL ROSNY 2";"93110";"ROSNY-SOUS-BOIS";"Bâtiment"; 15.0;"Société Privée SA"
850186;2.48833;48.87194;"02° 29' 18.00'' Est, 48° 52' 19.00'' Nord";"93064";;"20, R ROCHEBRUNE HÔTEL DE VILLE";"93110";"ROSNY-SOUS-BOIS";"Immeuble"; 35.1;"Commune, communauté de commune"
850713;2.42417;48.89389;"02° 25' 27.00'' Est, 48° 53' 38.00'' Nord";"93055";;"22, 26 R ANATOLE FRANCE RES LES HORIZONS";"93500";"PANTIN";"Immeuble"; 45.0;"Copropriété, Syndic, SCI"
858180;2.42861;48.86639;"02° 25' 43.00'' Est, 48° 51' 59.00'' Nord";"93048";;"SQ JEAN ZAY 5";"93100";"MONTREUIL";"Immeuble"; 34.5;"Société HLM"
868995;2.41694;48.85500;"02° 25' 01.00'' Est, 48° 51' 18.00'' Nord";"93048";;"280 R DE PARIS -  CCAL CARREFOUR";"93100";"MONTREUIL";"Bâtiment"; 11.0;"Société Privée SA"
871134;2.51750;48.94556;"02° 31' 03.00'' Est, 48° 56' 44.00'' Nord";"93071";;"2 ALLÉE JACQUES CARTIER LES BEAUDOTTES IMM I3F";"93270";"SEVRAN";"Immeuble"; 50.0;"Société Privée SA"
871156;2.42833;48.92139;"02° 25' 42.00'' Est, 48° 55' 17.00'' Nord";"93029";;"89 R DIDEROT LA MARE GALOPIN";"93700";"DRANCY";"Immeuble"; 20.0;"Société HLM"
871158;2.31417;48.95250;"02° 18' 51.00'' Est, 48° 57' 09.00'' Nord";"93031";;"11 R DE PARIS";"93800";"EPINAY-SUR-SEINE";"Immeuble"; 39.6;"Société HLM"
871160;2.45611;48.88167;"02° 27' 22.00'' Est, 48° 52' 54.00'' Nord";"93053";;"3 ALLÉE DE BOURGOGNE";"93130";"NOISY-LE-SEC";"Immeuble"; 33.0;"Société HLM"
871162;2.53444;48.92778;"02° 32' 04.00'' Est, 48° 55' 40.00'' Nord";"93071";;"10 AV DU GROS CHÊNE";"93270";"SEVRAN";"Immeuble"; 17.0;"Société HLM"
871170;2.37833;48.91917;"02° 22' 42.00'' Est, 48° 55' 09.00'' Nord";"93001";;"89/97, R HEURTAULT BÂTIMENT B";"93300";"AUBERVILLIERS";"Immeuble"; 28.5;"Société HLM"
871172;2.47889;48.89806;"02° 28' 44.00'' Est, 48° 53' 53.00'' Nord";"93010";;"107 R DE LA RÉPUBLIQUE";"93140";"BONDY";"Immeuble"; 28.0;"Copropriété, Syndic, SCI"
871174;2.34778;48.90278;"02° 20' 52.00'' Est, 48° 54' 10.00'' Nord";"93070";;"162, R DU DR BAUER";"93400";"SAINT-OUEN";"Immeuble"; 34.0;"Société Privée SA"
871177;2.51611;48.89861;"02° 30' 58.00'' Est, 48° 53' 55.00'' Nord";"93062";;"121, AV DE LA RÉSISTANCE HÔTEL DE VILLE";"93340";"LE RAINCY";"Immeuble"; 36.0;"Commune, communauté de commune"
871183;2.48889;48.89750;"02° 29' 20.00'' Est, 48° 53' 51.00'' Nord";"93010";;"8, R LUTHER KING";"93140";"BONDY";"Immeuble"; 37.0;"Société HLM"
871195;2.55472;48.90417;"02° 33' 17.00'' Est, 48° 54' 15.00'' Nord";"93014";;"1 ALLÉE ROMAIN ROLLAND";"93390";"CLICHY-SOUS-BOIS";"Immeuble"; 36.2;"Société HLM"
871197;2.54444;48.94667;"02° 32' 40.00'' Est, 48° 56' 48.00'' Nord";"93071";;"CHEM DU MARAIS DU SOUCI PARC DES SPORTS JEAN GUIMIER";"93270";"SEVRAN";"Pylône tubulaire"; 30.0;"SFR"
871199;2.41639;48.95778;"02° 24' 59.00'' Est, 48° 57' 28.00'' Nord";"93030";;"2 R DU 19 MARS 1962";"93440";"DUGNY";"Immeuble"; 20.0;"Société HLM"
871202;2.43639;48.92472;"02° 26' 11.00'' Est, 48° 55' 29.00'' Nord";"93029";;"113 R DE LA RÉPUBLIQUE";"93700";"DRANCY";"Immeuble"; 19.0;"Copropriété, Syndic, SCI"
871219;2.53111;48.93861;"02° 31' 52.00'' Est, 48° 56' 19.00'' Nord";"93071";;"14 / 20 R GABRIEL PÉRI";"93270";"SEVRAN";"Immeuble"; 19.0;"Copropriété, Syndic, SCI"
871225;2.46806;48.89444;"02° 28' 05.00'' Est, 48° 53' 40.00'' Nord";"93053";;"32 R JEAN MERMOZ";"93130";"NOISY-LE-SEC";"Immeuble"; 19.0;"Société HLM"
871227;2.38389;48.91611;"02° 23' 02.00'' Est, 48° 54' 58.00'' Nord";"93001";;"15 R DE LA COURNEUVE";"93300";"AUBERVILLIERS";"Immeuble"; 18.0;"Copropriété, Syndic, SCI"
871229;2.44694;48.91556;"02° 26' 49.00'' Est, 48° 54' 56.00'' Nord";"93029";;"15/17 R DE LA SOLIDARITÉ";"93700";"DRANCY";"Immeuble"; 16.3;"Copropriété, Syndic, SCI"
871231;2.34361;48.96306;"02° 20' 37.00'' Est, 48° 57' 47.00'' Nord";"93079";;"5, PL JB CLEMENT";"93430";"VILLETANEUSE";"Immeuble"; 23.0;"Société HLM"
871235;2.49639;48.93389;"02° 29' 47.00'' Est, 48° 56' 02.00'' Nord";"93005";;"21 R DU COMMANDANT BRASSEUR";"93600";"AULNAY-SOUS-BOIS";"Immeuble"; 20.0;"Copropriété, Syndic, SCI"
871239;2.33694;48.90306;"02° 20' 13.00'' Est, 48° 54' 11.00'' Nord";"93070";;"5 R JULES VALLES";"93400";"SAINT-OUEN";"Bâtiment"; 20.0;"Copropriété, Syndic, SCI"
871243;2.53250;48.84722;"02° 31' 57.00'' Est, 48° 50' 50.00'' Nord";"93051";;"1, CHEM DES DAMES";"93160";"NOISY-LE-GRAND";"Immeuble"; 20.0;"Société HLM"
871253;2.32722;48.91917;"02° 19' 38.00'' Est, 48° 55' 09.00'' Nord";"93039";;"7/9/11 BD MARCEL PAUL OPHLM DE ST OUEN";"93450";"L'ILE-SAINT-DENIS";"Bâtiment"; 58.0;"Société HLM"
871257;2.52639;48.85583;"02° 31' 35.00'' Est, 48° 51' 21.00'' Nord";"93050";;"1 B  R DES MARTYRS DE LA DÉPORTATION";"93330";"NEUILLY-SUR-MARNE";"Immeuble"; 15.0;"Particulier"
871259;2.47361;48.95333;"02° 28' 25.00'' Est, 48° 57' 12.00'' Nord";"93005";;"A3 - SENS EXTÉRIEUR - PR 13,2 AU DESSUS BLD ANDRE CITROEN";"93600";"AULNAY-SOUS-BOIS";"Ouvrage d'art (pont, viaduc)"; 11.1;"DDE"
871954;2.54333;48.83694;"02° 32' 36.00'' Est, 48° 50' 13.00'' Nord";"93051";;"A4, SENS W - PR 12,47 SENS PROVINCE-PARIS PRES R DU REMPART";"93160";"NOISY-LE-GRAND";"Ouvrage d'art (pont, viaduc)"; 6.9;"DDE"
871958;2.50222;48.97028;"02° 30' 08.00'' Est, 48° 58' 13.00'' Nord";"93078";;"ZAC PARIS NORD II // PR1.1 SENS EXTÉRIEUR A104 SENS PARIS-LILLE";"93420";"VILLEPINTE";"Ouvrage de signalisation (portique routier, panneau routier, panneau publicitaire)"; 10.3;"DDE"
871962;2.48222;48.87083;"02° 28' 56.00'' Est, 48° 52' 15.00'' Nord";"93064";;"A86 PR 17- SENS A3 / A4 PR 17- SENS A3 / A4";"93110";"ROSNY-SOUS-BOIS";"Ouvrage d'art (pont, viaduc)"; 6.9;"DDE"
871967;2.47333;48.88694;"02° 28' 24.00'' Est, 48° 53' 13.00'' Nord";"93053";;"A3 -  PR 13,3";"93130";"NOISY-LE-SEC";"Ouvrage d'art (pont, viaduc)"; 10.7;"DDE"
871969;2.46250;48.95750;"02° 27' 45.00'' Est, 48° 57' 27.00'' Nord";"93005";;"A1 - SENS PARIS/PROVINCE (Y) - PR 11.5";"93600";"AULNAY-SOUS-BOIS";"Mât béton"; 8.0;"DDE"
871974;2.42611;48.86667;"02° 25' 34.00'' Est, 48° 52' 00.00'' Nord";"93006";;"A A3 - SENS PARIS/PROVINCE (Y)- PR 1.1 PRÈS DE L'AV CH. DELESGLUZE";"93170";"BAGNOLET";"Mât béton"; 14.0;"DDE"
871977;2.39667;48.92611;"02° 23' 48.00'' Est, 48° 55' 34.00'' Nord";"93027";;"EMPRISE AUTOROUTIÈRE A86 PONT PALMERS";"93120";"LA COURNEUVE";"Ouvrage d'art (pont, viaduc)"; 8.1;"DDE"
871987;2.38222;48.96500;"02° 22' 56.00'' Est, 48° 57' 54.00'' Nord";"93072";;"12 R DU HAMEAU";"93240";"STAINS";"Immeuble"; 16.5;"Particulier"
881950;2.42917;48.88194;"02° 25' 45.00'' Est, 48° 52' 55.00'' Nord";"93063";;"108-110 AV DE VERDUN";"93230";"ROMAINVILLE";"Immeuble"; 29.0;"Copropriété, Syndic, SCI"
889736;2.35833;48.94611;"02° 21' 30.00'' Est, 48° 56' 46.00'' Nord";"93066";;"39 BD LENINE DEPOT DE BUS";"93200";"SAINT-DENIS";"Bâtiment"; 36.0;"RATP"
890385;2.51389;48.85361;"02° 30' 50.00'' Est, 48° 51' 13.00'' Nord";"93049";;"1 AV GALLIENI GARE";"93360";"NEUILLY-PLAISANCE";"Bâtiment"; 6.0;"RATP"
890389;2.54722;48.84083;"02° 32' 50.00'' Est, 48° 50' 27.00'' Nord";"93051";;"ESPLANADE DE LA VILLE DE PARIS GARE";"93160";"NOISY-LE-GRAND";"Bâtiment"; 4.0;"RATP"
890695;2.44667;48.86722;"02° 26' 48.00'' Est, 48° 52' 02.00'' Nord";"93048";;"R DE ROMAINVILLE 75/77";"93100";"MONTREUIL";"Bâtiment"; 24.2;"Copropriété, Syndic, SCI"
891952;2.46583;48.91306;"02° 27' 57.00'' Est, 48° 54' 47.00'' Nord";"93008";;"1 R HENRY CLAUSSE";"93000";"BOBIGNY";"Immeuble"; 19.4;"Copropriété, Syndic, SCI"
891990;2.48889;48.88806;"02° 29' 20.00'' Est, 48° 53' 17.00'' Nord";"93077";;"16 R DENIS PAPIN";"93250";"VILLEMOMBLE";"Immeuble"; 47.0;"Copropriété, Syndic, SCI"
894809;2.57806;48.84250;"02° 34' 41.00'' Est, 48° 50' 33.00'' Nord";"93051";;"ALLEE MARCEL PAGNOL GARE";"93160";"NOISY-LE-GRAND";"Bâtiment"; 11.0;"RATP"
899260;2.33222;48.95167;"02° 19' 56.00'' Est, 48° 57' 06.00'' Nord";"93031";;"AV DE JARROW 3";"93800";"EPINAY-SUR-SEINE";"Bâtiment"; 52.4;"Société Privée SA"
900816;2.45306;48.94861;"02° 27' 11.00'' Est, 48° 56' 55.00'' Nord";"93007";;"AV DES CARTES LES HALLES D AUCHAN";"93150";"LE BLANC-MESNIL";"Bâtiment"; 2.0;"Société Privée SA"
906162;2.38917;48.94611;"02° 23' 21.00'' Est, 48° 56' 46.00'' Nord";"93072";;"90-100 R VICTOR RENELLE";"93240";"STAINS";"Bâtiment"; 34.5;"Société HLM"
906164;2.48722;48.93056;"02° 29' 14.00'' Est, 48° 55' 50.00'' Nord";"93005";;"19 ROUTES DES PETITS PONTS";"93600";"AULNAY-SOUS-BOIS";"Bâtiment"; 25.0;"Société HLM"
908320;2.56111;48.89361;"02° 33' 40.00'' Est, 48° 53' 37.00'' Nord";"93047";;"AV DANIEL PERDRIGE 111";"93370";"MONTFERMEIL";"Pylône tubulaire"; 26.0;"Commune, communauté de commune"
909737;2.32167;48.90472;"02° 19' 18.00'' Est, 48° 54' 17.00'' Nord";"93070";;"150 BD VICTOR HUGO";"93400";"SAINT-OUEN";"Bâtiment"; 15.0;"Société Privée SA"
911662;2.58194;48.82361;"02° 34' 55.00'' Est, 48° 49' 25.00'' Nord";"93051";"PARKING DE LA GARE";"AV DU BOIS ST MARTIN";"93160";"NOISY-LE-GRAND";"Pylône tubulaire"; 32.0;"Commune, communauté de commune"
912415;2.50583;48.85694;"02° 30' 21.00'' Est, 48° 51' 25.00'' Nord";"93049";;"78 AV DU PRÉSIDENT ROOSEVELT";"93360";"NEUILLY-PLAISANCE";"Immeuble"; 24.0;"Copropriété, Syndic, SCI"
912936;2.48944;48.97111;"02° 29' 22.00'' Est, 48° 58' 16.00'' Nord";"93005";;"9001 BD ANDRE CITROEN PSA";"93600";"AULNAY-SOUS-BOIS";"Pylône tubulaire"; 26.6;"FPS TOWERS"
923872;2.46111;48.94750;"02° 27' 40.00'' Est, 48° 56' 51.00'' Nord";"93007";;"ALLÉE DES DROITS DE L'HOMME";"93150";"LE BLANC-MESNIL";"Château d'eau - réservoir"; 40.0;"Syndicat des eaux, Adduction"
924519;2.51361;48.97806;"02° 30' 49.00'' Est, 48° 58' 41.00'' Nord";"93073";;"89 R DES CHARDONNERETS ZI PARIS NORD II";"93290";"TREMBLAY-EN-FRANCE";"Bâtiment"; 6.0;"Société Privée SA"
924521;2.41583;48.87944;"02° 24' 57.00'' Est, 48° 52' 46.00'' Nord";"93045";;"96 ROUTE DE PARIS MAIRIE";"93260";"LES LILAS";"Bâtiment"; 10.0;"Commune, communauté de commune"
924523;2.33333;48.91306;"02° 20' 00.00'' Est, 48° 54' 47.00'' Nord";"93070";;"4 R ADRIEN MESLIER TOUR CARAT";"93400";"SAINT-OUEN";"Immeuble"; 42.0;"Commune, communauté de commune"
930282;2.53750;48.89361;"02° 32' 15.00'' Est, 48° 53' 37.00'' Nord";"93032";;"1 DOMAINE DE LA DHUYS";"93220";"GAGNY";"Immeuble"; 18.0;"Société HLM"
939342;2.39111;48.90417;"02° 23' 28.00'' Est, 48° 54' 15.00'' Nord";"93001";;"136 AV DE LA REPUBLIQUE";"93300";"AUBERVILLIERS";"Immeuble"; 24.0;"Copropriété, Syndic, SCI"
940362;2.36444;48.95167;"02° 21' 52.00'' Est, 48° 57' 06.00'' Nord";"93059";;"1, PL EDOUARD BRANLY";"93380";"PIERREFITTE-SUR-SEINE";"Pylône autostable"; 31.3;"Copropriété, Syndic, SCI"
954792;2.51111;48.97111;"02° 30' 40.00'' Est, 48° 58' 16.00'' Nord";"93078";;"9 R DES 3 SOEURS BAT ARTVAL";"93420";"VILLEPINTE";"Immeuble"; 23.0;"Société Privée SA"
954794;2.56639;49.01000;"02° 33' 59.00'' Est, 49° 00' 36.00'' Nord";"93073";"R DE MADRID";"BAT 6050 SIEGE CDG";"93290";"TREMBLAY-EN-FRANCE";"Immeuble"; 27.0;"Société Privée SA"
954796;2.56306;49.00889;"02° 33' 47.00'' Est, 49° 00' 32.00'' Nord";"93073";"R DE PARIS";"BAT PEGASE CDG SIEGE AF";"93290";"TREMBLAY-EN-FRANCE";"Immeuble"; 27.0;"Société Privée SA"
987942;2.55361;48.96722;"02° 33' 13.00'' Est, 48° 58' 02.00'' Nord";"93078";;"MAISON D'ARRET - AVENUE VAUBAN CAG";"93420";"VILLEPINTE";"Bâtiment"; 13.0;"Etat, Ministère"
987944;2.55361;48.96722;"02° 33' 13.00'' Est, 48° 58' 02.00'' Nord";"93078";;"MAISON D'ARRET -AVENUE VAUBAN PCI";"93420";"VILLEPINTE";"Bâtiment"; 13.0;"Etat, Ministère"
987946;2.55361;48.96722;"02° 33' 13.00'' Est, 48° 58' 02.00'' Nord";"93078";;"MAISON D'ARRET- AVENUE VAUBAN BAT.A";"93420";"VILLEPINTE";"Bâtiment"; 13.0;"Etat, Ministère"
987948;2.55361;48.96722;"02° 33' 13.00'' Est, 48° 58' 02.00'' Nord";"93078";;"MAISON D'ARRET - AVENUE VAUBAN BAT.B";"93420";"VILLEPINTE";"Bâtiment"; 13.0;"Etat, Ministère"
987966;2.56472;49.00389;"02° 33' 53.00'' Est, 49° 00' 14.00'' Nord";"93073";;"AEROGARE 2BD NIVEAU TERRASSE LOCAL RADIO 5H272 TERM 2B";"93290";"TREMBLAY-EN-FRANCE";"Bâtiment"; 22.0;"CCI,Ch Metiers,Port Aut,Aérop"
987968;2.56444;49.00278;"02° 33' 52.00'' Est, 49° 00' 10.00'' Nord";"93073";;"AEROPORT CHARLES DE GAULLE AEROGARE N 2 EXTERIEUR";"93290";"TREMBLAY-EN-FRANCE";"Bâtiment"; 33.0;"CCI,Ch Metiers,Port Aut,Aérop"
988162;2.55167;48.95556;"02° 33' 06.00'' Est, 48° 57' 20.00'' Nord";"93078";;"8 RUE CELESTIN FREINET";"93420";"VILLEPINTE";"Bâtiment"; 15.0;"Société Privée SA"
989587;2.45278;48.87778;"02° 27' 10.00'' Est, 48° 52' 40.00'' Nord";"93048";;"56 BD DE LA BOISSIERE CHI ANDRE GREGOIRE";"93100";"MONTREUIL";"Immeuble"; 35.0;"Etablissement de soins"
991359;2.31722;48.95944;"02° 19' 02.00'' Est, 48° 57' 34.00'' Nord";"93031";;"7 RUE LA BRUYERE";"93800";"EPINAY-SUR-SEINE";"Bâtiment"; 36.0;"Copropriété, Syndic, SCI"
992747;2.34444;48.96389;"02° 20' 40.00'' Est, 48° 57' 50.00'' Nord";"93079";;"50 RUE ROGER SALENGRO";"93430";"VILLETANEUSE";"Bâtiment"; 25.8;"Société Privée SA"
992749;2.34194;48.95111;"02° 20' 31.00'' Est, 48° 57' 04.00'' Nord";"93079";;"3 RUE PAUL LANGEVIN";"93430";"VILLETANEUSE";"Immeuble"; 51.5;"Société HLM"
