Numéro du support;Longitude;Latitude;"Position";"Insee";"Lieu dit";"Adresse";"Code postal";"Commune";"Nature du support";Hauteur en m;"Propriétaire"
44129;2.02750;49.04972;"02° 01' 39.00'' Est, 49° 02' 59.00'' Nord";"95127";;"8 SQ DE L'ECHIQUIER";"95800";"CERGY";"Immeuble"; 21.1;"Société HLM"
44203;2.07056;49.05000;"02° 04' 14.00'' Est, 49° 02' 60.00'' Nord";"95476";;"9, CHAUSSÉE JULES CÉSAR BAT C 310 DU PARC EVOLIC DES BEAUX SOLEILS";"95520";"OSNY";"Bâtiment"; 13.0;"Société Privée SA"
62687;2.31972;49.01306;"02° 19' 11.00'' Est, 49° 00' 47.00'' Nord";"95199";;"5 B , ROUTE STRATÉGIQUE";"95330";"DOMONT";"Pylône autostable"; 30.0;"Titulaire programme Radio/TV"
88805;2.33583;49.02778;"02° 20' 09.00'' Est, 49° 01' 40.00'' Nord";"95199";;"14 R PAUL CEZANNE BAT C";"95330";"DOMONT";"Immeuble"; 20.0;"Société HLM"
88965;2.06556;49.04556;"02° 03' 56.00'' Est, 49° 02' 44.00'' Nord";"95127";;"12 R LINANDES ORANGES";"95800";"CERGY";"Immeuble"; 25.9;"Société Privée SA"
88975;2.44833;49.01528;"02° 26' 54.00'' Est, 49° 00' 55.00'' Nord";"95280";"SABLIÈRE DE LA SEINE";"R DU PONT DE LA BRÈCHE";"95190";"GOUSSAINVILLE";"Silo"; 28.6;"Société Privée SA"
89005;2.56056;49.05528;"02° 33' 38.00'' Est, 49° 03' 19.00'' Nord";"95641";"LES TREMBLEAUX ET ECOSSE FEVES";;"95470";"VEMARS";"Pylône autostable"; 32.5;"SNCF Réseau"
108500;2.53806;49.00750;"02° 32' 17.00'' Est, 49° 00' 27.00'' Nord";"95527";;"AÉOROPORT CHARLES DE GAULLE CHAUFFERIE ZONE CENTRALE OUEST CENTRALE THERMIQUE";"95700";"ROISSY-EN-FRANCE";"Bâtiment"; 23.0;"Société Privée SA"
108580;1.66194;49.13833;"01° 39' 43.00'' Est, 49° 08' 18.00'' Nord";"95101";;"R DES ECOLES";"95710";"BRAY-ET-LU";"Mât"; 17.0;"ORANGE"
108718;2.23722;48.97611;"02° 14' 14.00'' Est, 48° 58' 34.00'' Nord";"95582";;"BRETELLE A115 VERS A15 PT DE L'ERMITAGE";"95110";"SANNOIS";"Ouvrage d'art (pont, viaduc)"; 11.0;"DDE"
134600;1.67583;49.08806;"01° 40' 33.00'' Est, 49° 05' 17.00'' Nord";"95157";;"EGLISE DE CHERENCE";"95510";"CHERENCE";"Monument religieux"; 29.0;"Commune, communauté de commune"
154323;2.24667;49.13833;"02° 14' 48.00'' Est, 49° 08' 18.00'' Nord";"95134";;"STATION POMPAGE";"95660";"CHAMPAGNE-SUR-OISE";"Support non décrit"; 6.0;
154327;2.19861;49.11333;"02° 11' 55.00'' Est, 49° 06' 48.00'' Nord";"95480";;"RESERVOIR";"95620";"PARMAIN";"Support non décrit"; 6.0;
154331;2.23500;49.12778;"02° 14' 06.00'' Est, 49° 07' 40.00'' Nord";"95313";;"USINE DE TRAITEMENT CASSAN";"95290";"L'ISLE-ADAM";"Support non décrit"; 8.0;
154333;2.30111;49.13722;"02° 18' 04.00'' Est, 49° 08' 14.00'' Nord";"95052";;"RESERVOIR";"95260";"BEAUMONT-SUR-OISE";"Support non décrit"; 10.0;
154335;2.31028;49.14833;"02° 18' 37.00'' Est, 49° 08' 54.00'' Nord";"95052";;"STATION DE POMPAGE";"95260";"BEAUMONT-SUR-OISE";"Support non décrit"; 12.0;
154337;2.32417;49.15389;"02° 19' 27.00'' Est, 49° 09' 14.00'' Nord";"95116";;"STATION DE POMPAGE";"95820";"BRUYERES-SUR-OISE";"Support non décrit"; 12.0;
157215;2.24111;48.94361;"02° 14' 28.00'' Est, 48° 56' 37.00'' Nord";"95018";;"69 R DU LT-COL PRUDHON";"95100";"ARGENTEUIL";"Support non décrit"; 20.0;
157381;2.44333;49.01917;"02° 26' 36.00'' Est, 49° 01' 09.00'' Nord";"95280";"ZAE";"R ROBERT MOINON ZAE";"95190";"GOUSSAINVILLE";"Support non décrit"; 15.0;
157383;2.56056;49.00667;"02° 33' 38.00'' Est, 49° 00' 24.00'' Nord";"95527";;"AEROPORT CDG GARE RER";"95700";"ROISSY-EN-FRANCE";"Support non décrit"; 15.0;
162984;2.54167;49.01389;"02° 32' 30.00'' Est, 49° 00' 50.00'' Nord";"95527";;"AIR FRANCE AEROPORT CH DE GAUL";"95700";"ROISSY-EN-FRANCE";"Support non décrit"; 20.0;
166432;2.56611;49.00306;"02° 33' 58.00'' Est, 49° 00' 11.00'' Nord";"95527";;"AEROGARE MODULE K CDG 2";"95700";"ROISSY-EN-FRANCE";"Support non décrit"; 30.0;
176620;2.53889;49.09667;"02° 32' 20.00'' Est, 49° 05' 48.00'' Nord";"95604";;"USINE DES EAUX R CHARLES GAB";"95470";"SURVILLIERS";"Support non décrit"; 5.0;
176626;2.55194;49.03861;"02° 33' 07.00'' Est, 49° 02' 19.00'' Nord";"95154";;"STATION DE POMPAGE SMCA";"95380";"CHENNEVIERES-LES-LOUVRES";"Support non décrit"; 6.0;
176632;2.36528;49.14639;"02° 21' 55.00'' Est, 49° 08' 47.00'' Nord";"95026";;"STATION DE POMPAGE";"95270";"ASNIERES-SUR-OISE";"Support non décrit"; 7.0;
203693;2.08889;49.06083;"02° 05' 20.00'' Est, 49° 03' 39.00'' Nord";"95500";;"8 R ROBERT SCHUMANN";"95300";"PONTOISE";"Support non décrit"; 25.0;
203699;2.08083;49.03722;"02° 04' 51.00'' Est, 49° 02' 14.00'' Nord";"95127";;"8 PL DE LA FONTAINE LE VEXIN";"95800";"CERGY";"Support non décrit"; 30.0;
203705;2.54806;49.01028;"02° 32' 53.00'' Est, 49° 00' 37.00'' Nord";"95527";;"TR CONTROLE AEROGARE CH DE G";"95700";"ROISSY-EN-FRANCE";"Support non décrit"; 20.0;
216918;2.46333;49.01472;"02° 27' 48.00'' Est, 49° 00' 53.00'' Nord";"95280";;"RST CTRE A LGV NORD PK 003.329";"95190";"GOUSSAINVILLE";"Mât"; 10.0;"SNCF Réseau"
216922;2.50833;49.03000;"02° 30' 30.00'' Est, 49° 01' 48.00'' Nord";"95351";;"RST VAL NOEL PRCI PK 007.026";"95380";"LOUVRES";"Mât"; 10.0;"SNCF Réseau"
216926;2.55944;49.05528;"02° 33' 34.00'' Est, 49° 03' 19.00'' Nord";"95641";;"RST VEMARS PRCI 12 PK 011.668";"95470";"VEMARS";"Mât"; 10.0;"SNCF Réseau"
216930;2.42917;49.00222;"02° 25' 45.00'' Est, 49° 00' 08.00'' Nord";"95277";;"RST LA FAUCONNIERE PK 016.100";"95500";"GONESSE";"Mât"; 13.0;"SNCF Réseau"
216934;2.44694;49.01278;"02° 26' 49.00'' Est, 49° 00' 46.00'' Nord";"95280";;"RST GOUSSAINVILLE PK 017.875";"95190";"GOUSSAINVILLE";"Mât"; 10.0;"SNCF Réseau"
216938;2.52000;49.06333;"02° 31' 12.00'' Est, 49° 03' 48.00'' Nord";"95371";;"RST MARLY LA VILLE PK 025.650";"95670";"MARLY-LA-VILLE";"Mât"; 13.0;"SNCF Réseau"
216942;2.52278;49.09028;"02° 31' 22.00'' Est, 49° 05' 25.00'' Nord";"95371";;"RST PONT DES SOUPIRS PK 027.163";"95670";"MARLY-LA-VILLE";"Mât"; 25.0;"SNCF Réseau"
216946;2.32389;49.08222;"02° 19' 26.00'' Est, 49° 04' 56.00'' Nord";"95353";;"RST VILLAINES SOUS BOIS PN 16 PK 026.700";"95560";"MAFFLIERS";"Mât"; 10.0;"SNCF Réseau"
216950;2.36333;49.10111;"02° 21' 48.00'' Est, 49° 06' 04.00'' Nord";"95056";;"RST BELLOY EN FRANCE PK 029.600";"95270";"BELLOY-EN-FRANCE";"Mât"; 10.0;"SNCF Réseau"
216952;2.39833;49.11917;"02° 23' 54.00'' Est, 49° 07' 09.00'' Nord";"95594";;"RST SEUGY PK 033.950";"95270";"SEUGY";"Mât"; 22.0;"SNCF Réseau"
216954;2.36778;48.99583;"02° 22' 04.00'' Est, 48° 59' 45.00'' Nord";"95539";;"RST SARCELLES ST BRICE PK 014.800";"95350";"SAINT-BRICE-SOUS-FORET";"Mât"; 10.0;"SNCF Réseau"
216956;2.32278;49.04444;"02° 19' 22.00'' Est, 49° 02' 40.00'' Nord";"95091";;"RST MOISSELLES BOUFFEMONT PK 022.050";"95570";"BOUFFEMONT";"Mât"; 7.0;"SNCF Réseau"
216960;2.32028;49.05528;"02° 19' 13.00'' Est, 49° 03' 19.00'' Nord";"95042";;"RST MONTSOULT PK 023.230";"95560";"BAILLET-EN-FRANCE";"Mât"; 13.0;"SNCF Réseau"
216968;2.27972;49.14778;"02° 16' 47.00'' Est, 49° 08' 52.00'' Nord";"95487";;"RST PERSAN CANAL 10 PK 036.700";"95340";"PERSAN";"Mât"; 20.0;"SNCF Réseau"
216970;2.06444;49.01389;"02° 03' 52.00'' Est, 49° 00' 50.00'' Nord";"95450";;"RST NEUVILLE PK 029.530";"95000";"NEUVILLE-SUR-OISE";"Mât"; 5.0;"SNCF Réseau"
216972;2.06722;49.03528;"02° 04' 02.00'' Est, 49° 02' 07.00'' Nord";"95127";;"RST CERGY PREF PK 032.830";"95800";"CERGY";"Mât"; 6.0;"SNCF Réseau"
216976;2.05111;49.04611;"02° 03' 04.00'' Est, 49° 02' 46.00'' Nord";"95127";;"RST LES MERITES PK 034.610";"95800";"CERGY";"Mât"; 5.0;"SNCF Réseau"
216980;2.02222;49.04611;"02° 01' 20.00'' Est, 49° 02' 46.00'' Nord";"95127";;"RST CERGY ST CHRISTOPHE PK 036.660";"95800";"CERGY";"Mât"; 5.0;"SNCF Réseau"
216982;1.99806;49.04444;"01° 59' 53.00'' Est, 49° 02' 40.00'' Nord";"95183";;"RST CERGY LE HAUT PK 038.600";"95800";"COURDIMANCHE";"Mât"; 5.0;"SNCF Réseau"
216984;2.19694;49.04611;"02° 11' 49.00'' Est, 49° 02' 46.00'' Nord";"95060";;"GARE DE FRÉPILLON CHEMIN LATÉRAL PK 023.470";"95550";"BESSANCOURT";"Mât"; 22.0;"SNCF Réseau"
216986;2.15722;49.06778;"02° 09' 26.00'' Est, 49° 04' 04.00'' Nord";"95039";;"RST CHAPONVAL PN 14 PK 031.925";"95430";"AUVERS-SUR-OISE";"Mât"; 10.0;"SNCF Réseau"
216990;2.20222;49.09111;"02° 12' 08.00'' Est, 49° 05' 28.00'' Nord";"95120";;"RST VALMONDOIS PK 036.815";"95760";"BUTRY-SUR-OISE";"Mât"; 10.0;"SNCF Réseau"
216994;2.23472;49.13250;"02° 14' 05.00'' Est, 49° 07' 57.00'' Nord";"95134";;"RST POSTE CHARBONNIERE PK 042.302";"95660";"CHAMPAGNE-SUR-OISE";"Mât"; 10.0;"SNCF Réseau"
216998;2.25444;49.13972;"02° 15' 16.00'' Est, 49° 08' 23.00'' Nord";"95134";;"RST PERSAN-BEAUMONT CANAL 5 PK 044.090";"95660";"CHAMPAGNE-SUR-OISE";"Mât"; 10.0;"SNCF Réseau"
217002;2.30944;48.97139;"02° 18' 34.00'' Est, 48° 58' 17.00'' Nord";"95210";;"RST ENGHIEN BV PK 011.200";"95880";"ENGHIEN-LES-BAINS";"Mât"; 10.0;"SNCF Réseau"
217006;2.23639;48.99222;"02° 14' 11.00'' Est, 48° 59' 32.00'' Nord";"95252";;"RST FRANCONVILLE PK 017.140";"95130";"FRANCONVILLE";"Mât"; 22.0;"SNCF Réseau"
217010;2.19861;49.00667;"02° 11' 55.00'' Est, 49° 00' 24.00'' Nord";"95424";;"RST MONTIGNY BEAUCHAMP PK 020.320";"95370";"MONTIGNY-LES-CORMEILLES";"Mât"; 9.0;"SNCF Réseau"
217014;2.15361;49.01833;"02° 09' 13.00'' Est, 49° 01' 06.00'' Nord";"95488";;"RST PIERRELAYE PK 023.870";"95480";"PIERRELAYE";"Mât"; 22.0;"SNCF Réseau"
217018;2.08972;49.04611;"02° 05' 23.00'' Est, 49° 02' 46.00'' Nord";"95500";;"RST PONTOISE FLOOD PK 029.600";"95300";"PONTOISE";"Mât"; 20.0;"SNCF Réseau"
217022;2.01222;49.07500;"02° 00' 44.00'' Est, 49° 04' 30.00'' Nord";"95181";;"RST BOISSY L'AILLERIE PK 034.700";"95650";"COURCELLES-SUR-VIOSNE";"Mât"; 22.0;"SNCF Réseau"
217026;2.23194;48.95444;"02° 13' 55.00'' Est, 48° 57' 16.00'' Nord";"95018";;"RST ARGENTEUIL P3 PK 011.690";"95100";"ARGENTEUIL";"Mât"; 15.0;"SNCF Réseau"
217030;2.17889;48.96889;"02° 10' 44.00'' Est, 48° 58' 08.00'' Nord";"95257";;"RST CORMEILLES PK 016.450";"95530";"LA FRETTE-SUR-SEINE";"Mât"; 10.0;"SNCF Réseau"
217034;2.14194;48.99222;"02° 08' 31.00'' Est, 48° 59' 32.00'' Nord";"95306";;"RST HERBLAY PK 020.380";"95220";"HERBLAY";"Mât"; 10.0;"SNCF Réseau"
217038;2.06583;49.00833;"02° 03' 57.00'' Est, 49° 00' 30.00'' Nord";"95450";;"RST NEUVILLE SUR OISE CD 203 PK 027.720";"95000";"NEUVILLE-SUR-OISE";"Mât"; 5.0;"SNCF Réseau"
217042;2.07444;49.01389;"02° 04' 28.00'' Est, 49° 00' 50.00'' Nord";"95450";;"RST ERAGNY SOUS STATION PK 028.900";"95000";"NEUVILLE-SUR-OISE";"Mât"; 6.0;"SNCF Réseau"
217046;2.51722;49.00306;"02° 31' 02.00'' Est, 49° 00' 11.00'' Nord";"95527";;"RST TREMBLAY EN FRANCE PK 023.558";"95700";"ROISSY-EN-FRANCE";"Mât"; 22.0;"SNCF Réseau"
217050;2.11333;49.04750;"02° 06' 48.00'' Est, 49° 02' 51.00'' Nord";"95572";;"RST PN 1 PK 000.400";"95310";"SAINT-OUEN-L'AUMONE";"Mât"; 22.0;"SNCF Réseau"
246820;2.20222;49.01667;"02° 12' 08.00'' Est, 49° 00' 60.00'' Nord";"95051";;"11 AV MOLIÈRE";"95250";"BEAUCHAMP";"Immeuble"; 12.0;"Particulier"
251085;2.29000;48.97389;"02° 17' 24.00'' Est, 48° 58' 26.00'' Nord";"95555";;"31 R DANIELLE CASANOVA";"95210";"SAINT-GRATIEN";"Immeuble"; 13.0;"Particulier"
253643;2.28778;49.11361;"02° 17' 16.00'' Est, 49° 06' 49.00'' Nord";"95504";;"RST PRESLES COURCELLES PK 031.650";"95590";"PRESLES";"Mât"; 22.0;"SNCF Réseau"
253645;2.20583;49.07667;"02° 12' 21.00'' Est, 49° 04' 36.00'' Nord";"95392";;"RST MERIEL PK 027.450 NORD & SUD";"95630";"MERIEL";"Mât"; 15.0;"SNCF Réseau"
253647;2.12583;49.03639;"02° 07' 33.00'' Est, 49° 02' 11.00'' Nord";"95572";;"RST BIF DE LIESSE PK 032.900 & PK 026.760 CANAL 3 & CANAL 5";"95310";"SAINT-OUEN-L'AUMONE";"Mât"; 9.0;"SNCF Réseau"
253649;2.28139;48.96417;"02° 16' 53.00'' Est, 48° 57' 51.00'' Nord";"95555";;"RST ST GRATIEN PK 018.660 CANAL 1 & CANAL 9";"95210";"SAINT-GRATIEN";"Mât"; 22.0;"SNCF Réseau"
253651;2.08694;49.02639;"02° 05' 13.00'' Est, 49° 01' 35.00'' Nord";"95127";;"RST PK 030.550 BIF D'ERAGNY CANAL 3 & ERAGNY CANAL 5";"95800";"CERGY";"Mât"; 5.0;"SNCF Réseau"
253653;2.25444;48.95167;"02° 15' 16.00'' Est, 48° 57' 06.00'' Nord";"95018";;"RST ARGENTEUIL PK 041.100 GC & VMI";"95100";"ARGENTEUIL";"Mât"; 6.0;"SNCF Réseau"
264471;2.28444;48.97917;"02° 17' 04.00'' Est, 48° 58' 45.00'' Nord";"95203";;"18 R ERNEST RENAN";"95600";"EAUBONNE";"Immeuble"; 10.4;
266895;2.21611;48.99722;"02° 12' 58.00'' Est, 48° 59' 50.00'' Nord";"95252";;"28 R DE LA CROIX VERTE";"95130";"FRANCONVILLE";"Immeuble"; 31.0;"Société HLM"
289346;2.22944;48.98528;"02° 13' 46.00'' Est, 48° 59' 07.00'' Nord";"95252";;"5/7 ALLÉE HECTOR BERLIOZ";"95130";"FRANCONVILLE";"Immeuble"; 28.0;"Société HLM"
294974;2.23306;48.94528;"02° 13' 59.00'' Est, 48° 56' 43.00'' Nord";"95018";;"8 SQ D ANJOU SITE 1001";"95100";"ARGENTEUIL";"Immeuble"; 24.0;
297421;2.06028;49.00694;"02° 03' 37.00'' Est, 49° 00' 25.00'' Nord";"95323";;"31 R DE L'OISE";"95280";"JOUY-LE-MOUTIER";"Bâtiment"; 11.5;"Particulier"
299105;2.31306;49.08472;"02° 18' 47.00'' Est, 49° 05' 05.00'' Nord";"95353";;"27 RTE N1";"95560";"MAFFLIERS";"Bâtiment"; 23.2;"Copropriété, Syndic, SCI"
300403;2.53472;49.02222;"02° 32' 05.00'' Est, 49° 01' 20.00'' Nord";"95527";;"TUNNEL A1 PR 20,780 LOCAL C15";"95700";"ROISSY-EN-FRANCE";"Tunnel"; 6.0;"Sociétés d'Autoroutes"
304221;2.31722;48.98722;"02° 19' 02.00'' Est, 48° 59' 14.00'' Nord";"95428";;"RUE JEAN MOULIN HOPITAL SIMONE VEIL";"95160";"MONTMORENCY";"Bâtiment"; 30.0;"Etablissement de soins"
304314;2.01500;49.00556;"02° 00' 54.00'' Est, 49° 00' 20.00'' Nord";"95323";;"R D'ECANCOURT CHÂTEAU D'ELANCOURT";"95280";"JOUY-LE-MOUTIER";"Monument historique"; 14.1;"Particulier"
305327;2.26611;48.98083;"02° 15' 58.00'' Est, 48° 58' 51.00'' Nord";"95219";;"15 R LOUIS ARMANT IMM SNCF";"95120";"ERMONT";"Immeuble"; 21.0;"SNCF Réseau"
310776;2.20250;48.97194;"02° 12' 09.00'' Est, 48° 58' 19.00'' Nord";"95176";;"3 AV MAURICE BERTEAUX";"95240";"CORMEILLES-EN-PARISIS";"Bâtiment"; 15.0;
310778;2.42167;48.98972;"02° 25' 18.00'' Est, 48° 59' 23.00'' Nord";"95019";;"1 R BOIS HUE";"95400";"ARNOUVILLE-LES-GONESSE";"Bâtiment"; 15.0;
311002;2.22417;48.92528;"02° 13' 27.00'' Est, 48° 55' 31.00'' Nord";"95063";;"35 R JEAN JAURÈS";"95870";"BEZONS";"Bâtiment"; 13.0;"IFW-FREE"
312619;2.44278;48.96111;"02° 26' 34.00'' Est, 48° 57' 40.00'' Nord";"95088";;"AEROPORT DU BOURGET TOUR DE CONTROLE";"95500";"BONNEUIL-EN-FRANCE";"Bâtiment"; 14.0;
316736;2.46500;49.02639;"02° 27' 54.00'' Est, 49° 01' 35.00'' Nord";"95280";;"AV DU 6 JUIN 1944 BÂTIMENT A";"95190";"GOUSSAINVILLE";"Immeuble"; 18.0;"Société HLM"
317883;2.08194;49.03889;"02° 04' 55.00'' Est, 49° 02' 20.00'' Nord";"95127";"LES TROIS FONTAINES";"HALL D'ENT D'AUCHAN";"95800";"CERGY";"Bâtiment"; 19.0;"Copropriété, Syndic, SCI"
318559;2.51639;49.09944;"02° 30' 59.00'' Est, 49° 05' 58.00'' Nord";"95250";;"1 SQ EOLE";"95470";"FOSSES";"Immeuble"; 26.0;"Société HLM"
319124;2.41972;48.98722;"02° 25' 11.00'' Est, 48° 59' 14.00'' Nord";"95019";;"135 R JEAN JAURÈS";"95400";"ARNOUVILLE-LES-GONESSE";"Bâtiment"; 17.0;"Copropriété, Syndic, SCI"
322151;2.28000;49.14722;"02° 16' 48.00'' Est, 49° 08' 50.00'' Nord";"95487";;"22 R DU 8 MAI 1945-R LOUISE MICHEL CCAL LECLERC";"95340";"PERSAN";"Pylône autostable"; 21.0;"ORANGE"
329423;2.27583;49.14111;"02° 16' 33.00'' Est, 49° 08' 28.00'' Nord";"95052";;"RUE SAINT-ROCH SDIS";"95260";"BEAUMONT-SUR-OISE";"Pylône autostable"; 25.0;"ORANGE"
348969;2.18667;49.02194;"02° 11' 12.00'' Est, 49° 01' 19.00'' Nord";"95051";;"AV BOULE";"95250";"BEAUCHAMP";"Bâtiment"; 15.0;"Particulier"
353177;2.25194;48.99750;"02° 15' 07.00'' Est, 48° 59' 51.00'' Nord";"95219";;"2 PL COUBERT";"95120";"ERMONT";"Immeuble"; 30.4;"Société HLM"
366305;2.21111;48.98000;"02° 12' 40.00'' Est, 48° 58' 48.00'' Nord";"95176";"LA MONTAGNE";"1 ROUTE STRATÉGIQUE";"95240";"CORMEILLES-EN-PARISIS";"Pylône autostable"; 26.0;"ANFR"
367208;2.07500;49.01611;"02° 04' 30.00'' Est, 49° 00' 58.00'' Nord";"95450";;"R D ERAGNY";"95000";"NEUVILLE-SUR-OISE";"Bâtiment"; 15.0;
371089;2.51750;49.01222;"02° 31' 03.00'' Est, 49° 00' 44.00'' Nord";"95527";;"29 R DE L ARPENTEUR BAT 4202";"95700";"ROISSY-EN-FRANCE";"Bâtiment"; 36.7;
375391;2.32917;48.96417;"02° 19' 45.00'' Est, 48° 57' 51.00'' Nord";"95197";;"19 R FAUVEAU BÂTIMENT 2D";"95170";"DEUIL-LA-BARRE";"Immeuble"; 25.2;"Société HLM"
377784;2.09611;49.03472;"02° 05' 46.00'' Est, 49° 02' 05.00'' Nord";"95218";"ECLUSE DE PONTOISE";"65 QUAI DE L'ECLUSE";"95610";"ERAGNY";"Pylône autostable"; 20.0;"Voies navigables de France"
377786;2.21361;49.11861;"02° 12' 49.00'' Est, 49° 07' 07.00'' Nord";"95313";"ECLUSE DE LA DÉRIVATION";"CHEM DES MACHINES";"95290";"L'ISLE-ADAM";"Bâtiment"; 6.0;"Voies navigables de France"
389661;2.26000;48.99083;"02° 15' 36.00'' Est, 48° 59' 27.00'' Nord";"95219";;"10/12 R DU MARÉCHAL FOCH";"95120";"ERMONT";"Immeuble"; 32.5;"SFR"
392607;2.03111;49.04111;"02° 01' 52.00'' Est, 49° 02' 28.00'' Nord";"95127";;"10 AV DE L ENTREPRISE";"95800";"CERGY";"Bâtiment"; 15.0;
393850;2.41000;49.14750;"02° 24' 36.00'' Est, 49° 08' 51.00'' Nord";"95026";"BAILLON";"2 R DE SANTIAGO SOULAS";"95270";"ASNIERES-SUR-OISE";"Château d'eau - réservoir"; 21.0;"Copropriété, Syndic, SCI"
403131;2.30056;49.04972;"02° 18' 02.00'' Est, 49° 02' 59.00'' Nord";"95091";;"18 ROUTE DU GOLF ENTRÉE PRINCIPALE DU PARIS INTERNATIONAL GOLF CLUB";"95570";"BOUFFEMONT";"pylône arbre"; 30.0;"SFR"
403135;2.20778;49.01167;"02° 12' 28.00'' Est, 49° 00' 42.00'' Nord";"95607";;"5 ALLÉE DES BOULEAUX";"95150";"TAVERNY";"Immeuble"; 33.7;"Société HLM"
417089;2.05472;49.04639;"02° 03' 17.00'' Est, 49° 02' 47.00'' Nord";"95127";;"ALLÉE DU BOIS DE LA JUSTICE AV DES RAIES";"95000";"CERGY";"Pylône tubulaire"; 28.0;"ORANGE"
420657;2.40083;49.04139;"02° 24' 03.00'' Est, 49° 02' 29.00'' Nord";"95492";;"ROUTE D ECOUEN";"95720";"LE PLESSIS-GASSOT";"Mât"; 3.0;
424599;2.04361;49.05889;"02° 02' 37.00'' Est, 49° 03' 32.00'' Nord";"95476";;"126 CHAUSSÉE JULES CÉSAR PYLÔNE RTE N°166";"95520";"OSNY";"Pylône autostable"; 41.0;"RTE"
426936;2.05056;49.02889;"02° 03' 02.00'' Est, 49° 01' 44.00'' Nord";"95127";;"5 R DES ETANGS";"95000";"CERGY";"Bâtiment"; 5.0;
437476;2.29139;49.14028;"02° 17' 29.00'' Est, 49° 08' 25.00'' Nord";"95052";;"5 R CHARLES BÉART QUARTIER LE RAC";"95260";"BEAUMONT-SUR-OISE";"Immeuble"; 32.0;"Société HLM"
437504;2.51500;49.03750;"02° 30' 54.00'' Est, 49° 02' 15.00'' Nord";"95351";"LE HEUR BRULE";"CHEM COMMUNAL N°2 BUTTES DE VITELLE";"95380";"LOUVRES";"Pylône autostable"; 26.0;"ORANGE"
437671;2.21444;49.09472;"02° 12' 52.00'' Est, 49° 05' 41.00'' Nord";"95313";;"CHEM DE LA CHAPELLE DES STORS";"95290";"L'ISLE-ADAM";"Pylône autostable"; 33.0;"BOUYGUES"
439038;2.23889;49.06583;"02° 14' 20.00'' Est, 49° 03' 57.00'' Nord";"95678";;"20 R JEAN BAPTISTE LECHAUGUETTE";"95840";"VILLIERS-ADAM";"Bâtiment"; 14.5;"Société Privée SA"
440196;2.52167;49.00583;"02° 31' 18.00'' Est, 49° 00' 21.00'' Nord";"95527";;"1 ALLÉE DU VERGER HÔTEL HOLIDAY INN";"95700";"ROISSY-EN-FRANCE";"Immeuble"; 30.0;"Société Privée SA"
440945;2.07389;49.04500;"02° 04' 26.00'' Est, 49° 02' 42.00'' Nord";"95127";;"16 R FRANCIS COMBE";"95000";"CERGY";"Pylône autostable"; 41.0;"RTE"
442178;1.99917;49.01639;"01° 59' 57.00'' Est, 49° 00' 59.00'' Nord";"95074";;"17, R DE LA TOUR TOUR MOTOROLA";"95000";"BOISEMONT";"Immeuble"; 30.0;"Commune, communauté de commune"
443298;2.27139;49.10111;"02° 16' 17.00'' Est, 49° 06' 04.00'' Nord";"95504";"LE PLAN DE CHENE";"INTERSEC RN1 ET RD 64 LES COMMUNAUX 2ÈME LOT";"95590";"PRESLES";"Pylône autostable"; 26.0;"SFR"
443908;2.31250;49.00722;"02° 18' 45.00'' Est, 49° 00' 26.00'' Nord";"95014";"LA BERCHÈRE";"FACE 7 R BEAUMARCHAIS";"95580";"ANDILLY";"Pylône autostable"; 45.0;"SFR"
444399;2.21583;49.01944;"02° 12' 57.00'' Est, 49° 01' 10.00'' Nord";"95607";;"3 R JESSE OWENS RÉSIDENCE  JEAN BOUIN";"95150";"TAVERNY";"Immeuble"; 34.8;"Société HLM"
444647;2.34944;49.00694;"02° 20' 58.00'' Est, 49° 00' 25.00'' Nord";"95539";;"R DE PISCOP ZAC LES PERRUCHES MAGASIN TOY'S RUS";"95350";"SAINT-BRICE-SOUS-FORET";"Pylône tubulaire"; 21.0;"ORANGE"
451789;2.22944;49.11389;"02° 13' 46.00'' Est, 49° 06' 50.00'' Nord";"95313";;"50 R DE NOGENT";"95290";"L'ISLE-ADAM";"Bâtiment"; 13.8;"Particulier"
452067;2.54194;49.03944;"02° 32' 31.00'' Est, 49° 02' 22.00'' Nord";"95154";;"AIRE DE REPOS DE CHENNEVIÈRES A1 PYLÔNE SANEF";"95380";"CHENNEVIERES-LES-LOUVRES";"Pylône autostable"; 32.0;"Sociétés d'Autoroutes"
453262;2.23194;48.94889;"02° 13' 55.00'' Est, 48° 56' 56.00'' Nord";"95018";;"95 R VALERE COLLAS";"95100";"ARGENTEUIL";"Bâtiment"; 4.0;"Particulier"
454709;2.08139;49.03722;"02° 04' 53.00'' Est, 49° 02' 14.00'' Nord";"95127";;"PL DES CERCLADES BIBLIOTHEQUE";"95000";"CERGY";"Bâtiment"; 22.0;"Etat, Ministère"
455501;2.10861;49.06861;"02° 06' 31.00'' Est, 49° 04' 07.00'' Nord";"95211";"LE GRAND CLOS";"CH. DE L'ANCIENNE RTE DE BEAUVAIS À PONTOISE PAR E";"95300";"ENNERY";"Pylône autostable"; 45.0;"SFR"
457823;2.15583;49.00500;"02° 09' 21.00'' Est, 49° 00' 18.00'' Nord";"95306";"LA CROIX GUILLOT";"RTE DE PIERRELAYE STADE MUNICIPAL DU BEAUREGARD";"95220";"HERBLAY";"Pylône autostable"; 45.0;"SFR"
459749;1.70861;49.06056;"01° 42' 31.00'' Est, 49° 03' 38.00'' Nord";"95651";"LES FOUILLARDS";"CHEM RURAL N°26 LE BOIS CURE";"95510";"VETHEUIL";"pylône arbre"; 21.0;"FPS TOWERS"
461465;2.03500;49.02389;"02° 02' 06.00'' Est, 49° 01' 26.00'' Nord";"95637";;"R DES DOUCERONS TERRAIN DE BASE-BALL";"95490";"VAUREAL";"Pylône tubulaire"; 20.2;"SFR"
461827;2.47611;49.03028;"02° 28' 34.00'' Est, 49° 01' 49.00'' Nord";"95280";;"3 R FERDINAND BUISSON";"95190";"GOUSSAINVILLE";"Château d'eau - réservoir"; 38.0;"Société Privée SA"
461949;2.27806;49.00444;"02° 16' 41.00'' Est, 49° 00' 16.00'' Nord";"95203";;"21 B  R DE MONTMORENCY CENTRAL FT";"95600";"EAUBONNE";"Bâtiment"; 20.5;"ORANGE Services Fixes"
461999;2.41222;49.10167;"02° 24' 44.00'' Est, 49° 06' 06.00'' Nord";"95352";"LA MONTAGNE";"CHEM RURAL N°63 - VOIRIE DU MONTOIR";"95270";"LUZARCHES";"Pylône autostable"; 38.0;"FPS TOWERS"
462810;2.20056;49.11306;"02° 12' 02.00'' Est, 49° 06' 47.00'' Nord";"95480";"LES SABLONS";"RD 64";"95620";"PARMAIN";"Pylône autostable"; 43.0;"ORANGE Services Fixes"
463076;2.20472;48.93694;"02° 12' 17.00'' Est, 48° 56' 13.00'' Nord";"95063";"CITÉ DE LA BERTHIE";"16 , R DE LA BERTHIE IMM CITÉ DES SYCOMORES";"95870";"BEZONS";"Immeuble"; 38.0;"Société HLM"
463105;2.23250;49.02333;"02° 13' 57.00'' Est, 49° 01' 24.00'' Nord";"95607";;"83 R DE PARIS";"95150";"TAVERNY";"Bâtiment"; 12.8;"Particulier"
464573;2.26444;48.99528;"02° 15' 52.00'' Est, 48° 59' 43.00'' Nord";"95219";;"R DU PR CALMETTE RÉSIDENCE CALMETTE";"95120";"ERMONT";"Immeuble"; 18.7;"Société HLM"
464579;2.14806;49.02222;"02° 08' 53.00'' Est, 49° 01' 20.00'' Nord";"95488";;"5 R DU CLOS ST PIERRE";"95220";"PIERRELAYE";"Immeuble"; 29.0;"Société HLM"
465327;1.70056;49.14444;"01° 42' 02.00'' Est, 49° 08' 40.00'' Nord";"95011";"ST SULPICE";"CHEM RURAL N°27 DIT DE ST SULPLICE";"95710";"AMBLEVILLE";"Pylône autostable"; 14.0;"FPS TOWERS"
465439;2.32278;49.15694;"02° 19' 22.00'' Est, 49° 09' 25.00'' Nord";"95116";;"14 R DE BERNES";"95820";"BRUYERES-SUR-OISE";"Château d'eau - réservoir"; 33.0;"Commune, communauté de commune"
465770;1.79583;49.15833;"01° 47' 45.00'' Est, 49° 09' 30.00'' Nord";"95355";;"62 R DE BEAUVAIS SILO À GRAINS S.C.A.M.M.E";"95420";"MAGNY-EN-VEXIN";"Silo"; 37.4;"Société Privée SA"
465806;2.50556;49.04444;"02° 30' 20.00'' Est, 49° 02' 40.00'' Nord";"95351";;"1 SQ EDOUART MANET";"95380";"LOUVRES";"Immeuble"; 20.0;"Société HLM"
465973;2.13556;49.10111;"02° 08' 08.00'' Est, 49° 06' 04.00'' Nord";"95308";;"R PAUL BAGNARD PRES D.928";"95300";"HEROUVILLE";"Silo"; 33.6;"Société Privée SA"
466573;2.34639;48.97333;"02° 20' 47.00'' Est, 48° 58' 24.00'' Nord";"95427";;"11/13 R GAMBETTA LA RÉSIDENCE URBAINE DE FRANCE";"95360";"MONTMAGNY";"Immeuble"; 45.0;"Société HLM"
466738;1.69889;49.12556;"01° 41' 56.00'' Est, 49° 07' 32.00'' Nord";"95150";"LA FOLIE";"CHEM DE PORCHERONS";"95710";"CHAUSSY";"Pylône tubulaire"; 18.5;"SFR"
466821;2.28556;48.96611;"02° 17' 08.00'' Est, 48° 57' 58.00'' Nord";"95555";"LA VACHE NOIRE";"30 R LÉON FONTAINE RÉSIDENCE CORAIL";"95210";"SAINT-GRATIEN";"Immeuble"; 41.0;"Société HLM"
466915;2.20500;48.96889;"02° 12' 18.00'' Est, 48° 58' 08.00'' Nord";"95176";"LES EPINETTES";"50 R DE LA RÉPUBLIQUE";"95240";"CORMEILLES-EN-PARISIS";"Bâtiment"; 27.0;"SDIS, secours, incendie"
466951;2.18306;48.98639;"02° 10' 59.00'' Est, 48° 59' 11.00'' Nord";"95424";;"9 R DES GLAISES CENTRAL FT";"95370";"MONTIGNY-LES-CORMEILLES";"Bâtiment"; 23.0;"ORANGE Services Fixes"
467569;1.83833;49.12750;"01° 50' 18.00'' Est, 49° 07' 39.00'' Nord";"95166";;"R DE L'EGLISE CHATEAU D'EAU";"95420";"CLERY-EN-VEXIN";"Château d'eau - réservoir"; 30.0;"Syndicat des eaux, Adduction"
468613;2.36222;49.03222;"02° 21' 44.00'' Est, 49° 01' 56.00'' Nord";"95229";;"PL JULES RODET R ANGLADE CHÂTEAU D'EAU";"95460";"EZANVILLE";"Château d'eau - réservoir"; 54.0;"Commune, communauté de commune"
470402;2.39278;48.97722;"02° 23' 34.00'' Est, 48° 58' 38.00'' Nord";"95268";;"2, 8 R PETER RUBENS";"95140";"GARGES-LES-GONESSE";"Immeuble"; 36.0;"Société HLM"
472158;2.28861;49.09000;"02° 17' 19.00'' Est, 49° 05' 24.00'' Nord";"95445";"LE GALEURIOT";"CHEM DES TUILERIES";"95590";"NERVILLE-LA-FORET";"Mât"; 17.0;"ORANGE"
476520;2.02639;49.04722;"02° 01' 35.00'' Est, 49° 02' 50.00'' Nord";"95127";"LE GROS CHÊNE";"R DE LA PARABOLE STADE DU CHAT PERCHÉ";"95000";"CERGY";"Pylône tubulaire"; 25.2;"SFR"
479376;2.11528;49.02444;"02° 06' 55.00'' Est, 49° 01' 28.00'' Nord";"95218";;"AV DU GROS CHENE PARC D'ACTIVITÉ DES BELLEVUES";"95610";"ERAGNY";"Pylône autostable"; 24.0;"ORANGE"
482749;2.27972;48.95361;"02° 16' 47.00'' Est, 48° 57' 13.00'' Nord";"95018";"ORGEMONT";"R D'EPINAY";"95100";"ARGENTEUIL";"Pylône haubané"; 32.0;"DDE"
483035;2.35500;49.13667;"02° 21' 18.00'' Est, 49° 08' 12.00'' Nord";"95026";"LE CARREFOUR BALETTRE";"46 R GRANDE RUE";"95270";"ASNIERES-SUR-OISE";"Pylône autostable"; 35.0;"ORANGE"
483293;2.11472;49.18528;"02° 06' 53.00'' Est, 49° 11' 07.00'' Nord";"95023";"LA VIGNE EQUET";"CHEM RURAL D'ARRONVILLE LA CARRIERE PROCHE RESERVOIR";"95810";"ARRONVILLE";"Pylône autostable"; 24.1;"ORANGE"
493401;2.00111;49.12444;"02° 00' 04.00'' Est, 49° 07' 28.00'' Nord";"95254";"LA REMISE";"PROCHE RN 15 CHÂTEAU D'EAU DE FRÉMÉCOURT - D 915";"95830";"FREMECOURT";"Château d'eau - réservoir"; 41.6;"Syndicat des eaux, Adduction"
493464;1.96667;49.06583;"01° 58' 00.00'' Est, 49° 03' 57.00'' Nord";"95002";;"R DE L'EGLISE CH D'EAU";"95450";"ABLEIGES";"Château d'eau - réservoir"; 23.5;"Société Privée SA"
494266;2.06611;49.04139;"02° 03' 58.00'' Est, 49° 02' 29.00'' Nord";"95127";;"RTE DE PONTOISE STADE LE PONCEAU";"95000";"CERGY";"Pylône tubulaire"; 21.5;"SFR"
494823;1.96306;49.10083;"01° 57' 47.00'' Est, 49° 06' 03.00'' Nord";"95625";;"CHEM DU CH D'EAU";"95450";"US";"Château d'eau - réservoir"; 23.0;"Syndicat des eaux, Adduction"
495095;2.15000;48.99639;"02° 08' 60.00'' Est, 48° 59' 47.00'' Nord";"95306";;"2, 4, 6 R PIERRE LOTI";"95220";"HERBLAY";"Immeuble"; 23.0;"Société Privée SA"
496130;2.49694;49.09111;"02° 29' 49.00'' Est, 49° 05' 28.00'' Nord";"95371";"BOIS DES FOSSE";"11 CHEM RURAL - ACCÈS PAR CHEM DE LA SABLONNERIE ACCÈS PAR CHEM DE LA SABLONNERIE";"95670";"MARLY-LA-VILLE";"Pylône autostable"; 48.0;"TDF"
497234;2.48056;48.99694;"02° 28' 50.00'' Est, 48° 59' 49.00'' Nord";"95612";;"1-3, AV DE FLORE RN 17 - ZI DU THILLAY RN.17";"95500";"LE THILLAY";"Bâtiment"; 16.0;"Copropriété, Syndic, SCI"
497812;2.25139;48.94333;"02° 15' 05.00'' Est, 48° 56' 36.00'' Nord";"95018";;"8-12 CITÉ DE LA LIBERTÉ";"95100";"ARGENTEUIL";"Immeuble"; 32.0;"Société HLM"
497858;2.38278;48.97361;"02° 22' 58.00'' Est, 48° 58' 25.00'' Nord";"95585";;"2, BD  MAURICE RAVEL";"95200";"SARCELLES";"Immeuble"; 49.0;"Copropriété, Syndic, SCI"
498464;2.04083;49.17167;"02° 02' 27.00'' Est, 49° 10' 18.00'' Nord";"95298";"LE PETIT SAUSSETTE";"PRÈS RD 188";"95640";"HARAVILLIERS";"Château d'eau - réservoir"; 29.0;"Société Privée SA"
498851;2.30139;49.12611;"02° 18' 05.00'' Est, 49° 07' 34.00'' Nord";"95452";"LA FORET DE CARNELLE";"D 85";"95590";"NOINTEL";"Pylône autostable"; 30.0;"ORANGE Services Fixes"
499558;2.27333;49.01333;"02° 16' 24.00'' Est, 49° 00' 48.00'' Nord";"95574";;"1 R AUGUSTE REY";"95390";"SAINT-PRIX";"Monument religieux"; 19.0;"Copropriété, Syndic, SCI"
503006;2.54972;49.08583;"02° 32' 59.00'' Est, 49° 05' 09.00'' Nord";"95580";;"R DE PARIS PÉAGE DE SURVILLIERS A1 SENS LILLE PARIS";"95470";"SAINT-WITZ";"Pylône autostable"; 61.0;"Société Privée SA"
503634;1.76222;49.09000;"01° 45' 44.00'' Est, 49° 05' 24.00'' Nord";"95379";"LA VENTE RAPHAEL";;"95420";"MAUDETOUR-EN-VEXIN";"Pylône autostable"; 250.0;"TDF"
508964;2.44000;49.12472;"02° 26' 24.00'' Est, 49° 07' 29.00'' Nord";"95149";;"CHEM DES BRULIS";"95270";"CHAUMONTEL";"Pylône autostable"; 36.0;"SFR"
509044;1.69889;49.12583;"01° 41' 56.00'' Est, 49° 07' 33.00'' Nord";"95150";"LA FOLIE";"CHEM DES PORCHERONS";"95710";"CHAUSSY";"Pylône autostable"; 20.0;"FPS TOWERS"
509730;2.38583;49.01472;"02° 23' 09.00'' Est, 49° 00' 53.00'' Nord";"95205";"REDOUTE DU MOULIN";"RN.16 HÔTEL CAMPANILE";"95440";"ECOUEN";"Pylône autostable"; 24.0;"ORANGE"
509741;1.91806;49.08833;"01° 55' 05.00'' Est, 49° 05' 18.00'' Nord";"95610";"LE BORD'HAUT DE VIGNY";"N.2014 PROCHE N.14 R DE ROUEN";"95450";"THEMERICOURT";"Château d'eau - réservoir"; 42.0;"Syndicat des eaux, Adduction"
510676;2.30139;49.01250;"02° 18' 05.00'' Est, 49° 00' 45.00'' Nord";"95014";"FORT DE  MONTLIGNON";"ROUTE DU FORT TOUR TDF";"95580";"ANDILLY";"Tour hertzienne"; 90.0;"TDF"
510812;2.23000;49.00389;"02° 13' 48.00'' Est, 49° 00' 14.00'' Nord";"95491";;"26 RUE MARCEL CLERC CENTRAL FT";"95130";"LE PLESSIS-BOUCHARD";"Immeuble"; 31.0;"ORANGE Services Fixes"
512245;2.27472;48.97111;"02° 16' 29.00'' Est, 48° 58' 16.00'' Nord";"95555";;"49 R DE SANNOIS  RÉSIDENCE LA ROCADE";"95210";"SAINT-GRATIEN";"Immeuble"; 28.0;"Copropriété, Syndic, SCI"
512697;2.44611;49.04917;"02° 26' 46.00'' Est, 49° 02' 57.00'' Nord";"95241";"LA COUTURE";"CHEM DES DEMOISELLES JARDINS FAMILIAUX";"95190";"FONTENAY-EN-PARISIS";"Pylône autostable"; 28.0;"ORANGE"
514471;2.21806;48.98500;"02° 13' 05.00'' Est, 48° 59' 06.00'' Nord";"95252";;"27 CHEM DES RINVALS";"95130";"FRANCONVILLE";"Bâtiment"; 8.2;"Particulier"
517402;2.36250;48.99111;"02° 21' 45.00'' Est, 48° 59' 28.00'' Nord";"95539";"LA CHAPELLE ST NICOLAS";"SENTE DE LA CHAPELLE ST NICOLAS";"95350";"SAINT-BRICE-SOUS-FORET";"Pylône tubulaire"; 25.0;"ORANGE"
520818;2.54611;49.00806;"02° 32' 46.00'' Est, 49° 00' 29.00'' Nord";"95527";"AÉROPORT CHARLES DE GAULLE";"6 R DES BRUYÈRES - ZONE CENTRALE OUEST DOUANE - BÂT 5720";"95700";"ROISSY-EN-FRANCE";"Bâtiment"; 37.0;"Intérieur"
525220;2.16583;48.99333;"02° 09' 57.00'' Est, 48° 59' 36.00'' Nord";"95306";;"33 R DE PONTOISE RÉSIDENCE LES MARRONNIERS";"95220";"HERBLAY";"Immeuble"; 18.4;"Société HLM"
525695;1.93194;49.15444;"01° 55' 55.00'' Est, 49° 09' 16.00'' Nord";"95142";"LA CORNOUILLE";"R MOUSSY";"95750";"CHARS";"Château d'eau - réservoir"; 38.0;"Syndicat des eaux, Adduction"
525795;2.11222;49.04306;"02° 06' 44.00'' Est, 49° 02' 35.00'' Nord";"95572";"LE CLOS DU ROI";"33 AV DU GÉNÉRAL DE GAULLE";"95310";"SAINT-OUEN-L'AUMONE";"Immeuble"; 48.5;"Société HLM"
526817;2.18361;48.98167;"02° 11' 01.00'' Est, 48° 58' 54.00'' Nord";"95424";;"1 B R DES VERGERS";"95370";"MONTIGNY-LES-CORMEILLES";"Immeuble"; 26.0;"Copropriété, Syndic, SCI"
526920;2.27750;49.11056;"02° 16' 39.00'' Est, 49° 06' 38.00'' Nord";"95504";;"37 R ADALBERT BAUT";"95590";"PRESLES";"Pylône autostable"; 27.0;"BOUYGUES"
528955;2.21056;49.02222;"02° 12' 38.00'' Est, 49° 01' 20.00'' Nord";"95607";;"A 115-TUN DE TAVERNY-IMP JEAN MERMOZ R VERLAINE";"95150";"TAVERNY";"Tunnel"; 10.6;"DDE"
531462;2.32833;48.96417;"02° 19' 42.00'' Est, 48° 57' 51.00'' Nord";"95197";;"40-46 R GALLIÉNI";"95170";"DEUIL-LA-BARRE";"Bâtiment"; 31.1;"Société HLM"
531562;2.38694;49.00389;"02° 23' 13.00'' Est, 49° 00' 14.00'' Nord";"95680";;"3 BD  CARNOT RÉS. DE L'ORME";"95400";"VILLIERS-LE-BEL";"Immeuble"; 37.0;"Copropriété, Syndic, SCI"
531584;2.39806;49.01056;"02° 23' 53.00'' Est, 49° 00' 38.00'' Nord";"95680";;"R DES GALOPINS";"95400";"VILLIERS-LE-BEL";"Pylône autostable"; 19.0;"Association"
531647;2.41167;48.99056;"02° 24' 42.00'' Est, 48° 59' 26.00'' Nord";"95019";;"42 R LAMARTINE";"95400";"ARNOUVILLE-LES-GONESSE";"Immeuble"; 14.5;"Particulier"
531724;2.10833;49.03500;"02° 06' 30.00'' Est, 49° 02' 06.00'' Nord";"95572";;"3 ALL DULANGUEDOC";"95310";"SAINT-OUEN-L'AUMONE";"Immeuble"; 38.3;"Société HLM"
533638;2.06694;49.05167;"02° 04' 01.00'' Est, 49° 03' 06.00'' Nord";"95476";;"CHAUSSÉE JULES CÉSAR CH D'EAU DE MARCOUVILLE";"95520";"OSNY";"Château d'eau - réservoir"; 56.0;"Commune, communauté de commune"
534699;2.16944;49.12861;"02° 10' 10.00'' Est, 49° 07' 43.00'' Nord";"95446";;"16 R PIERRE PILON";"95690";"NESLES-LA-VALLEE";"Bâtiment"; 15.0;"Copropriété, Syndic, SCI"
534726;2.20083;48.99556;"02° 12' 03.00'' Est, 48° 59' 44.00'' Nord";"95424";;"9 AV ARISTIDE MAILLOL";"95370";"MONTIGNY-LES-CORMEILLES";"Bâtiment"; 41.1;"Société HLM"
534740;2.36250;49.10472;"02° 21' 45.00'' Est, 49° 06' 17.00'' Nord";"95056";;"CHEM VICINAL N° 4 R ROGER RENARD";"95270";"BELLOY-EN-FRANCE";"Pylône autostable"; 35.0;"BOUYGUES"
537843;2.21861;48.92333;"02° 13' 07.00'' Est, 48° 55' 24.00'' Nord";"95063";;"132-134 R JEAN JAURES";"95870";"BEZONS";"Immeuble"; 46.2;"Société HLM"
544477;2.19722;48.98194;"02° 11' 50.00'' Est, 48° 58' 55.00'' Nord";"95176";;"R DU STADE STADE GASTON FREMONT";"95240";"CORMEILLES-EN-PARISIS";"Pylône autostable"; 35.0;"SFR"
544498;2.29556;49.04583;"02° 17' 44.00'' Est, 49° 02' 45.00'' Nord";"95091";;"5 RUE PASTEUR CENTRE MÉDICAL JACQUES ARNAUD";"95570";"BOUFFEMONT";"Immeuble"; 35.0;"Etat, Ministère"
544556;2.20861;48.94722;"02° 12' 31.00'' Est, 48° 56' 50.00'' Nord";"95018";;"5 R DES INDES";"95100";"ARGENTEUIL";"Bâtiment"; 20.0;"Société Privée SA"
545207;2.08167;49.03722;"02° 04' 54.00'' Est, 49° 02' 14.00'' Nord";"95127";"LES MAHEUX";"PL DES CERCLADES - QUARTIER DES 3 FONTAINES LA TOUR BLEUE DE LA RÉSIDENCE LES CERCLADES";"95000";"CERGY";"Immeuble"; 49.0;"Société HLM"
547099;2.27583;48.95278;"02° 16' 33.00'' Est, 48° 57' 10.00'' Nord";"95018";"LE VAUCELLE";"16 À 32 , R BALMONT IMM DE LA RÉSIDENCE LA BUTTE BALMONT";"95100";"ARGENTEUIL";"Immeuble"; 31.7;"Société HLM"
547934;2.28000;48.95167;"02° 16' 48.00'' Est, 48° 57' 06.00'' Nord";"95018";"A15";"PR 6,00 ANGLE RUES DES DÉSERTS ET VACHON  SENS PARIS PROVINCE";"95100";"ARGENTEUIL";"Pylône tubulaire"; 18.1;"Sociétés d'Autoroutes"
550924;2.04611;49.01056;"02° 02' 46.00'' Est, 49° 00' 38.00'' Nord";"95323";;"BD D'ECANCOURT BAT LUDIQUE BELVEDERE";"95280";"JOUY-LE-MOUTIER";"Bâtiment"; 16.0;"BOUYGUES"
554141;2.42056;49.00528;"02° 25' 14.00'' Est, 49° 00' 19.00'' Nord";"95277";"LA FAUCONNIÈRE";"CHÂTEAU D'EAU COMMUNAL PL GASTON TESSIER";"95500";"GONESSE";"Château d'eau - réservoir"; 43.0;"Commune, communauté de commune"
554593;2.46333;49.03528;"02° 27' 48.00'' Est, 49° 02' 07.00'' Nord";"95280";;"21 R MILLET";"95190";"GOUSSAINVILLE";"Immeuble"; 25.4;"Société HLM"
557816;2.31944;48.97389;"02° 19' 10.00'' Est, 48° 58' 26.00'' Nord";"95197";;"2 R HENRI DUNANT RES. LES MORTEFONTAINES";"95170";"DEUIL-LA-BARRE";"Immeuble"; 38.6;"Société HLM"
558526;2.25806;49.14278;"02° 15' 29.00'' Est, 49° 08' 34.00'' Nord";"95134";;"R PARMENTIER";"95660";"CHAMPAGNE-SUR-OISE";"Pylône autostable"; 60.0;"FPS TOWERS"
559406;2.50556;49.04694;"02° 30' 20.00'' Est, 49° 02' 49.00'' Nord";"95351";;"R DU DR PAUL BRUEL CHÂTEAU D'EAU SFDE";"95380";"LOUVRES";"Château d'eau - réservoir"; 41.3;"Commune, communauté de commune"
559415;2.19861;49.05556;"02° 11' 55.00'' Est, 49° 03' 20.00'' Nord";"95394";"BOIS DU DÉFAI";"CHEM RURAL N°5 DE VILLIERS ADAM À SOGNOLE";"95540";"MERY-SUR-OISE";"Pylône autostable"; 49.0;"SFR"
560685;2.16000;49.06750;"02° 09' 36.00'' Est, 49° 04' 03.00'' Nord";"95039";;"R ROGER TAGLIANA PRES DES TERRAINS DE SPORT";"95430";"AUVERS-SUR-OISE";"pylône arbre"; 30.0;"BOUYGUES"
562462;2.50694;49.02944;"02° 30' 25.00'' Est, 49° 01' 46.00'' Nord";"95351";"LE VAL NOËL";"CROISEMENT LIGNE TGV/D104";"95380";"LOUVRES";"Pylône autostable"; 18.0;"SFR"
563379;2.03056;49.02306;"02° 01' 50.00'' Est, 49° 01' 23.00'' Nord";"95637";;"36 MAIL MENDÈS FRANCE CENTRE CULTUREL DE L'AGORA";"95490";"VAUREAL";"Immeuble"; 29.0;"Société Privée SA"
565153;2.37250;48.97917;"02° 22' 21.00'' Est, 48° 58' 45.00'' Nord";"95585";"LES CHOLETTES";"7 AV LÉON PAUL FARGUE";"95200";"SARCELLES";"Immeuble"; 47.0;"Société HLM"
567168;2.03694;49.05000;"02° 02' 13.00'' Est, 49° 02' 60.00'' Nord";"95127";;"1 AV DES BEGUINES";"95000";"CERGY";"Bâtiment"; 23.4;"Copropriété, Syndic, SCI"
567668;2.14917;49.13167;"02° 08' 57.00'' Est, 49° 07' 54.00'' Nord";"95328";"LE CLOS DES VIGNES";"CHEM RURAL DE PARIS SICAEVS POSTE DE LA CROIX BAPTISTE";"95690";"LABBEVILLE";"Pylône autostable"; 28.0;"ORANGE"
569669;1.98944;49.04500;"01° 59' 22.00'' Est, 49° 02' 42.00'' Nord";"95183";"LE FIEF DE GOUZANGREZ";"RD 38 DE LA VILLENEUVE À COURDIMANCHE PYLONE N°35 DE RTE.";"95800";"COURDIMANCHE";"Pylône autostable"; 31.0;"EDF GDF"
570320;2.47278;49.03278;"02° 28' 22.00'' Est, 49° 01' 58.00'' Nord";"95280";;"PL DE LA CHARMEUSE";"95190";"GOUSSAINVILLE";"Bâtiment"; 15.0;"Commune, communauté de commune"
571063;2.26778;49.14694;"02° 16' 04.00'' Est, 49° 08' 49.00'' Nord";"95487";;"4 R DE LONDRES";"95340";"PERSAN";"Bâtiment"; 40.5;"Société Privée SA"
571717;1.94306;49.12750;"01° 56' 35.00'' Est, 49° 07' 39.00'' Nord";"95584";;"R DES EPAGNES";"95640";"SANTEUIL";"Château d'eau - réservoir"; 29.0;"Syndicat des eaux, Adduction"
574933;2.39750;48.96722;"02° 23' 51.00'' Est, 48° 58' 02.00'' Nord";"95268";;"31 R DU TIERS POT";"95140";"GARGES-LES-GONESSE";"Immeuble"; 39.0;"Société HLM"
576503;2.34083;49.11056;"02° 20' 27.00'' Est, 49° 06' 38.00'' Nord";"95566";;"ROUTE FORESTIÈRE DES BRUYÈRES CHÂTEAU D'EAU";"95270";"SAINT-MARTIN-DU-TERTRE";"Château d'eau - réservoir"; 33.0;"Commune, communauté de commune"
577378;2.16389;48.98889;"02° 09' 50.00'' Est, 48° 59' 20.00'' Nord";"95306";;"3 R DU VAL";"95220";"HERBLAY";"Immeuble"; 20.7;"Société HLM"
577683;2.40833;49.05167;"02° 24' 30.00'' Est, 49° 03' 06.00'' Nord";"95395";"LE MOULIN";"PROCHE RN 16  CHEM RURAL N°9";"95720";"LE MESNIL-AUBRY";"Pylône autostable"; 43.0;"FPS TOWERS"
578294;2.20194;49.07917;"02° 12' 07.00'' Est, 49° 04' 45.00'' Nord";"95392";;"1 R DU PORT  ETS LAFARGE";"95630";"MERIEL";"Pylône autostable"; 39.0;"ORANGE"
584034;2.00111;49.03667;"02° 00' 04.00'' Est, 49° 02' 12.00'' Nord";"95183";;"R DE LA GRANGE NEUVE";"95800";"COURDIMANCHE";"Château d'eau - réservoir"; 36.0;"Syndicat des eaux, Adduction"
584693;2.37694;48.97500;"02° 22' 37.00'' Est, 48° 58' 30.00'' Nord";"95585";;"34 BD  HENRI BERGSON";"95200";"SARCELLES";"Bâtiment"; 12.0;"Etat, Ministère"
585358;2.37528;48.97667;"02° 22' 31.00'' Est, 48° 58' 36.00'' Nord";"95585";;"3 AV DU 8 MAI 1945 RÉSIDENCE CYTHÈRE";"95200";"SARCELLES";"Immeuble"; 46.6;"Copropriété, Syndic, SCI"
592012;2.19528;49.16944;"02° 11' 43.00'' Est, 49° 10' 10.00'' Nord";"95529";"LES TUILERIES";"CHEM VO N°6 D'HÉDOUVILLE LA TERRE DES CHAMPS";"95340";"RONQUEROLLES";"Pylône autostable"; 42.0;"Commune, communauté de commune"
595488;2.44306;49.01833;"02° 26' 35.00'' Est, 49° 01' 06.00'' Nord";"95280";;"19 R GASTON MONMOUSSEAU";"95190";"GOUSSAINVILLE";"Pylône tubulaire"; 30.5;"ORANGE"
597235;1.78528;49.13972;"01° 47' 07.00'' Est, 49° 08' 23.00'' Nord";"95141";"LES RABLETTES";"CHEM RURAL  PRÈS D.983 / D.175";"95420";"CHARMONT";"Pylône tubulaire"; 15.0;"ORANGE"
597241;2.25528;48.96806;"02° 15' 19.00'' Est, 48° 58' 05.00'' Nord";"95582";;"15 R DU 8 MAI 1945";"95110";"SANNOIS";"Bâtiment"; 42.0;"Copropriété, Syndic, SCI"
599106;2.24194;49.13417;"02° 14' 31.00'' Est, 49° 08' 03.00'' Nord";"95134";;"R DES PRÉS DE LA NOUE STATION D'ÉPURATION";"95660";"CHAMPAGNE-SUR-OISE";"pylône arbre"; 27.5;"SFR"
599112;2.44944;48.99000;"02° 26' 58.00'' Est, 48° 59' 24.00'' Nord";"95277";;"25 R PIERRE DE THEILLEY HOP DE GONESSE";"95500";"GONESSE";"Immeuble"; 39.7;"Etablissement de soins"
605062;2.03722;49.04444;"02° 02' 14.00'' Est, 49° 02' 40.00'' Nord";"95127";;"1 IMP DES TERRASSES HÔTEL CITEA";"95000";"CERGY";"Immeuble"; 16.9;"Société Privée SA"
605066;2.40972;48.97833;"02° 24' 35.00'' Est, 48° 58' 42.00'' Nord";"95268";;"17/19 BD  DE LA MUETTE";"95140";"GARGES-LES-GONESSE";"Immeuble"; 24.0;"Société Privée SA"
607174;2.41000;48.96639;"02° 24' 36.00'' Est, 48° 57' 59.00'' Nord";"95268";;"AV AMBROISE CROIZAT HÔTEL GÉO";"95140";"GARGES-LES-GONESSE";"Immeuble"; 20.0;"Société Privée SA"
607222;2.30611;48.97278;"02° 18' 22.00'' Est, 48° 58' 22.00'' Nord";"95210";;"2/4 R DE LA LIBÉRATION";"95880";"ENGHIEN-LES-BAINS";"Immeuble"; 22.0;"Société HLM"
607228;2.08889;49.06028;"02° 05' 20.00'' Est, 49° 03' 37.00'' Nord";"95500";;"6, R ROBERT SCHUMANN";"95000";"PONTOISE";"Immeuble"; 27.0;"Société HLM"
610297;2.03278;49.00639;"02° 01' 58.00'' Est, 49° 00' 23.00'' Nord";"95323";;"R DENIS PAPIN CENTRE TECHNIQUE MUNICIPAL";"95280";"JOUY-LE-MOUTIER";"Pylône tubulaire"; 25.0;"SFR"
611722;2.50361;49.04528;"02° 30' 13.00'' Est, 49° 02' 43.00'' Nord";"95351";"LA LUTECE";"15 PL JEAN-BAPTISTE COROT";"95380";"LOUVRES";"Bâtiment"; 18.0;"Société HLM"
612084;2.20611;49.00306;"02° 12' 22.00'' Est, 49° 00' 11.00'' Nord";"95424";;"17 R DE L'ESPERANCE FOYER AUTIN";"95370";"MONTIGNY-LES-CORMEILLES";"Immeuble"; 31.0;"Société HLM"
614157;2.32222;49.07056;"02° 19' 20.00'' Est, 49° 04' 14.00'' Nord";"95430";;"2 R DE MOZART IMM COPROPRIÉTÉ  LA CROIX DE MONTSOULT";"95560";"MONTSOULT";"Immeuble"; 23.0;"Copropriété, Syndic, SCI"
614948;2.51667;48.99750;"02° 30' 60.00'' Est, 48° 59' 51.00'' Nord";"95527";;"ALLÉE DES VERGERS ZAC DU  PARC DE ROISSY  EN FRANCE HOTEL";"95700";"ROISSY-EN-FRANCE";"Bâtiment"; 25.0;"Société Privée SA"
619580;2.04444;49.01194;"02° 02' 40.00'' Est, 49° 00' 43.00'' Nord";"95323";"LES EGUERETS";"ALLÉE DES EGUERETS";"95280";"JOUY-LE-MOUTIER";"Bâtiment"; 25.5;"Commune, communauté de commune"
622051;2.30667;49.14250;"02° 18' 24.00'' Est, 49° 08' 33.00'' Nord";"95052";"LES LONGUES PIÈCES";"CHEM RURAL N° 35";"95260";"BEAUMONT-SUR-OISE";"pylône arbre"; 33.0;"ORANGE"
626557;2.24306;48.96806;"02° 14' 35.00'' Est, 48° 58' 05.00'' Nord";"95582";"BUTTE DE MONTROUILLET";"CHEM DES MOULINS";"95110";"SANNOIS";"Pylône autostable"; 53.0;"TDF"
632838;2.38333;48.97806;"02° 23' 00.00'' Est, 48° 58' 41.00'' Nord";"95585";;"6-16 AV FRÉDÉRIC JOLIOT-CURIE";"95200";"SARCELLES";"Immeuble"; 33.6;"Société HLM"
633286;2.27694;48.95528;"02° 16' 37.00'' Est, 48° 57' 19.00'' Nord";"95018";;"ECH A15/N311 PYLONE D'ÉCLAIRAGE";"95100";"ARGENTEUIL";"Pylône tubulaire"; 28.5;"DDE"
642218;2.27222;49.14611;"02° 16' 20.00'' Est, 49° 08' 46.00'' Nord";"95487";;"R EDMOND BOURGEOIS PYLONE ECLAIRAGE SNCF";"95340";"PERSAN";"Pylône tubulaire"; 30.0;"SNCF Réseau"
643562;2.34333;49.07361;"02° 20' 36.00'' Est, 49° 04' 25.00'' Nord";"95028";"LE TREMBLE DU ROUSSEL";"D 909 SILO CAPAFRANCE";"95570";"ATTAINVILLE";"Silo"; 36.5;"Société Privée SA"
644109;2.18833;49.09556;"02° 11' 18.00'' Est, 49° 05' 44.00'' Nord";"95628";;"R DE LA CROIX BOISSIÈRE";"95760";"VALMONDOIS";"Pylône autostable"; 24.9;"SFR"
646675;2.34944;48.98694;"02° 20' 58.00'' Est, 48° 59' 13.00'' Nord";"95288";;"4 R PASTEUR";"95410";"GROSLAY";"Immeuble"; 14.0;"Société HLM"
648520;2.24444;48.93722;"02° 14' 40.00'' Est, 48° 56' 14.00'' Nord";"95018";;"1, R VERTE CENTRAL TÉLÉPHONIQUE";"95100";"ARGENTEUIL";"Bâtiment"; 27.0;"ORANGE Services Fixes"
649161;2.03917;49.08361;"02° 02' 21.00'' Est, 49° 05' 01.00'' Nord";"95078";;"CHEM DU CHÂTEAU D'EAU PARC D'ACTIVITÉS COUDRIER";"95650";"BOISSY-L'AILLERIE";"Château d'eau - réservoir"; 30.0;"Commune, communauté de commune"
652095;2.08333;49.04500;"02° 05' 00.00'' Est, 49° 02' 42.00'' Nord";"95500";;"R PIERRE DE COUBERTIN STADE DE RUGBY";"95000";"PONTOISE";"Pylône autostable"; 25.0;"SFR"
660889;2.36944;48.98333;"02° 22' 10.00'' Est, 48° 59' 00.00'' Nord";"95585";;"8 RTE DE GROSLAY";"95200";"SARCELLES";"Pylône tubulaire"; 13.0;"SFR"
664419;2.07556;49.03667;"02° 04' 32.00'' Est, 49° 02' 12.00'' Nord";"95127";;"3 R DU CHEM DUPUIS BRUN";"95000";"CERGY";"Immeuble"; 35.5;"Copropriété, Syndic, SCI"
667228;2.08778;49.03194;"02° 05' 16.00'' Est, 49° 01' 55.00'' Nord";"95500";;"2 BD  DE L'OISE";"95000";"PONTOISE";"Immeuble"; 32.0;"Copropriété, Syndic, SCI"
672232;2.23778;48.94694;"02° 14' 16.00'' Est, 48° 56' 49.00'' Nord";"95018";;"12 R JEAN CHARCOT HLM DU VAL D'OISE";"95100";"ARGENTEUIL";"Immeuble"; 47.0;"Société HLM"
692625;2.45361;48.98389;"02° 27' 13.00'' Est, 48° 59' 02.00'' Nord";"95277";;"2 R CHAUVART";"95500";"GONESSE";"Immeuble"; 33.0;"Société HLM"
692705;2.13250;49.05250;"02° 07' 57.00'' Est, 49° 03' 09.00'' Nord";"95572";;"11 AV DU VERT-GALANT";"95310";"SAINT-OUEN-L'AUMONE";"Pylône tubulaire"; 41.0;"ORANGE"
693520;1.97556;49.14611;"01° 58' 32.00'' Est, 49° 08' 46.00'' Nord";"95370";;"R DU 18 JUIN TERRAIN COMMUNAL";"95640";"MARINES";"Pylône autostable"; 25.0;"ORANGE"
695043;2.03000;49.04139;"02° 01' 48.00'' Est, 49° 02' 29.00'' Nord";"95127";"PARC ST CHRISTOPHE";"PÔLE VINCI / BD DE L'OISE BD DE L'ENTREPRISE";"95000";"CERGY";"Immeuble"; 20.0;"Société Privée SA"
695045;2.01444;49.04917;"02° 00' 52.00'' Est, 49° 02' 57.00'' Nord";"95127";;"53 BD  DE L'EVASION";"95000";"CERGY";"Immeuble"; 28.0;"ORANGE"
695051;2.08306;49.04611;"02° 04' 59.00'' Est, 49° 02' 46.00'' Nord";"95500";;"CHAUSSÉE JULES CÉSAR 1 RUE PIERRE DE COUBERTIN";"95000";"PONTOISE";"Bâtiment"; 7.0;"Commune, communauté de commune"
695053;2.08139;49.03639;"02° 04' 53.00'' Est, 49° 02' 11.00'' Nord";"95127";;"7 PL DES CERCLADES";"95000";"CERGY";"Immeuble"; 29.0;"La Poste"
695358;2.03444;49.04694;"02° 02' 04.00'' Est, 49° 02' 49.00'' Nord";"95127";;"6B R DE MONDETOUR CCAL ST CHRISTOPHE";"95000";"CERGY";"Immeuble"; 21.0;"Société HLM"
702683;2.25167;48.99472;"02° 15' 06.00'' Est, 48° 59' 41.00'' Nord";"95219";"STADE RENOIR";"R DU SYNDICAT D401";"95120";"ERMONT";"Pylône autostable"; 24.0;"Commune, communauté de commune"
707160;2.23250;48.95472;"02° 13' 57.00'' Est, 48° 57' 17.00'' Nord";"95018";;"1/5 R DU COUDRAY HLM D'ARGENTEUIL ET BEZONS";"95100";"ARGENTEUIL";"Immeuble"; 26.0;"Société HLM"
707168;2.25639;48.95250;"02° 15' 23.00'' Est, 48° 57' 09.00'' Nord";"95018";"LA SABLIÈRE";"16 R KRUGER";"95100";"ARGENTEUIL";"Immeuble"; 22.0;"Société HLM"
707170;2.28333;48.95806;"02° 16' 60.00'' Est, 48° 57' 29.00'' Nord";"95018";;"4 R YVES FARGES CITÉ JOLIOT CURIE";"95100";"ARGENTEUIL";"Immeuble"; 33.0;"Société HLM"
707172;2.28333;48.95861;"02° 16' 60.00'' Est, 48° 57' 31.00'' Nord";"95018";;"9 R YVES FARGES CITÉ JOLIOT CURIE";"95100";"ARGENTEUIL";"Immeuble"; 30.0;"Société HLM"
707174;2.21833;48.95389;"02° 13' 06.00'' Est, 48° 57' 14.00'' Nord";"95018";;"4 ALLÉE LUDWIG VAN BEETHOVEN";"95100";"ARGENTEUIL";"Immeuble"; 50.0;"Société HLM"
707176;2.24722;48.96278;"02° 14' 50.00'' Est, 48° 57' 46.00'' Nord";"95018";;"6-14 R DU BORDELAIS";"95100";"ARGENTEUIL";"Immeuble"; 45.0;"Société HLM"
707180;2.27556;48.95472;"02° 16' 32.00'' Est, 48° 57' 17.00'' Nord";"95018";;"BRETELLE D'ACCÈS RN 311 CHEM DES TROIS FUSILLÉS D'ORGEMONT";"95100";"ARGENTEUIL";"Pylône tubulaire"; 26.0;"DDE"
707182;2.25083;48.94472;"02° 15' 03.00'' Est, 48° 56' 41.00'' Nord";"95018";;"30, AV GABRIEL PÉRI";"95100";"ARGENTEUIL";"Immeuble"; 51.0;"Société HLM"
707184;2.27361;48.95167;"02° 16' 25.00'' Est, 48° 57' 06.00'' Nord";"95018";"LE VAUCELLE";"9, R GASTON MONMOUSSEAU";"95100";"ARGENTEUIL";"Immeuble"; 23.0;"Société HLM"
707326;2.22167;48.94056;"02° 13' 18.00'' Est, 48° 56' 26.00'' Nord";"95018";;"203/205 AV JEAN JAURÈS";"95100";"ARGENTEUIL";"Immeuble"; 19.0;"Copropriété, Syndic, SCI"
707344;2.22750;48.93611;"02° 13' 39.00'' Est, 48° 56' 10.00'' Nord";"95018";;"53, R DU PARC";"95100";"ARGENTEUIL";"Immeuble"; 19.0;"Société HLM"
707348;2.26194;48.94972;"02° 15' 43.00'' Est, 48° 56' 59.00'' Nord";"95018";;"24 R DE CHEVREUIL";"95100";"ARGENTEUIL";"Immeuble"; 18.0;"Copropriété, Syndic, SCI"
707354;2.24667;48.96139;"02° 14' 48.00'' Est, 48° 57' 41.00'' Nord";"95018";;"4 R DU BORDELAIS/R DE RENNES CITÉ CHAMPAGNE";"95100";"ARGENTEUIL";"Immeuble"; 44.0;"Société HLM"
707356;2.23722;48.94139;"02° 14' 14.00'' Est, 48° 56' 29.00'' Nord";"95018";;"2 R DES MESSIERS";"95100";"ARGENTEUIL";"Immeuble"; 17.0;"Copropriété, Syndic, SCI"
707358;2.21556;48.95528;"02° 12' 56.00'' Est, 48° 57' 19.00'' Nord";"95018";;"30, BD  DE LA RÉSISTANCE";"95100";"ARGENTEUIL";"Immeuble"; 45.0;"Société HLM"
707544;2.25222;48.95139;"02° 15' 08.00'' Est, 48° 57' 05.00'' Nord";"95018";;"7 BD  BOURCERON";"95100";"ARGENTEUIL";"Immeuble"; 25.0;"Copropriété, Syndic, SCI"
708026;2.23361;48.95611;"02° 14' 01.00'' Est, 48° 57' 22.00'' Nord";"95018";;"47/67 AV GEORGES CLÉMENCEAU";"95100";"ARGENTEUIL";"Immeuble"; 26.0;"Société HLM"
708030;2.21639;48.94444;"02° 12' 59.00'' Est, 48° 56' 40.00'' Nord";"95018";;"47 R DES ALOUETTES";"95100";"ARGENTEUIL";"Immeuble"; 10.0;"Particulier"
708036;2.25278;48.95389;"02° 15' 10.00'' Est, 48° 57' 14.00'' Nord";"95018";;"3,7 SQ JEAN ALLEMANE";"95100";"ARGENTEUIL";"Immeuble"; 20.0;"Société HLM"
708038;2.23056;48.95556;"02° 13' 50.00'' Est, 48° 57' 20.00'' Nord";"95018";;"11 ALL AUGUSTE RENOIR";"95100";"ARGENTEUIL";"Immeuble"; 33.0;"Société HLM"
708483;2.22778;48.93972;"02° 13' 40.00'' Est, 48° 56' 23.00'' Nord";"95018";;"131 AV JEAN JAURES";"95100";"ARGENTEUIL";"Immeuble"; 19.0;"Société HLM"
708485;2.24917;48.94194;"02° 14' 57.00'' Est, 48° 56' 31.00'' Nord";"95018";;"2, 4 R NOTRE DAME PL G. BRAQUE";"95100";"ARGENTEUIL";"Immeuble"; 31.0;"Copropriété, Syndic, SCI"
708487;2.24944;48.94500;"02° 14' 58.00'' Est, 48° 56' 42.00'' Nord";"95018";;"8 R ANTONIN GEORGES BELIN";"95100";"ARGENTEUIL";"Immeuble"; 47.0;"Société HLM"
708670;2.21250;48.93750;"02° 12' 45.00'' Est, 48° 56' 15.00'' Nord";"95018";;"R DE LA BUTTE BLANCHE";"95100";"ARGENTEUIL";"Immeuble"; 29.0;"Société HLM"
708675;2.24194;48.93500;"02° 14' 31.00'' Est, 48° 56' 06.00'' Nord";"95018";;"1 R ARY SCHEFFER ANGLE BD HELOISE HOTEL";"95100";"ARGENTEUIL";"Immeuble"; 21.0;"Société Privée SA"
712343;2.49917;48.98000;"02° 29' 57.00'' Est, 48° 58' 48.00'' Nord";"95277";;"R DE LA BELLE ETOILE PARIS NORD II";"95500";"GONESSE";"Pylône tubulaire"; 20.0;"ORANGE"
713039;2.20667;49.03889;"02° 12' 24.00'' Est, 49° 02' 20.00'' Nord";"95060";;"SQ DES QUARTIERS DES BEAUX LIEUX";"95550";"BESSANCOURT";"Pylône autostable"; 30.5;"SFR"
719915;2.32250;49.02222;"02° 19' 21.00'' Est, 49° 01' 20.00'' Nord";"95199";;"PL GAMBETTA CIMETIERE";"95330";"DOMONT";"pylône arbre"; 21.0;"Commune, communauté de commune"
721425;2.11333;49.06306;"02° 06' 48.00'' Est, 49° 03' 47.00'' Nord";"95211";"LA CHAPELLE ST ANTOINE";"CH DE LA CHAPELLE ST ANTOINE";"95300";"ENNERY";"Pylône autostable"; 53.0;"ORANGE Services Fixes"
721442;2.10889;49.02944;"02° 06' 32.00'' Est, 49° 01' 46.00'' Nord";"95572";;"AV DU GROS CHÊNE PARKING RENAULT";"95310";"SAINT-OUEN-L'AUMONE";"Pylône tubulaire"; 26.0;"SFR"
721672;2.11389;49.18194;"02° 06' 50.00'' Est, 49° 10' 55.00'' Nord";"95023";;"R DE LA MAIRIE";"95810";"ARRONVILLE";"Monument religieux"; 29.1;"Commune, communauté de commune"
722370;2.38750;48.99667;"02° 23' 15.00'' Est, 48° 59' 48.00'' Nord";"95585";;"29-31 R DE L'ESCOUVRIER";"95200";"SARCELLES";"Pylône autostable"; 30.0;"ORANGE"
722372;2.39833;48.98389;"02° 23' 54.00'' Est, 48° 59' 02.00'' Nord";"95585";;"R EMILE ZOLA STADE EMILE ZOLA";"95200";"SARCELLES";"Pylône autostable"; 32.0;"Commune, communauté de commune"
722600;2.38056;49.00306;"02° 22' 50.00'' Est, 49° 00' 11.00'' Nord";"95585";;"21, R A. GRUNIG";"95200";"SARCELLES";"Immeuble"; 21.0;"Société HLM"
722604;2.38806;48.99028;"02° 23' 17.00'' Est, 48° 59' 25.00'' Nord";"95585";;"9 R DE L'ESCOUVRIER";"95200";"SARCELLES";"Pylône autostable"; 38.0;"FPS TOWERS"
722609;2.38694;48.97472;"02° 23' 13.00'' Est, 48° 58' 29.00'' Nord";"95585";;"2 ALL PONTREMOLI";"95200";"SARCELLES";"Immeuble"; 45.0;"Copropriété, Syndic, SCI"
726403;2.16611;49.13000;"02° 09' 58.00'' Est, 49° 07' 48.00'' Nord";"95446";;"1 ALL RENE FLORENTIN CSEC";"95690";"NESLES-LA-VALLEE";"Bâtiment"; 17.0;"SDIS, secours, incendie"
729520;2.43972;49.04500;"02° 26' 23.00'' Est, 49° 02' 42.00'' Nord";"95241";"LES PETITS GENÊTS";"D 47 B1";"95190";"FONTENAY-EN-PARISIS";"Pylône haubané"; 20.0;"DDE"
734710;2.41500;48.97750;"02° 24' 54.00'' Est, 48° 58' 39.00'' Nord";"95268";;"43 BD DE LA MUETTE";"95140";"GARGES-LES-GONESSE";"Pylône autostable"; 33.0;"ORANGE"
734740;2.14167;49.02222;"02° 08' 30.00'' Est, 49° 01' 20.00'' Nord";"95488";;"R EMILE ZOLA ZI PORTE OUEST    PYLONE SFR";"95220";"PIERRELAYE";"Pylône autostable"; 45.0;"SFR"
735039;2.23167;48.93056;"02° 13' 54.00'' Est, 48° 55' 50.00'' Nord";"95018";;"151, R MICHEL CARRÉ";"95100";"ARGENTEUIL";"Immeuble"; 21.0;"Copropriété, Syndic, SCI"
744845;2.29083;49.14500;"02° 17' 27.00'' Est, 49° 08' 42.00'' Nord";"95052";;"25 R EDMOND TURCQ CENTRE HOSPITALIER";"95260";"BEAUMONT-SUR-OISE";"Bâtiment"; 23.0;"Etablissement de soins"
746989;2.25917;48.96417;"02° 15' 33.00'' Est, 48° 57' 51.00'' Nord";"95582";;"84 R GABRIEL PÉRI";"95110";"SANNOIS";"Immeuble"; 24.0;"Société HLM"
747048;1.73833;49.17250;"01° 44' 18.00'' Est, 49° 10' 21.00'' Nord";"95554";;"LE POIRIER GRIS CHÂTEAU D'EAU";"95420";"SAINT-GERVAIS";"Château d'eau - réservoir"; 25.0;"Commune, communauté de commune"
752201;2.28500;49.00861;"02° 17' 06.00'' Est, 49° 00' 31.00'' Nord";"95426";;"PL DE LA MAIRIE EGLISE";"95680";"MONTLIGNON";"Monument religieux"; 24.9;"Commune, communauté de commune"
752933;2.10417;49.02111;"02° 06' 15.00'' Est, 49° 01' 16.00'' Nord";"95218";;"3 R DE L'OURQ";"95610";"ERAGNY";"Immeuble"; 25.5;"Société HLM"
763252;1.93417;49.04167;"01° 56' 03.00'' Est, 49° 02' 30.00'' Nord";"95170";"LE GENETET";"LES HAUTS DE CONDÉCOURT";"95450";"CONDECOURT";"Pylône autostable"; 17.0;"ORANGE"
766620;2.28583;48.96389;"02° 17' 09.00'' Est, 48° 57' 50.00'' Nord";"95555";;"56 BD  DE LA GARE  HOTEL IBIS";"95210";"SAINT-GRATIEN";"Immeuble"; 27.0;"Société Privée SA"
770925;2.07111;49.07306;"02° 04' 16.00'' Est, 49° 04' 23.00'' Nord";"95476";"STADE MUNICIPAL CHRISTIAN LEON";"R DE LIVILLIERS";"95520";"OSNY";"Pylône autostable"; 32.0;"SFR"
771174;1.93194;49.15444;"01° 55' 55.00'' Est, 49° 09' 16.00'' Nord";"95142";"LES MURGETS";"R DE MOUSSY";"95750";"CHARS";"Bâtiment"; 5.5;"Société Privée SA"
780391;2.09528;49.02611;"02° 05' 43.00'' Est, 49° 01' 34.00'' Nord";"95218";;"15 R DE ST OUEN";"95610";"ERAGNY";"Bâtiment"; 6.0;"Particulier"
783665;2.32361;49.06250;"02° 19' 25.00'' Est, 49° 03' 45.00'' Nord";"95042";"LA CROIX VERTE";"AVENUE DU BOSQUET";"95560";"BAILLET-EN-FRANCE";"Pylône tubulaire"; 26.5;"BOUYGUES"
784560;2.41778;48.99528;"02° 25' 04.00'' Est, 48° 59' 43.00'' Nord";"95019";;"R JEAN LAUGERE  PARK DE LAGARE";"95400";"ARNOUVILLE-LES-GONESSE";"Immeuble"; 23.0;"SNCF Réseau"
784701;2.46111;49.03444;"02° 27' 40.00'' Est, 49° 02' 04.00'' Nord";"95280";;"25 R HENRI VUILLEMIN";"95190";"GOUSSAINVILLE";"Immeuble"; 28.0;"Copropriété, Syndic, SCI"
785525;2.09167;49.05694;"02° 05' 30.00'' Est, 49° 03' 25.00'' Nord";"95500";;"7 R FONTAINE";"95000";"PONTOISE";"Immeuble"; 38.0;"Société HLM"
787033;2.39972;48.96944;"02° 23' 59.00'' Est, 48° 58' 10.00'' Nord";"95268";;"45 AV DE LA COMMUNE DE PARIS";"95140";"GARGES-LES-GONESSE";"Immeuble"; 37.0;"Copropriété, Syndic, SCI"
787186;1.70889;49.06083;"01° 42' 32.00'' Est, 49° 03' 39.00'' Nord";"95651";"LES BASSES PLANTES BOCHERONS";"CHEM RURAL N° 26";"95510";"VETHEUIL";"Pylône tubulaire"; 15.0;"ORANGE"
794175;2.06500;49.05611;"02° 03' 54.00'' Est, 49° 03' 22.00'' Nord";"95476";;"R DE LA RAVINIERE  LES TERRASSES DE LA RAVINIÈRE";"95520";"OSNY";"Immeuble"; 30.0;"Société HLM"
796235;2.04389;49.01167;"02° 02' 38.00'' Est, 49° 00' 42.00'' Nord";"95323";;"9 ALLEE DE JOUY";"95280";"JOUY-LE-MOUTIER";"Pylône autostable"; 15.0;"Commune, communauté de commune"
797723;2.23778;48.98389;"02° 14' 16.00'' Est, 48° 59' 02.00'' Nord";"95582";;"1-3 R DES CARREAUX";"95110";"SANNOIS";"Immeuble"; 41.0;"Société HLM"
797789;2.23306;48.99722;"02° 13' 59.00'' Est, 48° 59' 50.00'' Nord";"95252";;"R DU PLESSIS BOUCHARD  BAT A2";"95130";"FRANCONVILLE";"Immeuble"; 18.0;"Société HLM"
797960;2.01444;49.02111;"02° 00' 52.00'' Est, 49° 01' 16.00'' Nord";"95637";;"1,  R DU CHARDON CENTRE TECHNIQUE DE VAUREAL";"95490";"VAUREAL";"Pylône autostable"; 22.0;"SFR"
798583;2.29750;48.96611;"02° 17' 51.00'' Est, 48° 57' 58.00'' Nord";"95555";;"7, 9 PL ALBERT CAMUS";"95210";"SAINT-GRATIEN";"Immeuble"; 40.0;"Copropriété, Syndic, SCI"
798922;2.13250;49.01000;"02° 07' 57.00'' Est, 49° 00' 36.00'' Nord";"95306";"LES CAILLOUX GRIS";"IMP LAMBERT DUMESNIL";"95220";"HERBLAY";"Pylône autostable"; 30.0;"Commune, communauté de commune"
799735;2.19139;49.01333;"02° 11' 29.00'' Est, 49° 00' 48.00'' Nord";"95051";;"13 R GILBERT DRU EGLISE DE BEAUCHAMP";"95250";"BEAUCHAMP";"Monument religieux"; 27.0;"Association"
799788;2.21278;48.97917;"02° 12' 46.00'' Est, 48° 58' 45.00'' Nord";"95176";"LA MONTAGNE AUX VACHES";"RTE STRATÉGIQUE FOYER C.A.T - A.S.I.T.P";"95240";"CORMEILLES-EN-PARISIS";"Bâtiment"; 31.0;"Particulier"
800595;2.08083;49.03806;"02° 04' 51.00'' Est, 49° 02' 17.00'' Nord";"95127";;"R DE LA CROIX DES MAHEUX CC LES TROIS FONTAINES";"95000";"CERGY";"Immeuble"; 5.7;"Société Privée SA"
800599;2.22583;49.02611;"02° 13' 33.00'' Est, 49° 01' 34.00'' Nord";"95607";;"2 PL CHARLES DE GAULLE CTRE ADMINISTRATIF";"95150";"TAVERNY";"Immeuble"; 24.0;"Commune, communauté de commune"
800793;2.03417;49.05139;"02° 02' 03.00'' Est, 49° 03' 05.00'' Nord";"95127";;"14 AV DES BÉGUINES";"95000";"CERGY";"Bâtiment"; 21.0;"Société Privée SA"
800797;1.65472;49.13889;"01° 39' 17.00'' Est, 49° 08' 20.00'' Nord";"95101";;"2, GRANDE RUE SOCIÉTÉ UMICORE FRANCE";"95710";"BRAY-ET-LU";"Bâtiment"; 13.2;"Société Privée SA"
801056;2.49861;49.01194;"02° 29' 55.00'' Est, 49° 00' 43.00'' Nord";"95527";;"RTE DE L ARPENTEUR ZONE ENTRETIEN RDC DU BAT";"95700";"ROISSY-EN-FRANCE";"Bâtiment"; 31.0;"Société Privée SA"
801629;1.70056;49.14444;"01° 42' 02.00'' Est, 49° 08' 40.00'' Nord";"95011";"ST SULPICE";"CHEM RURAL N° 27";"95710";"AMBLEVILLE";"Pylône autostable"; 15.1;"Commune, communauté de commune"
802083;2.26278;48.94611;"02° 15' 46.00'' Est, 48° 56' 46.00'' Nord";"95018";;"43 R DE LA VOIE DES BANS BAT  VANILLE";"95100";"ARGENTEUIL";"Bâtiment"; 11.0;"Société Privée SA"
802451;1.86417;49.03194;"01° 51' 51.00'' Est, 49° 01' 55.00'' Nord";"95592";"LES CARRIÈRES";"CHEM DE LA ROUE SÈCHE";"95450";"SERAINCOURT";"Pylône tubulaire"; 22.0;"TDF"
803169;2.05278;49.06139;"02° 03' 10.00'' Est, 49° 03' 41.00'' Nord";"95476";;"R DU PUISIEUX  FACE AU N° 9";"95520";"OSNY";"Pylône tubulaire"; 34.0;"SFR"
804693;2.49667;49.07472;"02° 29' 48.00'' Est, 49° 04' 29.00'' Nord";"95371";;"CD 9 CENTRAL TÉLÉPHONIQUE";"95670";"MARLY-LA-VILLE";"Pylône autostable"; 26.0;"ORANGE Services Fixes"
809743;2.38833;48.99833;"02° 23' 18.00'' Est, 48° 59' 54.00'' Nord";"95585";;"1 R DES TISSONVILLIERS";"95200";"SARCELLES";"Bâtiment"; 1.0;"Société Privée SA"
809745;2.23333;48.96778;"02° 14' 00.00'' Est, 48° 58' 04.00'' Nord";"95018";;"277 AV DU MARECHAL JOFFRE";"95100";"ARGENTEUIL";"Immeuble"; 7.0;"Société Privée SA"
817392;2.21333;48.93111;"02° 12' 48.00'' Est, 48° 55' 52.00'' Nord";"95063";;"55 R PARMENTIER CITÉ ROGER MASSON";"95870";"BEZONS";"Immeuble"; 32.0;"Société HLM"
819491;2.19889;48.97889;"02° 11' 56.00'' Est, 48° 58' 44.00'' Nord";"95176";;"11 R DU FORT  RES DU PARC";"95240";"CORMEILLES-EN-PARISIS";"Immeuble"; 24.0;"Société HLM"
820145;2.21806;48.94861;"02° 13' 05.00'' Est, 48° 56' 55.00'' Nord";"95018";;"5 R DE LA FAUVETTE";"95100";"ARGENTEUIL";"Pylône autostable"; 37.0;"BOUYGUES"
820801;2.30556;48.96833;"02° 18' 20.00'' Est, 48° 58' 06.00'' Nord";"95210";;"85 R DU GÉNÉRAL DE GAULLE";"95880";"ENGHIEN-LES-BAINS";"Immeuble"; 22.0;"Copropriété, Syndic, SCI"
824632;2.31917;48.96833;"02° 19' 09.00'' Est, 48° 58' 06.00'' Nord";"95197";;"23 R DU CHÂTEAU";"95170";"DEUIL-LA-BARRE";"Immeuble"; 18.0;"Particulier"
824646;2.30472;49.02500;"02° 18' 17.00'' Est, 49° 01' 30.00'' Nord";"95199";"LE TROU DU TONNERRE";"D909";"95330";"DOMONT";"Pylône autostable"; 27.0;"ORANGE"
824654;2.53472;49.01111;"02° 32' 05.00'' Est, 49° 00' 40.00'' Nord";"95527";;"RTE DES ANNIVERSAIRES ZONE TECHNIQUE  BAT 7500";"95700";"ROISSY-EN-FRANCE";"Bâtiment"; 27.0;"CCI,Ch Metiers,Port Aut,Aérop"
824676;2.21028;49.01750;"02° 12' 37.00'' Est, 49° 01' 03.00'' Nord";"95607";;"158 À 162 R D'HERBLAY";"95150";"TAVERNY";"Immeuble"; 16.0;"ORANGE Services Fixes"
824678;2.18028;49.06667;"02° 10' 49.00'' Est, 49° 04' 00.00'' Nord";"95394";;"2 B  BLV MARCEL PERRIN";"95540";"MERY-SUR-OISE";"Pylône tubulaire"; 33.0;"Intérieur"
824680;1.96889;49.07667;"01° 58' 08.00'' Est, 49° 04' 36.00'' Nord";"95002";;"LE VERGER CR 2 DÉPARTEMENTALE 28";"95450";"ABLEIGES";"Bâtiment"; 18.0;"ORANGE"
824682;2.44889;48.96250;"02° 26' 56.00'' Est, 48° 57' 45.00'' Nord";"95088";;"AÉROPORT DU BOURGET - ZONE D'AFFAIRES ROUTE DE FLANDRE";"95500";"BONNEUIL-EN-FRANCE";"Immeuble"; 24.0;"Société Privée SA"
824684;2.52306;48.99528;"02° 31' 23.00'' Est, 48° 59' 43.00'' Nord";"95527";;"R DU CERCLE SITUÉ ENTRE BÂT 3312 ET 3313";"95700";"ROISSY-EN-FRANCE";"Pylône tubulaire"; 31.0;"ORANGE"
824688;2.15083;48.99500;"02° 09' 03.00'' Est, 48° 59' 42.00'' Nord";"95306";;"1 R ALPHONSE DAUDET";"95220";"HERBLAY";"Immeuble"; 18.0;"Société HLM"
824690;2.33528;48.95889;"02° 20' 07.00'' Est, 48° 57' 32.00'' Nord";"95427";"SOCIÉTÉ TF CHIMIE";"216, R JULES FERRY SOCIÉTÉ TF CHIMIE";"95360";"MONTMAGNY";"Immeuble"; 20.0;"Société Privée SA"
824692;2.41361;49.00028;"02° 24' 49.00'' Est, 49° 00' 01.00'' Nord";"95680";;"2 ALLÉE PIERRE CORNEILLE";"95400";"VILLIERS-LE-BEL";"Immeuble"; 37.0;"Société HLM"
824694;2.28750;48.99639;"02° 17' 15.00'' Est, 48° 59' 47.00'' Nord";"95203";;"R ALBERT CAMUS";"95600";"EAUBONNE";"Immeuble"; 39.0;"Société HLM"
824696;2.48861;48.97333;"02° 29' 19.00'' Est, 48° 58' 24.00'' Nord";"95277";;"PRÈS DU BD D'INTERCONNEXION DU PARISIS - D170 ECH A1/A104";"95500";"GONESSE";"Pylône autostable"; 27.0;"ORANGE"
824707;2.11389;49.15028;"02° 06' 50.00'' Est, 49° 09' 01.00'' Nord";"95328";"LA CHAPELLE";"HARAS DE LA CHAPELLE PRÈS D 927";"95690";"LABBEVILLE";"Pylône autostable"; 19.0;"ORANGE"
824709;2.19250;49.02639;"02° 11' 33.00'' Est, 49° 01' 35.00'' Nord";"95607";;"46, R CONSTANTIN PECQUEUR";"95150";"TAVERNY";"Pylône autostable"; 20.0;"Société Privée SA"
824711;2.21667;49.02694;"02° 13' 00.00'' Est, 49° 01' 37.00'' Nord";"95607";;"6 R DE PIERRELAYE";"95150";"TAVERNY";"Bâtiment"; 14.0;"ORANGE"
824716;2.35111;49.01778;"02° 21' 04.00'' Est, 49° 01' 04.00'' Nord";"95489";"HAMEAU DE PONCELLES";"2 R DE LA TÊTE RICHARD";"95350";"PISCOP";"Pylône autostable"; 29.0;"ORANGE Services Fixes"
824718;2.39972;49.11417;"02° 23' 59.00'' Est, 49° 06' 51.00'' Nord";"95352";;"GOLF DE MONT GRIFFON  RD 909";"95270";"LUZARCHES";"Pylône tubulaire"; 20.0;"ORANGE"
824721;2.28611;49.15500;"02° 17' 10.00'' Est, 49° 09' 18.00'' Nord";"95487";"LE GRAND MARAIS";"R DU CHEM NOIR - GARE DE TRIAGE SNCF";"95340";"PERSAN";"Pylône tubulaire"; 29.0;"SNCF Réseau"
824725;2.18417;49.01778;"02° 11' 03.00'' Est, 49° 01' 04.00'' Nord";"95051";;"35 R DE L'EGALITÉ FOYER SONACOTRA";"95250";"BEAUCHAMP";"Immeuble"; 26.0;"Société HLM"
824731;2.34583;49.03028;"02° 20' 45.00'' Est, 49° 01' 49.00'' Nord";"95199";;"4 R DESCARTES";"95330";"DOMONT";"Immeuble"; 22.0;"Copropriété, Syndic, SCI"
824735;2.47306;48.98333;"02° 28' 23.00'' Est, 48° 59' 00.00'' Nord";"95277";"LA PATTE D'OIE DE GONESSE";"LA DRIRE";"95500";"GONESSE";"Pylône tubulaire"; 24.0;"ORANGE"
824741;2.25611;49.00361;"02° 15' 22.00'' Est, 49° 00' 13.00'' Nord";"95574";;"6 ALLÉE PHILIPPE RAMEAU RÉS. LA VALLÉE - BÂTIMENT E";"95390";"SAINT-PRIX";"Immeuble"; 20.0;"Société HLM"
824744;2.20556;48.91833;"02° 12' 20.00'' Est, 48° 55' 06.00'' Nord";"95063";;"115 , R CASIMIR PÉRIER";"95870";"BEZONS";"Pylône tubulaire"; 33.0;"ORANGE"
824746;2.24528;49.01806;"02° 14' 43.00'' Est, 49° 01' 05.00'' Nord";"95563";;"R DU GÉNÉRAL LECLERC";"95320";"SAINT-LEU-LA-FORET";"Monument religieux"; 41.0;"Commune, communauté de commune"
824749;2.09944;49.01806;"02° 05' 58.00'' Est, 49° 01' 05.00'' Nord";"95218";"LA CHALLE ORANGE";"7 R DU COMMERCE";"95610";"ERAGNY";"Immeuble"; 25.0;"Copropriété, Syndic, SCI"
824751;2.29222;48.97806;"02° 17' 32.00'' Est, 48° 58' 41.00'' Nord";"95598";;"61-63 AV KELLERMANN CENTRAL FRANCE TÉLÉCOM";"95230";"SOISY-SOUS-MONTMORENCY";"Bâtiment"; 26.0;"ORANGE Services Fixes"
824753;2.27194;49.13222;"02° 16' 19.00'' Est, 49° 07' 56.00'' Nord";"95436";;"7 R DU MOULIN MISSIONNAIRES D'AFRIQUE";"95260";"MOURS";"Monument religieux"; 23.0;"Commune, communauté de commune"
824757;2.31889;48.98806;"02° 19' 08.00'' Est, 48° 59' 17.00'' Nord";"95428";;"11, R DE LA POTERNE RÉSIDENCE DU CHÂTEAU GAILLARD BÂTIMENT C";"95160";"MONTMORENCY";"Immeuble"; 26.4;"Copropriété, Syndic, SCI"
824762;2.04083;49.00917;"02° 02' 27.00'' Est, 49° 00' 33.00'' Nord";"95323";;"BD D'ECANCOURT STADE MUNICIPAL";"95280";"JOUY-LE-MOUTIER";"Pylône tubulaire"; 30.0;"Commune, communauté de commune"
824765;2.52583;49.09583;"02° 31' 33.00'' Est, 49° 05' 45.00'' Nord";"95580";;"3, R DE LA LUCARNE ST LAZARE";"95470";"SAINT-WITZ";"Pylône autostable"; 31.0;"ORANGE"
824770;2.20694;48.92389;"02° 12' 25.00'' Est, 48° 55' 26.00'' Nord";"95063";;"1 R HOCHE LE GRAND CERF";"95870";"BEZONS";"Immeuble"; 24.0;"Société HLM"
824775;2.41111;48.96667;"02° 24' 40.00'' Est, 48° 58' 00.00'' Nord";"95268";;"R RENÉ BLOUET STADE JEAN JAURÈS";"95140";"GARGES-LES-GONESSE";"Pylône autostable"; 23.0;"ORANGE"
824779;2.08083;49.05139;"02° 04' 51.00'' Est, 49° 03' 05.00'' Nord";"95500";"LES HAUTS DE MARCOUVILLE";"BÂT. 5 ADM. : SENTE ROBINET";"95000";"PONTOISE";"Immeuble"; 30.0;"Société HLM"
824781;2.45528;48.98333;"02° 27' 19.00'' Est, 48° 59' 00.00'' Nord";"95277";;"11 R DE LA MALMAISON ZI";"95500";"GONESSE";"Pylône autostable"; 24.0;"ORANGE"
824783;2.27917;49.02611;"02° 16' 45.00'' Est, 49° 01' 34.00'' Nord";"95574";"TOUR DU PLUMET";"FORÊT DOMANIALE DE MONTMORENCY";"95390";"SAINT-PRIX";"Monument historique"; 25.0;"Etat, Ministère"
824786;2.42139;49.11750;"02° 25' 17.00'' Est, 49° 07' 03.00'' Nord";"95352";;"1, R MOANDA";"95270";"LUZARCHES";"Pylône tubulaire"; 32.0;"ORANGE"
824788;2.42444;48.99889;"02° 25' 28.00'' Est, 48° 59' 56.00'' Nord";"95277";;"60 AV DES JASMINS";"95500";"GONESSE";"Pylône tubulaire"; 17.0;"Commune, communauté de commune"
824792;2.19806;49.00694;"02° 11' 53.00'' Est, 49° 00' 25.00'' Nord";"95424";;"PL DE LA GARE";"95370";"MONTIGNY-LES-CORMEILLES";"Pylône autostable"; 27.0;"ORANGE"
824796;2.07889;49.07417;"02° 04' 44.00'' Est, 49° 04' 27.00'' Nord";"95476";;"CCAL DE L OSERAIE RD 915";"95520";"OSNY";"Pylône tubulaire"; 26.0;"ORANGE"
824800;2.35972;48.99861;"02° 21' 35.00'' Est, 48° 59' 55.00'' Nord";"95539";;"20 R PIERRE SALVI";"95350";"SAINT-BRICE-SOUS-FORET";"Immeuble"; 26.0;"Commune, communauté de commune"
824802;2.43972;48.98611;"02° 26' 23.00'' Est, 48° 59' 10.00'' Nord";"95277";;"1 R D'ORGEMONT CENTRAL TÉLÉPHONIQUE";"95500";"GONESSE";"Bâtiment"; 23.0;"ORANGE Services Fixes"
824804;2.54278;49.09333;"02° 32' 34.00'' Est, 49° 05' 36.00'' Nord";"95604";"LA PORTE DES CHAMPS";"CHEM DES NEUFS MOULINS";"95470";"SURVILLIERS";"Château d'eau - réservoir"; 42.0;"Commune, communauté de commune"
824806;1.69889;49.12583;"01° 41' 56.00'' Est, 49° 07' 33.00'' Nord";"95150";"LA FOLIE";"RD 171";"95710";"CHAUSSY";"Pylône tubulaire"; 19.0;"ORANGE"
824808;2.36944;49.12556;"02° 22' 10.00'' Est, 49° 07' 32.00'' Nord";"95652";;"PL PIERRE SALVI";"95270";"VIARMES";"Monument religieux"; 38.0;"Commune, communauté de commune"
824810;2.27139;48.97278;"02° 16' 17.00'' Est, 48° 58' 22.00'' Nord";"95582";"LES TARTRES";"24 R DU BUISSON";"95110";"SANNOIS";"Immeuble"; 30.0;"Société HLM"
824812;2.32472;48.97778;"02° 19' 29.00'' Est, 48° 58' 40.00'' Nord";"95197";;"2 R DES GRANGES CTU/CPE";"95170";"DEUIL-LA-BARRE";"Bâtiment"; 22.0;"ORANGE Services Fixes"
824814;2.27361;48.98667;"02° 16' 25.00'' Est, 48° 59' 12.00'' Nord";"95203";;"1 R PIERRE BROSSOLETTE";"95600";"EAUBONNE";"Immeuble"; 35.0;"Société HLM"
824817;2.46111;49.01833;"02° 27' 40.00'' Est, 49° 01' 06.00'' Nord";"95280";;"19, R LE CORBUSIER HÔTEL CAMPAGNILE";"95190";"GOUSSAINVILLE";"Immeuble"; 18.0;"Société Privée SA"
824820;2.46417;49.00694;"02° 27' 51.00'' Est, 49° 00' 25.00'' Nord";"95612";;"AV DES VIOLETTES SUPER U";"95500";"LE THILLAY";"Pylône tubulaire"; 16.0;"Copropriété, Syndic, SCI"
824822;2.19528;48.96278;"02° 11' 43.00'' Est, 48° 57' 46.00'' Nord";"95176";;"49 R DES CHAMPS GUILLAUME";"95240";"CORMEILLES-EN-PARISIS";"Bâtiment"; 27.0;"Commune, communauté de commune"
824824;2.25444;49.13000;"02° 15' 16.00'' Est, 49° 07' 48.00'' Nord";"95436";;"CÔTE DE LA RIVIÈRE RN1";"95260";"MOURS";"Pylône autostable"; 32.0;"ORANGE"
824827;2.23944;48.98722;"02° 14' 22.00'' Est, 48° 59' 14.00'' Nord";"95252";;"R ALBERT CAMUS 2-4 R JEAN MOULIN";"95130";"FRANCONVILLE";"Immeuble"; 32.0;"Copropriété, Syndic, SCI"
824832;2.15972;49.06722;"02° 09' 35.00'' Est, 49° 04' 02.00'' Nord";"95039";;"R ROGER TAGLIANA";"95430";"AUVERS-SUR-OISE";"pylône arbre"; 27.0;"ORANGE"
824835;1.75361;49.11778;"01° 45' 13.00'' Est, 49° 07' 04.00'' Nord";"95270";"LE CHAMPART";"CH RURAL N°9 CH. RURAL N° 21";"95420";"GENAINVILLE";"Château d'eau - réservoir"; 30.0;"Commune, communauté de commune"
824837;2.01361;49.03194;"02° 00' 49.00'' Est, 49° 01' 55.00'' Nord";"95637";;"AV AUGUSTE BLANQUI";"95490";"VAUREAL";"Pylône tubulaire"; 25.0;"ORANGE"
824840;2.32222;48.98306;"02° 19' 20.00'' Est, 48° 58' 59.00'' Nord";"95428";;"66 R DU GÉNÉRAL DE GAULLE";"95160";"MONTMORENCY";"Bâtiment"; 16.0;"ORANGE"
824845;2.10722;49.04750;"02° 06' 26.00'' Est, 49° 02' 51.00'' Nord";"95572";;"8 R ST AGNÈS";"95310";"SAINT-OUEN-L'AUMONE";"Bâtiment"; 23.0;"Société HLM"
824849;2.31833;49.01972;"02° 19' 06.00'' Est, 49° 01' 11.00'' Nord";"95199";;"RTE DE MONTMORENCY";"95330";"DOMONT";"Pylône tubulaire"; 19.0;"ORANGE"
824851;2.48111;48.99917;"02° 28' 52.00'' Est, 48° 59' 57.00'' Nord";"95612";"LES GLIRETTES";"Z.I. VAL NORD FAST HÔTEL PRÈS RN.17";"95500";"LE THILLAY";"Pylône autostable"; 26.0;"ORANGE"
824854;2.30222;48.99000;"02° 18' 08.00'' Est, 48° 59' 24.00'' Nord";"95598";;"2 R D'EAUBONNE";"95230";"SOISY-SOUS-MONTMORENCY";"Pylône autostable"; 24.0;"ORANGE"
824856;2.20306;49.04361;"02° 12' 11.00'' Est, 49° 02' 37.00'' Nord";"95060";;"AV DES COUPILLERS HLM 3 VALLÉES";"95550";"BESSANCOURT";"Pylône tubulaire"; 29.0;"ORANGE"
824858;1.79861;49.15222;"01° 47' 55.00'' Est, 49° 09' 08.00'' Nord";"95355";;"R PAUL CÉZANNE";"95420";"MAGNY-EN-VEXIN";"Pylône autostable"; 27.0;"ORANGE Services Fixes"
824860;2.32778;48.98889;"02° 19' 40.00'' Est, 48° 59' 20.00'' Nord";"95428";;"11 AV CHARLES DE GAULLE RÉSIDENCE HÉLOÏSE";"95160";"MONTMORENCY";"Immeuble"; 21.0;"Société HLM"
824865;2.23333;49.06417;"02° 14' 00.00'' Est, 49° 03' 51.00'' Nord";"95678";;"R GODARD EGLISE";"95840";"VILLIERS-ADAM";"Monument religieux"; 30.0;"Commune, communauté de commune"
824867;2.24444;48.97583;"02° 14' 40.00'' Est, 48° 58' 33.00'' Nord";"95582";;"73, BD GAMBETTA STADE F. COUTIF PRÈS A9";"95110";"SANNOIS";"Pylône autostable"; 33.0;"ORANGE"
824870;2.17722;49.00028;"02° 10' 38.00'' Est, 49° 00' 01.00'' Nord";"95306";"LES PRIMOUX";"CHEM DES PRIMOUX PRÈS A 15";"95220";"HERBLAY";"Pylône autostable"; 47.6;"SFR"
826175;2.03083;49.03194;"02° 01' 51.00'' Est, 49° 01' 55.00'' Nord";"95637";"L'ALLÉE COUVERTE - LES BARAS";"R AMÉDÉE DE CAIX DE ST AYMOUR";"95490";"VAUREAL";"pylône arbre"; 25.0;"Commune, communauté de commune"
831780;2.41472;49.09028;"02° 24' 53.00'' Est, 49° 05' 25.00'' Nord";"95214";"BOIS DE CHAMPLATREUX";"RN 16";"95270";"EPINAY-CHAMPLATREUX";"Pylône autostable"; 25.0;"SFR"
837010;2.26806;48.98139;"02° 16' 05.00'' Est, 48° 58' 53.00'' Nord";"95219";;"GARE D'ERMONT EAUBONNE";"95120";"ERMONT";"Pylône autostable"; 34.0;"SNCF Réseau"
837015;2.53083;49.09917;"02° 31' 51.00'' Est, 49° 05' 57.00'' Nord";"95250";;"CARREFOUR ANGLE DE LA N°17 ET LA RD 922";"95470";"FOSSES";"Pylône autostable"; 38.0;"BOUYGUES"
837017;2.34583;48.98694;"02° 20' 45.00'' Est, 48° 59' 13.00'' Nord";"95288";;"21 R DU GAL LECLERC";"95410";"GROSLAY";"Immeuble"; 18.0;"Commune, communauté de commune"
837019;2.31944;48.98750;"02° 19' 10.00'' Est, 48° 59' 15.00'' Nord";"95428";;"7 R DE LA POTERNE 7 R DE CONDE";"95160";"MONTMORENCY";"Immeuble"; 26.0;"Copropriété, Syndic, SCI"
837027;2.25889;49.00083;"02° 15' 32.00'' Est, 49° 00' 03.00'' Nord";"95574";;"1 R JEAN MERMOZ";"95390";"SAINT-PRIX";"Immeuble"; 18.0;"Copropriété, Syndic, SCI"
837029;2.25667;48.98806;"02° 15' 24.00'' Est, 48° 59' 17.00'' Nord";"95219";;"SQ DES GRANDS ARBRES LE VILLAGE";"95120";"ERMONT";"Immeuble"; 20.0;"Société HLM"
837031;2.18556;49.01806;"02° 11' 08.00'' Est, 49° 01' 05.00'' Nord";"95051";;"AV DE L'EGALITÉ  STADE MUNICIPAL";"95250";"BEAUCHAMP";"Pylône autostable"; 43.0;"Commune, communauté de commune"
837033;2.02778;49.02333;"02° 01' 40.00'' Est, 49° 01' 24.00'' Nord";"95637";;"2 AV DE LA LIBERTÉ";"95490";"VAUREAL";"Immeuble"; 23.0;"Société HLM"
837035;2.13472;49.06472;"02° 08' 05.00'' Est, 49° 03' 53.00'' Nord";"95572";"LE CLOS BORGNE";"R DES FORTES TERRES";"95310";"SAINT-OUEN-L'AUMONE";"pylône arbre"; 31.0;"ORANGE"
837049;2.27528;48.99194;"02° 16' 31.00'' Est, 48° 59' 31.00'' Nord";"95203";;"4 AV DE BUDENHEIM";"95600";"EAUBONNE";"Immeuble"; 29.0;"Société HLM"
837057;2.24139;49.00944;"02° 14' 29.00'' Est, 49° 00' 34.00'' Nord";"95563";;"68 R JACQUES PREVERT";"95320";"SAINT-LEU-LA-FORET";"Immeuble"; 38.0;"Société HLM"
837059;2.34500;49.00389;"02° 20' 42.00'' Est, 49° 00' 14.00'' Nord";"95539";;"R DE LA FORET  STADE MUNICIPAL";"95350";"SAINT-BRICE-SOUS-FORET";"Pylône autostable"; 40.0;"FPS TOWERS"
837071;2.21722;49.03028;"02° 13' 02.00'' Est, 49° 01' 49.00'' Nord";"95607";;"329 R DE PARIS 6 VILLA GAUDINS";"95150";"TAVERNY";"Immeuble"; 23.0;"Copropriété, Syndic, SCI"
837073;2.21806;49.11528;"02° 13' 05.00'' Est, 49° 06' 55.00'' Nord";"95313";;"3 AV DE L'ABBE BREUIL";"95290";"L'ISLE-ADAM";"Immeuble"; 26.0;"Société HLM"
837075;2.19472;48.97611;"02° 11' 41.00'' Est, 48° 58' 34.00'' Nord";"95176";;"35 R DU MARTRAY";"95240";"CORMEILLES-EN-PARISIS";"Immeuble"; 17.0;"Société HLM"
837077;2.20111;48.97028;"02° 12' 04.00'' Est, 48° 58' 13.00'' Nord";"95176";;"19 RTE D'ARGENTEUIL";"95240";"CORMEILLES-EN-PARISIS";"Immeuble"; 20.0;"Société HLM"
837079;2.52028;49.00722;"02° 31' 13.00'' Est, 49° 00' 26.00'' Nord";"95527";;"2 AVENUE DE LA RAPERIE HOTEL";"95700";"ROISSY-EN-FRANCE";"Bâtiment"; 27.0;"CCI,Ch Metiers,Port Aut,Aérop"
837084;2.28444;48.99056;"02° 17' 04.00'' Est, 48° 59' 26.00'' Nord";"95203";;"24 R WALDECK ROUSSEAU";"95600";"EAUBONNE";"Immeuble"; 30.0;"Société HLM"
837086;2.54333;49.04889;"02° 32' 36.00'' Est, 49° 02' 56.00'' Nord";"95154";;"R DE LOUVRES CROISEMENT LIGNE TGV RD 165";"95380";"CHENNEVIERES-LES-LOUVRES";"Pylône autostable"; 35.5;"BOUYGUES"
837090;2.31056;48.97250;"02° 18' 38.00'' Est, 48° 58' 21.00'' Nord";"95428";;"144 AV DE LA DIVISION LECLERC";"95160";"MONTMORENCY";"Immeuble"; 23.0;"Particulier"
837092;2.23056;48.98083;"02° 13' 50.00'' Est, 48° 58' 51.00'' Nord";"95252";;"1 ALLÉE DU LAVOIR  BAT C";"95130";"FRANCONVILLE";"Immeuble"; 47.0;"Société HLM"
837094;2.47833;49.00667;"02° 28' 42.00'' Est, 49° 00' 24.00'' Nord";"95612";"LES GRANDS CHAMPS";"CHEM DE ST DENIS STADE MUNICIPAL";"95500";"LE THILLAY";"Pylône autostable"; 17.0;"TDF"
837096;2.31778;49.00722;"02° 19' 04.00'' Est, 49° 00' 26.00'' Nord";"95428";;"14 R RACINE";"95160";"MONTMORENCY";"Immeuble"; 31.0;"Copropriété, Syndic, SCI"
837100;2.09222;49.04639;"02° 05' 32.00'' Est, 49° 02' 47.00'' Nord";"95500";;"1 R DE LA FONTAINE D'AMOUR";"95000";"PONTOISE";"Immeuble"; 19.0;"Société HLM"
837102;2.35944;48.99056;"02° 21' 34.00'' Est, 48° 59' 26.00'' Nord";"95539";;"AV DU GÉNÉRAL DE GAULLE CAFÉ MONA LISA";"95350";"SAINT-BRICE-SOUS-FORET";"Immeuble"; 19.0;"Particulier"
837104;2.29250;48.99444;"02° 17' 33.00'' Est, 48° 59' 40.00'' Nord";"95598";;"8 ALL DES BOULEAUX RES DU NOYER CRAPAUD";"95230";"SOISY-SOUS-MONTMORENCY";"Immeuble"; 38.0;"Copropriété, Syndic, SCI"
837108;2.31389;49.03583;"02° 18' 50.00'' Est, 49° 02' 09.00'' Nord";"95199";"LES PRES D'EAU";;"95330";"DOMONT";"pylône arbre"; 20.0;"FPS TOWERS"
837110;2.20778;49.01056;"02° 12' 28.00'' Est, 49° 00' 38.00'' Nord";"95607";;"8 ALL DES TROÈNES RES DES PINS";"95150";"TAVERNY";"Immeuble"; 38.0;"Copropriété, Syndic, SCI"
837114;2.02500;49.05778;"02° 01' 30.00'' Est, 49° 03' 28.00'' Nord";"95510";;"1 R GRANDE RUE";"95650";"PUISEUX-PONTOISE";"Pylône autostable"; 40.0;"FPS TOWERS"
847833;2.19694;48.96917;"02° 11' 49.00'' Est, 48° 58' 09.00'' Nord";"95176";;"18 R DE SARTROUVILLE";"95240";"CORMEILLES-EN-PARISIS";"Immeuble"; 19.1;"Particulier"
850145;2.12778;49.10944;"02° 07' 40.00'' Est, 49° 06' 34.00'' Nord";"95308";;"D927 RTE DE BEAUVAIS CARREFOUR D HEROUVILLE";"95300";"HEROUVILLE";"Pylône autostable"; 21.0;"SFR"
871704;2.13750;49.05333;"02° 08' 15.00'' Est, 49° 03' 12.00'' Nord";"95572";;"27 AV DE L'EGUILLETTE LA POSTE";"95310";"SAINT-OUEN-L'AUMONE";"Bâtiment"; 20.4;"La Poste"
871706;2.39833;48.97222;"02° 23' 54.00'' Est, 48° 58' 20.00'' Nord";"95268";;"2 R FRANCOIS MANSART";"95140";"GARGES-LES-GONESSE";"Immeuble"; 30.0;"Copropriété, Syndic, SCI"
871711;2.16000;49.06750;"02° 09' 36.00'' Est, 49° 04' 03.00'' Nord";"95039";;"R ROGER TAGLIANA CTRE TECHNIQUE MUNICIPAL";"95430";"AUVERS-SUR-OISE";"pylône arbre"; 25.0;"SFR"
871719;2.20583;49.07583;"02° 12' 21.00'' Est, 49° 04' 33.00'' Nord";"95392";;"R DE L'ABBAYE DU VAL";"95630";"MERIEL";"Pylône autostable"; 15.0;"SFR"
871721;2.34528;48.99528;"02° 20' 43.00'' Est, 48° 59' 43.00'' Nord";"95539";;"AV DE LA DIVISION LECLERC CENTRE DE SECOURS";"95350";"SAINT-BRICE-SOUS-FORET";"Bâtiment"; 19.3;"SDIS, secours, incendie"
871729;2.22944;48.98167;"02° 13' 46.00'' Est, 48° 58' 54.00'' Nord";"95252";;"1-7 AV DES BOIS";"95130";"FRANCONVILLE";"Bâtiment"; 34.7;"Société HLM"
871731;2.48861;48.97417;"02° 29' 19.00'' Est, 48° 58' 27.00'' Nord";"95277";"LA BELLE ETOILE";"A A1 / PR 14.7 / SENS PARIS-PROVINCE";"95500";"GONESSE";"Ouvrage d'art (pont, viaduc)"; 13.7;"DDE"
871742;2.36917;48.99583;"02° 22' 09.00'' Est, 48° 59' 45.00'' Nord";"95539";;"PL DE LA GARE PARKING SNCF";"95350";"SAINT-BRICE-SOUS-FORET";"Pylône autostable"; 20.0;"SFR"
871753;2.48306;48.97028;"02° 28' 59.00'' Est, 48° 58' 13.00'' Nord";"95277";;"A1 / PR 13.4 / SENS PARIS-PROVINCE PORTIQUE DE SIGNALISATION";"95500";"GONESSE";"Ouvrage de signalisation (portique routier, panneau routier, panneau publicitaire)"; 9.0;"DDE"
871755;2.31056;48.99389;"02° 18' 38.00'' Est, 48° 59' 38.00'' Nord";"95598";;"5, R ST PAUL";"95230";"SOISY-SOUS-MONTMORENCY";"Pylône autostable"; 26.0;"SFR"
871757;2.27722;49.11056;"02° 16' 38.00'' Est, 49° 06' 38.00'' Nord";"95504";;"R ALDABERT BAUT VOIE COMMUNALE DE NERVILLE LA FORÊT";"95590";"PRESLES";"Pylône autostable"; 25.0;"SFR"
871759;2.48306;49.02000;"02° 28' 59.00'' Est, 49° 01' 12.00'' Nord";"95280";"LE DESSOUS DES FOURNEAUX";;"95190";"GOUSSAINVILLE";"Pylône autostable"; 22.0;"SFR"
871764;2.11500;49.05167;"02° 06' 54.00'' Est, 49° 03' 06.00'' Nord";"95572";;"108 R DU MAIL RÉSIDENCE DU MAIL";"95310";"SAINT-OUEN-L'AUMONE";"Bâtiment"; 23.0;"Copropriété, Syndic, SCI"
871769;2.23194;48.99444;"02° 13' 55.00'' Est, 48° 59' 40.00'' Nord";"95252";;"17, R HENRI BARBUSSE";"95130";"FRANCONVILLE";"Immeuble"; 18.5;"Copropriété, Syndic, SCI"
871777;2.25528;48.98833;"02° 15' 19.00'' Est, 48° 59' 18.00'' Nord";"95219";;"17 SQ DES GRANDS ARBRES";"95120";"ERMONT";"Immeuble"; 17.0;"Société HLM"
871779;2.12611;49.02889;"02° 07' 34.00'' Est, 49° 01' 44.00'' Nord";"95572";;"R DE LA PATELLE PARC DES BELLEVUES PRÈS BAT 6";"95310";"SAINT-OUEN-L'AUMONE";"Pylône tubulaire"; 25.0;"SFR"
871787;2.32278;49.02278;"02° 19' 22.00'' Est, 49° 01' 22.00'' Nord";"95199";;"R DU MARÉCHAL JOFFRE CIMETÈRE DE DOMONT";"95330";"DOMONT";"pylône arbre"; 20.0;"SFR"
871789;2.29361;48.99306;"02° 17' 37.00'' Est, 48° 59' 35.00'' Nord";"95598";;"2 ALLÉE DES HÊTRES";"95230";"SOISY-SOUS-MONTMORENCY";"Immeuble"; 35.6;"Copropriété, Syndic, SCI"
871805;2.35222;48.97778;"02° 21' 08.00'' Est, 48° 58' 40.00'' Nord";"95427";;"3 RUELLE MARIANNE BAT C";"95360";"MONTMAGNY";"Immeuble"; 26.6;"Société HLM"
871879;2.24167;48.98889;"02° 14' 30.00'' Est, 48° 59' 20.00'' Nord";"95252";"LE SUD DE LA MARE DES NOUÉS";"CHEM DE LA MARE DES NOUÉS BAT A RÉSIDENCE DE LA MARE DES NOUÉS SA HLM LES 3 VALLÉE";"95130";"FRANCONVILLE";"Immeuble"; 35.0;"Société HLM"
871881;2.51389;49.09944;"02° 30' 50.00'' Est, 49° 05' 58.00'' Nord";"95250";"BEAU SOLEIL";"1 ALLÉE DE LA TRAMONTANE";"95470";"FOSSES";"Bâtiment"; 27.0;"Société HLM"
871883;2.23472;49.06444;"02° 14' 05.00'' Est, 49° 03' 52.00'' Nord";"95678";;"10, R ARISTIDE BRIAND";"95840";"VILLIERS-ADAM";"Bâtiment"; 21.0;
871888;2.38861;49.00500;"02° 23' 19.00'' Est, 49° 00' 18.00'' Nord";"95680";;"5 ALLÉE DES BLEUETS";"95400";"VILLIERS-LE-BEL";"Immeuble"; 36.0;"Copropriété, Syndic, SCI"
871893;2.35139;49.00694;"02° 21' 05.00'' Est, 49° 00' 25.00'' Nord";"95539";;"12 AV R. SCHUMANN ZI LES PERRUCHES TOYS 'R' US";"95350";"SAINT-BRICE-SOUS-FORET";"Pylône autostable"; 23.2;"Société Privée SA"
871895;2.27194;49.00083;"02° 16' 19.00'' Est, 49° 00' 03.00'' Nord";"95203";;"28 R DU DR ROUX HOP";"95600";"EAUBONNE";"Immeuble"; 28.5;"Etablissement de soins"
871901;2.23861;48.97972;"02° 14' 19.00'' Est, 48° 58' 47.00'' Nord";"95582";;"150, BD  GAMBETTA";"95110";"SANNOIS";"Immeuble"; 24.0;"Société Privée SA"
871908;2.41861;48.98972;"02° 25' 07.00'' Est, 48° 59' 23.00'' Nord";"95019";;"91 R JEAN JAURÈS";"95400";"ARNOUVILLE-LES-GONESSE";"Immeuble"; 23.0;"Copropriété, Syndic, SCI"
871910;2.20444;48.99278;"02° 12' 16.00'' Est, 48° 59' 34.00'' Nord";"95424";;"1 ALLÉE DE LA FUTAIE";"95370";"MONTIGNY-LES-CORMEILLES";"Immeuble"; 60.0;"Société HLM"
871912;2.26250;48.97417;"02° 15' 45.00'' Est, 48° 58' 27.00'' Nord";"95582";;"58 AV DU MARÉCHAL JOFFRE";"95110";"SANNOIS";"Immeuble"; 18.5;"Société Privée SA"
871914;2.09444;49.05306;"02° 05' 40.00'' Est, 49° 03' 11.00'' Nord";"95500";;"43, R DE GISORS";"95000";"PONTOISE";"Immeuble"; 18.3;"Société HLM"
871920;2.44778;48.98111;"02° 26' 52.00'' Est, 48° 58' 52.00'' Nord";"95277";;"R D'AULNAY RN 370 - LA CROIX ST BENOÎT";"95500";"GONESSE";"Pylône tubulaire"; 15.0;"TDF"
871922;2.41944;48.99639;"02° 25' 10.00'' Est, 48° 59' 47.00'' Nord";"95019";;"32 R LAUGÈRE RÉSIDENCE LA SABLIÈRE";"95400";"ARNOUVILLE-LES-GONESSE";"Immeuble"; 21.8;"Société HLM"
871924;2.10750;49.01944;"02° 06' 27.00'' Est, 49° 01' 10.00'' Nord";"95218";;"6, R DES DIX ARPENTS BRUNS RÉSIDENCE LES DIX ARPENTS BRUNS";"95610";"ERAGNY";"Immeuble"; 29.0;"Société HLM"
880928;2.10194;49.02944;"02° 06' 07.00'' Est, 49° 01' 46.00'' Nord";"95218";;"R DU CLOS DE SANTEUIL";"95610";"ERAGNY";"Tour hertzienne"; 61.7;"TDF"
900820;2.20472;48.95778;"02° 12' 17.00'' Est, 48° 57' 28.00'' Nord";"95018";;"2 R DU CHEM VERT NOVERGIE";"95100";"ARGENTEUIL";"Bâtiment"; 20.0;"Société Privée SA"
900822;2.17250;49.05389;"02° 10' 21.00'' Est, 49° 03' 14.00'' Nord";"95394";;"14 AVE MARCEL PERRIN MAIRIE";"95540";"MERY-SUR-OISE";"Bâtiment"; 10.0;"Commune, communauté de commune"
910741;1.99306;49.02083;"01° 59' 35.00'' Est, 49° 01' 15.00'' Nord";"95074";;"COLLINE DE BOISEMONT D 922";"95000";"BOISEMONT";"Pylône autostable"; 35.0;"Société Privée SA"
912227;2.37528;48.97806;"02° 22' 31.00'' Est, 48° 58' 41.00'' Nord";"95585";;"1 R ROBERT DESNOS";"95200";"SARCELLES";"Immeuble"; 55.1;"Copropriété, Syndic, SCI"
920819;2.10639;49.01917;"02° 06' 23.00'' Est, 49° 01' 09.00'' Nord";"95218";;"LES DIX ARPENTS OCRES";"95610";"ERAGNY";"Immeuble"; 28.0;"Copropriété, Syndic, SCI"
924529;2.34111;49.05028;"02° 20' 28.00'' Est, 49° 03' 01.00'' Nord";"95028";;"HOP ROGER PREVOT";"95570";"ATTAINVILLE";"Bâtiment"; 15.0;"Etablissement de soins"
928723;2.06444;49.05861;"02° 03' 52.00'' Est, 49° 03' 31.00'' Nord";"95476";;"R JEAN LAROSA GYMNASE DE LA RAVINIERE";"95520";"OSNY";"Bâtiment"; 17.0;"Commune, communauté de commune"
943797;2.29500;48.98194;"02° 17' 42.00'' Est, 48° 58' 55.00'' Nord";"95598";;"6, R VOLTAIRE 1 AV D'AUVERGNE TOUR 3";"95230";"SOISY-SOUS-MONTMORENCY";"Immeuble"; 40.0;"Société HLM"
963788;2.52111;49.00417;"02° 31' 16.00'' Est, 49° 00' 15.00'' Nord";"95527";;"1 ALLEE DU VERGER HOTEL MERCURE";"95700";"ROISSY-EN-FRANCE";"Bâtiment"; 10.0;"Société Privée SA"
970873;2.30333;49.12861;"02° 18' 12.00'' Est, 49° 07' 43.00'' Nord";"95452";;"ROUTE DE ST MARTIN 1 ERE MAISON À GAUCHE";"95590";"NOINTEL";"Pylône autostable"; 39.0;"BOUYGUES"
974151;2.49500;49.05111;"02° 29' 42.00'' Est, 49° 03' 04.00'' Nord";"95351";;"RUE DE LA BRIQUETERIE FAL INDUSTRIE ZI";"95380";"LOUVRES";"Pylône autostable"; 30.0;"ORANGE"
977806;2.14556;48.99778;"02° 08' 44.00'' Est, 48° 59' 52.00'' Nord";"95306";;"CHEMIN CHENNEVIERES";"95220";"HERBLAY";"Bâtiment"; 15.0;"Commune, communauté de commune"
977966;2.21778;49.11222;"02° 13' 04.00'' Est, 49° 06' 44.00'' Nord";"95313";;"45 GRANDE RUE";"95290";"L'ISLE-ADAM";"Bâtiment"; 17.0;"Commune, communauté de commune"
989555;2.08139;49.03833;"02° 04' 53.00'' Est, 49° 02' 18.00'' Nord";"95127";;"CENTRE COMMERCIAL LES 3 FONTAINE";"95000";"CERGY";"Immeuble"; 54.0;"Société Privée SA"
989616;2.37833;49.01750;"02° 22' 42.00'' Est, 49° 01' 03.00'' Nord";"95205";;"R JEAN BULLANT";"95440";"ECOUEN";"Monument historique"; 30.0;"Etat, Ministère"
989742;2.09722;49.06361;"02° 05' 50.00'' Est, 49° 03' 49.00'' Nord";"95500";;"6 AV DE L ILE DE FRANCE HOPITAL RENE DUBOS";"95000";"PONTOISE";"Immeuble"; 43.0;"Etablissement de soins"
997825;2.28194;49.14083;"02° 16' 55.00'' Est, 49° 08' 27.00'' Nord";"95052";;"13BIS AVENUE ANATOLE FRANCE RÉSIDENCE LES ALIZÉES CABINET DE RADIOLOGIE";"95260";"BEAUMONT-SUR-OISE";"Immeuble"; 15.0;"Société Privée SA"
998148;2.23556;49.12667;"02° 14' 08.00'' Est, 49° 07' 36.00'' Nord";"95313";;"3 CHEMIN DES TROIS SOURCES CLINIQUE CONTI";"95290";"L'ISLE-ADAM";"Immeuble"; 14.0;"Etablissement de soins"
1008724;2.18167;48.99778;"02° 10' 54.00'' Est, 48° 59' 52.00'' Nord";"95306";"LA PATTE D'OIE D'HERBLAY";"BLV DU 8 MAI 1945";"95220";"HERBLAY";"Pylône autostable"; 30.0;"DDE"
1010961;2.21667;49.01472;"02° 13' 00.00'' Est, 49° 00' 53.00'' Nord";"95607";;"CARREFOUR DE L'AV DE LA DIVISIONLECLERC ET A 115 DDE - A115";"95150";"TAVERNY";"Pylône autostable"; 15.0;"DDE"
1023750;2.40917;49.00333;"02° 24' 33.00'' Est, 49° 00' 12.00'' Nord";"95680";;"CHEMIN DE MONTMORENCY RUE LEON BLUM";"95400";"VILLIERS-LE-BEL";"Pylône tubulaire"; 31.0;"ORANGE"
1025460;2.06806;49.19083;"02° 04' 05.00'' Est, 49° 11' 27.00'' Nord";"95059";"LE CHEMIN D'HARAVILLIERS";"BERVILLE RESERVOIR";"95810";"BERVILLE";"Château d'eau - réservoir"; 6.0;"Syndicat des eaux, Adduction"
1030077;2.33444;48.95750;"02° 20' 04.00'' Est, 48° 57' 27.00'' Nord";"95427";;"240 RUE JULES FERRY";"95360";"MONTMAGNY";"Bâtiment"; 6.0;"EDF GDF"
1031684;2.07861;49.07750;"02° 04' 43.00'' Est, 49° 04' 39.00'' Nord";"95476";;"CD 195 - AUCHAN C CIAL DE L'OSERAIE";"95520";"OSNY";"Bâtiment"; 15.8;"Société Privée SA"
1035635;2.32306;49.02278;"02° 19' 23.00'' Est, 49° 01' 22.00'' Nord";"95199";;"ROUTE DE MONTMORENCY CIMETIÈRE";"95330";"DOMONT";"pylône arbre"; 26.0;"ORANGE"
1036068;2.03889;49.05556;"02° 02' 20.00'' Est, 49° 03' 20.00'' Nord";"95476";;"RUE DU PETIT ALBI  (BASSIN DE RETENTION)";"95520";"OSNY";"Pylône autostable"; 21.5;"SFR"
1037068;2.09111;49.01333;"02° 05' 28.00'' Est, 49° 00' 48.00'' Nord";"95218";;"244 R AMBASSADEUR";"95610";"ERAGNY";"Bâtiment"; 14.7;"Société Privée SA"
1037260;2.34056;49.03417;"02° 20' 26.00'' Est, 49° 02' 03.00'' Nord";"95199";;"AVENUE JEAN JAURES";"95330";"DOMONT";"Bâtiment"; 11.8;"ORANGE Services Fixes"
1038256;2.42139;49.00139;"02° 25' 17.00'' Est, 49° 00' 05.00'' Nord";"95277";;"61 AV ARISTIDE BRIAND";"95500";"GONESSE";"Immeuble"; 33.0;"Commune, communauté de commune"
1044551;2.09667;49.04694;"02° 05' 48.00'' Est, 49° 02' 49.00'' Nord";"95500";;"PLACE DU GÉNÉRAL DE GAULLE GARE DE PONTOISE";"95000";"PONTOISE";"Pylône autostable"; 32.0;"SNCF Réseau"
1048447;2.50667;49.00167;"02° 30' 24.00'' Est, 49° 00' 06.00'' Nord";"95527";"ZAC DU MOULIN";"7 R DU NOYER LA CROIX DE MONTMORENCY";"95700";"ROISSY-EN-FRANCE";"Bâtiment"; 12.3;"Société Privée SA"
1054118;2.21000;48.99972;"02° 12' 36.00'' Est, 48° 59' 59.00'' Nord";"95424";;"4 RUE GRAVET";"95370";"MONTIGNY-LES-CORMEILLES";"Bâtiment"; 13.0;"EDF GDF"
1054122;2.07917;49.03556;"02° 04' 45.00'' Est, 49° 02' 08.00'' Nord";"95127";;"2 RUE DE LA GARE";"95800";"CERGY";"Bâtiment"; 84.0;"EDF GDF"
1057964;2.03611;49.05000;"02° 02' 10.00'' Est, 49° 02' 60.00'' Nord";"95127";;"3 AVENUE DES BEGUINES";"95000";"CERGY";"Immeuble"; 19.6;"Copropriété, Syndic, SCI"
1059335;2.09667;49.06389;"02° 05' 48.00'' Est, 49° 03' 50.00'' Nord";"95500";;"6 AVENUE DE L'ILE DE FRANCE CENTRE HOSPITALIER";"95000";"PONTOISE";"Bâtiment"; 30.0;"Etablissement de soins"
1094312;2.24833;49.00472;"02° 14' 54.00'' Est, 49° 00' 17.00'' Nord";"95563";"LES ANDRESIS";"D. 502 STADE LES ANDRESIS";"95320";"SAINT-LEU-LA-FORET";"Pylône tubulaire"; 20.0;"Commune, communauté de commune"
1123773;2.31111;48.98028;"02° 18' 40.00'' Est, 48° 58' 49.00'' Nord";"95428";;"45 RUE DE LA RÉPUBLIQUE";"95160";"MONTMORENCY";"Immeuble"; 23.0;"Particulier"
1149428;2.27972;48.99111;"02° 16' 47.00'' Est, 48° 59' 28.00'' Nord";"95203";;"1 RUE D'ENGHIEN HÔTEL DE VILLE";"95600";"EAUBONNE";"Immeuble"; 20.0;"Commune, communauté de commune"
1149430;2.26667;48.99528;"02° 15' 60.00'' Est, 48° 59' 43.00'' Nord";"95203";;"2 RUE LOUIS BLANC CENTRE TECHNIQUE MUNICIPAL";"95600";"EAUBONNE";"Immeuble"; 10.0;"Commune, communauté de commune"
1166945;2.44417;48.95861;"02° 26' 39.00'' Est, 48° 57' 31.00'' Nord";"95088";;"1241 AV DE L EUROPE TERMINAL 1";"95500";"BONNEUIL-EN-FRANCE";"Bâtiment"; 15.0;"Société Privée SA"
1187510;2.51944;49.06194;"02° 31' 10.00'' Est, 49° 03' 43.00'' Nord";"95351";"LE RONCE";"D 317 ZAC LE RONCE, SILO CAPAFRANCE";"95380";"LOUVRES";"Pylône tubulaire"; 25.0;"ORANGE"
1189777;2.27167;48.99833;"02° 16' 18.00'' Est, 48° 59' 54.00'' Nord";"95203";;"R DU DR ROUX CENTRE DE SECOURS";"95600";"EAUBONNE";"Bâtiment"; 39.0;"SDIS, secours, incendie"
1190829;2.27111;49.14861;"02° 16' 16.00'' Est, 49° 08' 55.00'' Nord";"95487";;"4 R PIERRE BROSSOLETTE CSEC";"95340";"PERSAN";"Bâtiment"; 33.0;"SDIS, secours, incendie"
1200453;2.45861;49.03750;"02° 27' 31.00'' Est, 49° 02' 15.00'' Nord";"95280";;"3 PLACE DANIELLE CASANOVA";"95190";"GOUSSAINVILLE";"Immeuble"; 41.6;"Société Privée SA"
1201422;2.11028;49.04000;"02° 06' 37.00'' Est, 49° 02' 24.00'' Nord";"95572";;"17 RUE DU PARC CHATEAU D EAU";"95066";"SAINT-OUEN-L'AUMONE";"Château d'eau - réservoir"; 28.0;"Commune, communauté de commune"
1202878;2.13556;49.04694;"02° 08' 08.00'' Est, 49° 02' 49.00'' Nord";"95572";;"4 ALLEE DES 3 CARAVELLES BETHUNE POSTE SECURITE DEBORDEMENT";"95310";"SAINT-OUEN-L'AUMONE";"Bâtiment"; 8.0;"Société Privée SA"
1202887;2.13222;49.05250;"02° 07' 56.00'' Est, 49° 03' 09.00'' Nord";"95572";;"11 AVENUE DU VERT GALANT GIE POSTE SECURITE VG";"95310";"SAINT-OUEN-L'AUMONE";"Pylône autostable"; 30.0;"BOUYGUES"
1204784;2.14833;49.05056;"02° 08' 54.00'' Est, 49° 03' 02.00'' Nord";"95572";"POSTE DE HAUTE BORNE";"LA FRANCILIENNE";"95310";"SAINT-OUEN-L'AUMONE";"Pylône autostable"; 35.0;"EDF GDF"
1204790;2.01472;49.05472;"02° 00' 53.00'' Est, 49° 03' 17.00'' Nord";"95127";;"BOULEVARD D'ERKRATH POSTE EDF DE PUISEUX";"95000";"CERGY";"Pylône autostable"; 20.0;"EDF GDF"
1206096;2.22028;48.95361;"02° 13' 13.00'' Est, 48° 57' 13.00'' Nord";"95018";;"1 -3 ALLEE GUY DE MAUPASSANT";"95100";"ARGENTEUIL";"Bâtiment"; 59.0;"Société HLM"
1207886;2.27278;48.99944;"02° 16' 22.00'' Est, 48° 59' 58.00'' Nord";"95203";;"28 RUE DU DOCTEUR ROUX HOPITAL SIMONE VEIL BATIMENT A";"95600";"EAUBONNE";"Immeuble"; 14.0;"Etablissement de soins"
1215029;2.26722;48.98139;"02° 16' 02.00'' Est, 48° 58' 53.00'' Nord";"95219";;"1 RUE RAOUL DAUTRY";"95120";"ERMONT";"Mât"; 3.0;"Société Privée SA"
1272742;2.41639;49.00083;"02° 24' 59.00'' Est, 49° 00' 03.00'' Nord";"95680";;"17 ALLÉE PIERRE CORNEILLE";"95400";"VILLIERS-LE-BEL";"Immeuble"; 38.7;"Copropriété, Syndic, SCI"
1272758;2.28083;48.96139;"02° 16' 51.00'' Est, 48° 57' 41.00'' Nord";"95555";;"51 RUE D  ARGENTEUIL";"95210";"SAINT-GRATIEN";"Immeuble"; 40.4;"Copropriété, Syndic, SCI"
1273458;2.47472;49.03000;"02° 28' 29.00'' Est, 49° 01' 48.00'' Nord";"95280";;"21 B RUE VICTOR BASCH";"95190";"GOUSSAINVILLE";"Château d'eau - réservoir"; 31.7;"Syndicat des eaux, Adduction"
1281409;2.40000;49.00583;"02° 23' 60.00'' Est, 49° 00' 21.00'' Nord";"95680";;"1 RUE GOUNOD";"95400";"VILLIERS-LE-BEL";"Immeuble"; 35.0;"Copropriété, Syndic, SCI"
1281411;2.23167;48.99722;"02° 13' 54.00'' Est, 48° 59' 50.00'' Nord";"95252";;"RUE DE TRESSANT";"95130";"FRANCONVILLE";"Immeuble"; 21.8;"Société HLM"
1283296;2.02500;49.04694;"02° 01' 30.00'' Est, 49° 02' 49.00'' Nord";"95127";"LE GROS CHÊNE";"STADE DU CHAT PERCHÉ";"95000";"CERGY";"Pylône tubulaire"; 28.0;"Commune, communauté de commune"
1283298;2.26889;48.96167;"02° 16' 08.00'' Est, 48° 57' 42.00'' Nord";"95018";;"RUE DE GODE";"95100";"ARGENTEUIL";"Pylône tubulaire"; 33.0;"SFR"
1283300;2.21944;49.07000;"02° 13' 10.00'' Est, 49° 04' 12.00'' Nord";"95392";;"ROUTE DE VILLIERS ADAM";"95630";"MERIEL";"Pylône tubulaire"; 30.0;"Commune, communauté de commune"
1284096;2.38361;48.97250;"02° 23' 01.00'' Est, 48° 58' 21.00'' Nord";"95585";;"1 PLACE SUZANNE VALADON";"95200";"SARCELLES";"Immeuble"; 50.0;"Société HLM"
1285076;2.22306;49.01333;"02° 13' 23.00'' Est, 49° 00' 48.00'' Nord";"95607";;"A 115-INTERSECT. D407-CCAL AUCHAN";"95150";"TAVERNY";"Bâtiment"; 13.0;"Société Privée SA"
1285097;2.19139;48.98500;"02° 11' 29.00'' Est, 48° 59' 06.00'' Nord";"95424";;"18 R DE VERDUN";"95370";"MONTIGNY-LES-CORMEILLES";"pylône arbre"; 31.0;"BOUYGUES"
1287101;2.05778;49.04861;"02° 03' 28.00'' Est, 49° 02' 55.00'' Nord";"95127";"LES LINANDES";"RN 114 (POSTE HT DE CERGY)";"95000";"CERGY";"Pylône autostable"; 43.0;"EDF GDF"
1287433;2.15083;48.99556;"02° 09' 03.00'' Est, 48° 59' 44.00'' Nord";"95306";;"6 RUE GUY DE MAUPASSANT";"95220";"HERBLAY";"Immeuble"; 19.8;"Société HLM"
1292068;2.46556;48.98222;"02° 27' 56.00'' Est, 48° 58' 56.00'' Nord";"95277";;"17 RUE GAY LUSSAC";"95500";"GONESSE";"Bâtiment"; 10.0;"Société Privée SA"
1293345;2.04056;49.00972;"02° 02' 26.00'' Est, 49° 00' 35.00'' Nord";"95323";;"BD D'ECANCOURT STADE MUNICIPAL";"95280";"JOUY-LE-MOUTIER";"Pylône tubulaire"; 28.0;"Commune, communauté de commune"
1294045;2.38917;48.97694;"02° 23' 21.00'' Est, 48° 58' 37.00'' Nord";"95585";;"AVENUE FRÉDÉRIC JOLIOT-CURIE";"95200";"SARCELLES";"Immeuble"; 44.5;"Copropriété, Syndic, SCI"
1303240;2.27750;49.00472;"02° 16' 39.00'' Est, 49° 00' 17.00'' Nord";"95203";;"23 RUE DE MONTMORENCY";"95600";"EAUBONNE";"Bâtiment"; 14.5;"Copropriété, Syndic, SCI"
1306149;2.40722;48.98778;"02° 24' 26.00'' Est, 48° 59' 16.00'' Nord";"95019";;"32, RUE CARPEAUX";"95400";"ARNOUVILLE-LES-GONESSE";"Bâtiment"; 9.2;"Particulier"
1326614;2.10750;49.01861;"02° 06' 27.00'' Est, 49° 01' 07.00'' Nord";"95218";;"7 LES DIX ARPENTS OCRES";"95610";"ERAGNY";"Bâtiment"; 27.3;"Société Privée SA"
1327190;2.24833;49.00472;"02° 14' 54.00'' Est, 49° 00' 17.00'' Nord";"95563";;"BOULEVARD ANDRÃ© BREMONT";"95320";"SAINT-LEU-LA-FORET";"Pylône tubulaire"; 20.2;"Commune, communauté de commune"
1327192;2.12556;49.05111;"02° 07' 32.00'' Est, 49° 03' 04.00'' Nord";"95572";;"19, RUE SAINT HILAIRE";"95310";"SAINT-OUEN-L'AUMONE";"Pylône tubulaire"; 25.4;"Copropriété, Syndic, SCI"
1329972;2.34750;48.97500;"02° 20' 51.00'' Est, 48° 58' 30.00'' Nord";"95427";;"8, RUE MAURICE BERTEAUX";"95360";"MONTMAGNY";"Immeuble"; 27.5;"Copropriété, Syndic, SCI"
1339776;2.32417;48.99528;"02° 19' 27.00'' Est, 48° 59' 43.00'' Nord";"95428";;"22 RUE GALLIENI";"95160";"MONTMORENCY";"Bâtiment"; 9.0;"Particulier"
1344636;2.40028;48.96389;"02° 24' 01.00'' Est, 48° 57' 50.00'' Nord";"95268";;"20 AV DES MORILLONS";"95140";"GARGES-LES-GONESSE";"Pylône autostable"; 27.0;"BOUYGUES"
1344640;2.01417;49.02139;"02° 00' 51.00'' Est, 49° 01' 17.00'' Nord";"95637";"LE DECRET";"R DU CHARDON - JARDIN DE LA SIAULE";"95490";"VAUREAL";"Pylône autostable"; 29.0;"BOUYGUES"
1344847;2.49500;49.05139;"02° 29' 42.00'' Est, 49° 03' 05.00'' Nord";"95351";;"R DE LA BRIQUETERIE";"95380";"LOUVRES";"Pylône autostable"; 36.5;"IFW-FREE"
1353496;2.30556;48.96944;"02° 18' 20.00'' Est, 48° 58' 10.00'' Nord";"95210";;"54 R CHARLES DE GAULLE";"95880";"ENGHIEN-LES-BAINS";"Bâtiment"; 13.0;"Société Privée SA"
1377068;2.02861;49.02333;"02° 01' 43.00'' Est, 49° 01' 24.00'' Nord";"95637";;"13, MAIL MENDES FRANCE";"95490";"VAUREAL";"Immeuble"; 20.6;"Société HLM"
1378751;2.41111;48.97500;"02° 24' 40.00'' Est, 48° 58' 30.00'' Nord";"95268";;"14, AVENUE FREDERIC JOLIOT CURIE";"95140";"GARGES-LES-GONESSE";"Immeuble"; 22.0;"Copropriété, Syndic, SCI"
1388251;2.25500;48.99333;"02° 15' 18.00'' Est, 48° 59' 36.00'' Nord";"95219";;"3, PLACE WATTEAU";"95120";"ERMONT";"Immeuble"; 36.0;"Copropriété, Syndic, SCI"
1388732;2.03778;49.05639;"02° 02' 16.00'' Est, 49° 03' 23.00'' Nord";"95476";;"RUE DU PROMENOIR";"95520";"OSNY";"Pylône autostable"; 30.5;"IFW-FREE"
1388865;2.23083;48.94472;"02° 13' 51.00'' Est, 48° 56' 41.00'' Nord";"95018";;"28, BOULEVARD DU GENERAL LECLERC";"95100";"ARGENTEUIL";"Immeuble"; 45.0;"Société HLM"
1395525;2.32306;49.01833;"02° 19' 23.00'' Est, 49° 01' 06.00'' Nord";"95199";;"RTE STRATEGIQUE FORT DE DOMONT";"95330";"DOMONT";"Bâtiment"; 35.0;"Autres"
1395959;2.21333;49.00194;"02° 12' 48.00'' Est, 49° 00' 07.00'' Nord";"95051";;"CHEMIN DES HAUTES BORNES";"95250";"BEAUCHAMP";"Pylône autostable"; 30.4;"SNCF Réseau"
1395961;2.13917;49.02528;"02° 08' 21.00'' Est, 49° 01' 31.00'' Nord";"95488";;"AVENUE DU GÉNÉRAL LECLERC";"95220";"PIERRELAYE";"Pylône autostable"; 25.3;"SNCF Réseau"
1395963;2.19750;49.04361;"02° 11' 51.00'' Est, 49° 02' 37.00'' Nord";"95060";"CHEMIN D'HERBLAY À FRÉPILLON";"CHEMIN D'HERBLAY À FRÉPILLON CHEMIN LATÉRAL";"95550";"BESSANCOURT";"Pylône autostable"; 25.0;"SNCF Réseau"
1396576;2.12917;49.04972;"02° 07' 45.00'' Est, 49° 02' 59.00'' Nord";"95572";"MAUBUISSON";"21 AVENUE DE L'EGUILLETTE";"95310";"SAINT-OUEN-L'AUMONE";"Bâtiment"; 5.0;"EDF GDF"
1399000;2.10056;49.04333;"02° 06' 02.00'' Est, 49° 02' 36.00'' Nord";"95572";;"23, QUAI DE L'ECLUSE";"95310";"SAINT-OUEN-L'AUMONE";"Pylône tubulaire"; 27.0;"IFW-FREE"
1405264;2.44250;49.01000;"02° 26' 33.00'' Est, 49° 00' 36.00'' Nord";"95277";;"CHEMIN DE FONTENAY À GONESSE";"95500";"GONESSE";"Pylône autostable"; 25.0;"SNCF Réseau"
1408509;2.48667;49.02111;"02° 29' 12.00'' Est, 49° 01' 16.00'' Nord";"95280";"VALLÉE DE DAMMARTIN";"LE DESSOUS DES FOURNEAUX";"95190";"GOUSSAINVILLE";"Pylône autostable"; 20.0;"SNCF Réseau"
1408978;2.50528;49.04472;"02° 30' 19.00'' Est, 49° 02' 41.00'' Nord";"95351";;"1 SQ PAUL GAUGIN";"95380";"LOUVRES";"Immeuble"; 19.8;"Société HLM"
1410882;2.49111;49.04194;"02° 29' 28.00'' Est, 49° 02' 31.00'' Nord";"95351";;"CHEMIN DE FONTENAY AU DESSUS  MONTOIR DE FONTENAY";"95380";"LOUVRES";"Pylône autostable"; 25.3;"SNCF Réseau"
1412200;2.30917;48.98417;"02° 18' 33.00'' Est, 48° 59' 03.00'' Nord";"95598";;"37 RUE DE LA FOSSE AUX MOINES";"95230";"SOISY-SOUS-MONTMORENCY";"Pylône tubulaire"; 30.0;"IFW-FREE"
1412617;2.34583;48.97333;"02° 20' 45.00'' Est, 48° 58' 24.00'' Nord";"95427";;"2 R DU CHATEAU";"95360";"MONTMAGNY";"Immeuble"; 49.0;"Société HLM"
1414421;2.37278;48.98556;"02° 22' 22.00'' Est, 48° 59' 08.00'' Nord";"95585";;"200 AVENUE DE LA DIVISION LECLERC";"95200";"SARCELLES";"Bâtiment"; 18.2;"Société Privée SA"
1418575;2.29139;49.14472;"02° 17' 29.00'' Est, 49° 08' 41.00'' Nord";"95052";;"25 RUE EDMOND TURCQ";"95260";"BEAUMONT-SUR-OISE";"Bâtiment"; 25.0;"Etablissement de soins"
1422472;2.45417;48.98806;"02° 27' 15.00'' Est, 48° 59' 17.00'' Nord";"95277";;"1 BIS RUE DES FRERES MONTGOLFIER";"95500";"GONESSE";"Pylône tubulaire"; 25.0;"IFW-FREE"
1422474;2.07139;49.07333;"02° 04' 17.00'' Est, 49° 04' 24.00'' Nord";"95476";;"RUE DES LIVILLIERS";"95520";"OSNY";"Pylône tubulaire"; 30.0;"IFW-FREE"
