Numéro du support;Longitude;Latitude;"Position";"Insee";"Lieu dit";"Adresse";"Code postal";"Commune";"Nature du support";Hauteur en m;"Propriétaire"
21534;-60.99000;14.62528;"60° 59' 24.00'' Ouest, 14° 37' 31.00'' Nord";"97213";"MANGOT VULCIN";"CTRE RADIOELECTRIQUE FRANCE TELECOM";"97232";"LE LAMENTIN";"Bâtiment"; 20.0;"ORANGE Services Fixes"
21552;-61.12417;14.86667;"61° 07' 27.00'' Ouest, 14° 52' 00.00'' Nord";"97203";;"RTE DE MACOUBA";"97218";"BASSE-POINTE";"Pylône autostable"; 25.0;"ORANGE Services Fixes"
21556;-61.02611;14.48028;"61° 01' 34.00'' Ouest, 14° 28' 49.00'' Nord";"97206";;"ALLÉE DES LAURIERS";"97223";"LE DIAMANT";"Mât béton"; 12.0;"ORANGE Services Fixes"
21572;-61.16056;14.67333;"61° 09' 38.00'' Ouest, 14° 40' 24.00'' Nord";"97234";"BELLEFONTAINE";"VOIE COMMUNALE DE VERRIER";"97222";"BELLEFONTAINE";"Pylône autostable"; 45.0;"ORANGE Services Fixes"
21574;-61.14000;14.78111;"61° 08' 24.00'' Ouest, 14° 46' 52.00'' Nord";"97218";;"RUE DE SAVANE HUBERT";"97260";"LE MORNE-ROUGE";"Fût"; 9.0;"ORANGE Services Fixes"
21576;-61.18278;14.70861;"61° 10' 58.00'' Ouest, 14° 42' 31.00'' Nord";"97204";"MORNE CHARLOTTE";"STATION FRANCE TELECOM";"97221";"LE CARBET";"Pylône autostable"; 21.0;"ORANGE Services Fixes"
21578;-61.14472;14.73639;"61° 08' 41.00'' Ouest, 14° 44' 11.00'' Nord";"97208";"MORNE DES CADETS";"OBSERVATOIRE";"97250";"FONDS-SAINT-DENIS";"Bâtiment"; 9.0;"ORANGE Services Fixes"
21580;-60.94028;14.55972;"60° 56' 25.00'' Ouest, 14° 33' 35.00'' Nord";"97223";;"RUE GUEYDON D6";"97270";"SAINT-ESPRIT";"Pylône autostable"; 21.0;"ORANGE Services Fixes"
21594;-61.17861;14.87306;"61° 10' 43.00'' Ouest, 14° 52' 23.00'' Nord";"97211";;"HOTEL DES POSTES RUE DES PTT";"97218";"GRAND'RIVIERE";"Pylône autostable"; 18.0;"ORANGE Services Fixes"
21598;-61.14722;14.70639;"61° 08' 50.00'' Ouest, 14° 42' 23.00'' Nord";"97233";;"BOURG";"97226";"LE MORNE-VERT";"Bâtiment"; 11.0;"ORANGE Services Fixes"
21600;-61.13250;14.73667;"61° 07' 57.00'' Ouest, 14° 44' 12.00'' Nord";"97208";"LA CROIX";"D1 QUARTIER LA CROIX";"97250";"FONDS-SAINT-DENIS";"Bâtiment"; 7.0;"ORANGE Services Fixes"
22808;-60.87944;14.43250;"60° 52' 46.00'' Ouest, 14° 25' 57.00'' Nord";"97226";;"AV NELSON MANDELA";"97227";"SAINTE-ANNE";"Pylône autostable"; 25.0;"ORANGE"
44752;-60.93139;14.46444;"60° 55' 53.00'' Ouest, 14° 27' 52.00'' Nord";"97227";"GROS RAISIN";"RUE DES PALÉTUVIERS";"97228";"SAINTE-LUCE";"Pylône autostable"; 15.0;"ORANGE Services Fixes"
45175;-61.18333;14.71083;"61° 10' 60.00'' Ouest, 14° 42' 39.00'' Nord";"97204";"DISPENSAIRE";"248 RN2";"97221";"LE CARBET";"Mât métallique"; 10.0;"Commune, communauté de commune"
50928;-60.87556;14.53694;"60° 52' 32.00'' Ouest, 14° 32' 13.00'' Nord";"97232";"MORNES RAQUETTES";"STATION FRANCE TELECOM";"97280";"LE VAUCLIN";"Mât métallique"; 3.0;"ORANGE Services Fixes"
56345;-61.11806;14.86917;"61° 07' 05.00'' Ouest, 14° 52' 09.00'' Nord";"97203";;"1 R DOCTEUR MORESTIN";"97218";"BASSE-POINTE";"Bâtiment"; 6.0;"Copropriété, Syndic, SCI"
57405;-61.09083;14.81722;"61° 05' 27.00'' Ouest, 14° 49' 02.00'' Nord";"97214";;"MORNE CAPOT L'ECOLE";"97214";"LE LORRAIN";"Mât béton"; 12.0;"ORANGE Services Fixes"
57409;-61.22417;14.80111;"61° 13' 27.00'' Ouest, 14° 48' 04.00'' Nord";"97219";"LES ABYMES";"ROUTE DU VIEUX COCHER";"97250";"LE PRECHEUR";"Pylône autostable"; 25.0;"ORANGE Services Fixes"
97848;-61.10389;14.62972;"61° 06' 14.00'' Ouest, 14° 37' 47.00'' Nord";"97229";"TERREVILLE";"ROUTE DES ENCLOS";"97233";"SCHOELCHER";"Bâtiment"; 6.0;"ORANGE Services Fixes"
101613;-61.07806;14.60944;"61° 04' 41.00'' Ouest, 14° 36' 34.00'' Nord";"97209";"LA CLAIRIERE";"STATION RFO";"97234";"FORT-DE-FRANCE";"Immeuble"; 9.0;"Titulaire programme Radio/TV"
118450;-60.99194;14.77444;"60° 59' 31.00'' Ouest, 14° 46' 28.00'' Nord";"97228";"R CASE NEGRE";"MORNE DANIEL - RÉSERVOIR";"97230";"SAINTE-MARIE";"Pylône autostable"; 15.0;"DIGICEL"
118456;-60.94083;14.60694;"60° 56' 27.00'' Ouest, 14° 36' 25.00'' Nord";"97210";"ST-ROCH";"BOIS NEUF";"97240";"LE FRANCOIS";"Pylône autostable"; 20.0;"Particulier"
118480;-60.97278;14.60222;"60° 58' 22.00'' Ouest, 14° 36' 08.00'' Nord";"97207";;"BOIS ROUGE - OASIS";"97224";"DUCOS";"Bâtiment"; 17.0;"Société Privée SA"
118490;-60.96528;14.57750;"60° 57' 55.00'' Ouest, 14° 34' 39.00'' Nord";"97207";"LA LÉANDRE";"R DES ORANGERS STADE";"97224";"DUCOS";"Pylône autostable"; 30.0;"DIGICEL"
118492;-60.93944;14.70222;"60° 56' 22.00'' Ouest, 14° 42' 08.00'' Nord";"97222";;"HAMEAU DE POINTE LYNCH";"97231";"LE ROBERT";"Pylône autostable"; 25.0;"DIGICEL"
136211;-60.87056;14.47222;"60° 52' 14.00'' Ouest, 14° 28' 20.00'' Nord";"97217";;"CARREFOUR DIAKA";"97290";"LE MARIN";"Mât métallique"; 10.0;
156815;-60.98139;14.52889;"60° 58' 53.00'' Ouest, 14° 31' 44.00'' Nord";"97221";;"60 RUE SCHOELCHER MAIRIE";"97215";"RIVIERE-SALEE";"Bâtiment"; 10.0;"Commune, communauté de commune"
160595;-61.07694;14.61222;"61° 04' 37.00'' Ouest, 14° 36' 44.00'' Nord";"97209";;"EX HOP CIVIL ERMITAGE BAT CARDIOLOGIE 3EME ETAG";"97234";"FORT-DE-FRANCE";"Support non décrit"; 10.0;
161878;-60.88250;14.43417;"60° 52' 57.00'' Ouest, 14° 26' 03.00'' Nord";"97226";;"PL ABBE MORLAND";"97227";"SAINTE-ANNE";"Support non décrit"; 10.0;
174121;-61.06667;14.61667;"61° 04' 00.00'' Ouest, 14° 37' 00.00'' Nord";"97209";;"IMM CONCORDE";"97234";"FORT-DE-FRANCE";"Support non décrit"; 30.0;
174129;-61.00972;14.58806;"61° 00' 35.00'' Ouest, 14° 35' 17.00'' Nord";"97213";"AEROPORT";"ZONE FRET AEROPORT";"97232";"LE LAMENTIN";"Support non décrit"; 4.0;
174558;-61.14389;14.65889;"61° 08' 38.00'' Ouest, 14° 39' 32.00'' Nord";"97209";;"CLAIRIERE";"97234";"FORT-DE-FRANCE";"Support non décrit"; 10.0;
175066;-61.07361;14.60889;"61° 04' 25.00'' Ouest, 14° 36' 32.00'' Nord";"97209";;"11 AV JEAN JAURES";"97234";"FORT-DE-FRANCE";"Support non décrit"; 10.0;
177588;-61.05000;14.60694;"61° 02' 60.00'' Ouest, 14° 36' 25.00'' Nord";"97209";;"DILON VALMENIERE";"97234";"FORT-DE-FRANCE";"Support non décrit"; 15.0;
178194;-61.22556;14.79944;"61° 13' 32.00'' Ouest, 14° 47' 58.00'' Nord";"97219";"BOURG";"LE PRECHEUR BOURG";"97250";"LE PRECHEUR";"Support non décrit"; 10.0;
204175;-61.06944;14.51444;"61° 04' 10.00'' Ouest, 14° 30' 52.00'' Nord";"97202";"MORNE BIGOT";;"97217";"LES ANSES-D'ARLET";"Bâtiment"; 10.0;
204179;-61.11722;14.69889;"61° 07' 02.00'' Ouest, 14° 41' 56.00'' Nord";"97204";;"PITON LACROIX";"97221";"LE CARBET";"Support non décrit"; 6.0;
204211;-61.02500;14.50139;"61° 01' 30.00'' Ouest, 14° 30' 05.00'' Nord";"97206";;"MORNE CONSTANT";"97223";"LE DIAMANT";"Support non décrit"; 6.0;
204237;-61.00111;14.59333;"61° 00' 04.00'' Ouest, 14° 35' 36.00'' Nord";"97213";;"SERVICES TECHNIQUES ZONE AEROPORTUAIRE";"97232";"LE LAMENTIN";"Support non décrit"; 12.0;
204269;-61.10417;14.63889;"61° 06' 15.00'' Ouest, 14° 38' 20.00'' Nord";"97229";;"TERREVILLE";"97233";"SCHOELCHER";"Support non décrit"; 5.0;
204271;-61.06833;14.79556;"61° 04' 06.00'' Ouest, 14° 47' 44.00'' Nord";"97214";;"QUARTIER MORNE JACQUES";"97214";"LE LORRAIN";"Support non décrit"; 9.0;
204275;-60.91583;14.75250;"60° 54' 57.00'' Ouest, 14° 45' 09.00'' Nord";"97230";;"MORNE PAVILLON PRESQU ILE CARAVELLE";"97220";"LA TRINITE";"Bâtiment"; 6.0;"Société Privée SA"
204279;-60.89528;14.54667;"60° 53' 43.00'' Ouest, 14° 32' 48.00'' Nord";"97223";;"VIEILLE CITERNE MORNE FIRMIN";"97270";"SAINT-ESPRIT";"Support non décrit"; 8.0;
271492;-60.88167;14.56972;"60° 52' 54.00'' Ouest, 14° 34' 11.00'' Nord";"97232";"MORNE DUNOYER";"RESERVOIR D EAU";"97280";"LE VAUCLIN";"Château d'eau - réservoir"; 21.0;"Société Privée SA"
271502;-60.89361;14.59111;"60° 53' 37.00'' Ouest, 14° 35' 28.00'' Nord";"97210";"LE FRANCOIS";"MORNE BOIS SOLDAT - RÉSERVOIR D EAU";"97240";"LE FRANCOIS";"Pylône autostable"; 20.0;"France Caraibes Mobiles"
272518;-61.06806;14.52083;"61° 04' 05.00'' Ouest, 14° 31' 15.00'' Nord";"97231";;"MORNE BIGOT";"97229";"LES TROIS-ILETS";"Pylône autostable"; 15.0;
272520;-60.92306;14.46639;"60° 55' 23.00'' Ouest, 14° 27' 59.00'' Nord";"97227";;"R JEAN JACQUES ROUSSEAU";"97228";"SAINTE-LUCE";"Bâtiment"; 4.0;
276091;-61.08861;14.82500;"61° 05' 19.00'' Ouest, 14° 49' 30.00'' Nord";"97214";"BON REPOS";"VC HABITATION VIVE NORD";"97214";"LE LORRAIN";"Pylône autostable"; 25.0;"ORANGE"
280806;-61.01500;14.74528;"61° 00' 54.00'' Ouest, 14° 44' 43.00'' Nord";"97228";"MORNE DES ESSES";"R DE LA LIBERTÉ ALLÉE DE L'EGLISE EGLISE";"97230";"SAINTE-MARIE";"Monument religieux"; 28.0;"Association"
282270;-61.03333;14.53194;"61° 01' 60.00'' Ouest, 14° 31' 55.00'' Nord";"97231";"VATABLE";"VC DE BEAUFOND";"97229";"LES TROIS-ILETS";"Pylône autostable"; 21.0;"ORANGE"
293138;-61.06806;14.60556;"61° 04' 05.00'' Ouest, 14° 36' 20.00'' Nord";"97209";;"48 R SCHOELCHER D.52 IMMEUBLE BEL AZUR";"97234";"FORT-DE-FRANCE";"Immeuble"; 33.0;"Copropriété, Syndic, SCI"
294942;-60.83944;14.54611;"60° 50' 22.00'' Ouest, 14° 32' 46.00'' Nord";"97232";"BOURG";"PL ST JEAN BAPTISTE - BOURG EGLISE DU VAUCLIN";"97280";"LE VAUCLIN";"Monument religieux"; 27.0;"Association"
294950;-61.03528;14.65306;"61° 02' 07.00'' Ouest, 14° 39' 11.00'' Nord";"97224";"GONDEAU ST-JOSEPH";"RTE DÉPARTEMENTALE 14 - D' ACAJOU";"97212";"SAINT-JOSEPH";"Pylône autostable"; 30.0;"ORANGE"
294952;-60.92528;14.53056;"60° 55' 31.00'' Ouest, 14° 31' 50.00'' Nord";"97220";"QUARTIER REGALE";"RN 8 PRÈS TERRIER";"97211";"RIVIERE-PILOTE";"Pylône autostable"; 30.0;"ORANGE"
297781;-60.92806;14.59889;"60° 55' 41.00'' Ouest, 14° 35' 56.00'' Nord";"97210";"PETITE GAMELLE";"CHEM RURAL - D16 LA MANZO";"97240";"LE FRANCOIS";"Pylône autostable"; 20.0;"ORANGE"
305084;-60.87361;14.42583;"60° 52' 25.00'' Ouest, 14° 25' 33.00'' Nord";"97226";"MORNE BEAUREGARD";"R.D.9 DE MARIN À SALINES HABITATION BEAUREGARD";"97227";"SAINTE-ANNE";"Pylône autostable"; 20.0;"ORANGE"
305574;-60.89278;14.54194;"60° 53' 34.00'' Ouest, 14° 32' 31.00'' Nord";"97220";"WAM";"D. 5 - RTE DE  VAUCLIN";"97211";"RIVIERE-PILOTE";"Pylône autostable"; 20.0;"ORANGE"
305580;-61.00444;14.69556;"61° 00' 16.00'' Ouest, 14° 41' 44.00'' Nord";"97212";"CROIX BLANCHE";"RTE DE GLOTIN";"97213";"GROS-MORNE";"Pylône autostable"; 20.0;"ORANGE"
305582;-60.94139;14.70111;"60° 56' 29.00'' Ouest, 14° 42' 04.00'' Nord";"97222";"LESTRADE";"R.N. 1";"97231";"LE ROBERT";"Pylône autostable"; 20.0;"ORANGE"
305883;-61.15889;14.69306;"61° 09' 32.00'' Ouest, 14° 41' 35.00'' Nord";"97204";"MORNE AUX BOEUFS";"DOMAINE DE TUNISIE VC";"97221";"LE CARBET";"Pylône autostable"; 30.0;"ORANGE"
306174;-60.86611;14.41694;"60° 51' 58.00'' Ouest, 14° 25' 01.00'' Nord";"97226";"SALINES DILLON";"47 HABITATION SALINES DILLON";"97227";"SAINTE-ANNE";"Pylône autostable"; 20.0;"ORANGE"
306367;-60.91583;14.53222;"60° 54' 57.00'' Ouest, 14° 31' 56.00'' Nord";"97220";"RÉGALE";"R.D.34 - MACONNE PRÈS RÉSERVOIR";"97211";"RIVIERE-PILOTE";"Pylône autostable"; 20.0;"ORANGE"
306369;-60.99361;14.49472;"60° 59' 37.00'' Ouest, 14° 29' 41.00'' Nord";"97206";"BONNES TERRES";"LA CITADELLE -D.7";"97223";"LE DIAMANT";"Pylône autostable"; 20.0;"ORANGE"
306373;-60.96028;14.58694;"60° 57' 37.00'' Ouest, 14° 35' 13.00'' Nord";"97207";"MORNE CARETTE";"VC";"97224";"DUCOS";"Pylône autostable"; 20.0;"ORANGE"
308353;-60.96472;14.73611;"60° 57' 53.00'' Ouest, 14° 44' 10.00'' Nord";"97230";;"R JEAN EUGENE FATIER";"97220";"LA TRINITE";"Immeuble"; 30.0;"Etablissement de soins"
309835;-60.93861;14.65472;"60° 56' 19.00'' Ouest, 14° 39' 17.00'' Nord";"97222";"FOUR À CHAUX";"RTE DÉPARTEMENTALE 1 CHEM RURAL TERRAIN MARIE-ALPHONSINE";"97231";"LE ROBERT";"Pylône autostable"; 20.0;"ORANGE"
310924;-61.08389;14.64722;"61° 05' 02.00'' Ouest, 14° 38' 50.00'' Nord";"97209";;"BALATA QUARTIER BARÊME";"97234";"FORT-DE-FRANCE";"Pylône autostable"; 32.0;
324238;-60.89028;14.48361;"60° 53' 25.00'' Ouest, 14° 29' 01.00'' Nord";"97220";;"BAS MANGOS LA MARIANNE";"97211";"RIVIERE-PILOTE";"Bâtiment"; 15.0;"Particulier"
326795;-60.86056;14.44778;"60° 51' 38.00'' Ouest, 14° 26' 52.00'' Nord";"97226";"MONDÉSIR";"D.9 - TERRAIN GAUBERT";"97227";"SAINTE-ANNE";"Pylône autostable"; 32.0;"ORANGE"
327371;-61.08667;14.70306;"61° 05' 12.00'' Ouest, 14° 42' 11.00'' Nord";"97209";"LA MÉDAILLE";"16 KM ROUTE DE BALATA -N.3 CHEM RURAL";"97234";"FORT-DE-FRANCE";"Pylône autostable"; 30.0;"ORANGE"
327504;-61.16556;14.71722;"61° 09' 56.00'' Ouest, 14° 43' 02.00'' Nord";"97204";"COURBARIL";"ROUTE DES PITONS";"97221";"LE CARBET";"Pylône autostable"; 30.0;"ORANGE"
328513;-60.88917;14.59528;"60° 53' 21.00'' Ouest, 14° 35' 43.00'' Nord";"97210";;"VC DE BOIS SOLDAT FAUSTIN";"97240";"LE FRANCOIS";"Mât béton"; 16.0;"Outremer Telecom"
330405;-60.95444;14.55833;"60° 57' 16.00'' Ouest, 14° 33' 30.00'' Nord";"97223";"PETIT PARADIS";"CHEM PETIT PARADIS";"97270";"SAINT-ESPRIT";"Pylône autostable"; 30.0;"ORANGE"
330407;-61.05889;14.66917;"61° 03' 32.00'' Ouest, 14° 40' 09.00'' Nord";"97224";"L'ERMITAGE";"D.47 VERS RIVIÈRE L'OR";"97212";"SAINT-JOSEPH";"Pylône autostable"; 35.0;"ORANGE"
339415;-61.00667;14.59389;"61° 00' 24.00'' Ouest, 14° 35' 38.00'' Nord";"97213";;"AEROPORT DU LAMENTIN ZONE D AVIATION GLE";"97232";"LE LAMENTIN";"Bâtiment"; 8.0;
348999;-61.06556;14.52528;"61° 03' 56.00'' Ouest, 14° 31' 31.00'' Nord";"97231";"LA PLAINE DES TROIS ILETS";"MORNE BIGOT";"97229";"LES TROIS-ILETS";"Pylône autostable"; 27.0;"MEDIASERV"
349137;-61.03972;14.61889;"61° 02' 23.00'' Ouest, 14° 37' 08.00'' Nord";"97209";;"AV DES ARAWACKX HOTEL DE LA VALMENIÈRE";"97234";"FORT-DE-FRANCE";"Immeuble"; 32.0;
349332;-61.09250;14.60639;"61° 05' 33.00'' Ouest, 14° 36' 23.00'' Nord";"97209";;"AV DE LA MARNE IMM PANORAMA";"97234";"FORT-DE-FRANCE";"Immeuble"; 42.0;"Copropriété, Syndic, SCI"
349345;-61.00111;14.59694;"61° 00' 04.00'' Ouest, 14° 35' 49.00'' Nord";"97213";"AÉROPORT DE FORT DE FRANCE";"PARKING P2";"97232";"LE LAMENTIN";"Pylône tubulaire"; 30.0;
349523;-61.01639;14.61639;"61° 00' 59.00'' Ouest, 14° 36' 59.00'' Nord";"97213";"ZA LES MANGLES";"SOCIÉTÉ DE DIFFUSION DE VÉHICULES INDUSTRIELS (SVDI)";"97232";"LE LAMENTIN";"Bâtiment"; 8.0;"MEDIASERV"
358621;-61.07361;14.48417;"61° 04' 25.00'' Ouest, 14° 29' 03.00'' Nord";"97202";"BAS MORNE";"VILLA CLARISSE";"97217";"LES ANSES-D'ARLET";"Mât"; 6.0;"Outremer Telecom"
359787;-60.88222;14.56972;"60° 52' 56.00'' Ouest, 14° 34' 11.00'' Nord";"97232";"MORNE DUNOYER";"QUARTIER ENSFELDER";"97280";"LE VAUCLIN";"Mât béton"; 16.0;"Outremer Telecom"
361139;-60.93861;14.56222;"60° 56' 19.00'' Ouest, 14° 33' 44.00'' Nord";"97223";;"QUARTIER LA FERME ROUTE NEUVE";"97270";"SAINT-ESPRIT";"Mât béton"; 16.0;"Outremer Telecom"
363538;-60.88333;14.41972;"60° 52' 60.00'' Ouest, 14° 25' 11.00'' Nord";"97226";"MORNE AMÉRIQUE DU SUD";"SCEA VILLA";"97227";"SAINTE-ANNE";"Pylône autostable"; 30.0;"Outremer Telecom"
363542;-61.03083;14.81583;"61° 01' 51.00'' Ouest, 14° 48' 57.00'' Nord";"97216";"DUHAMELIN";"MAISON BELLEVUE";"97225";"LE MARIGOT";"Mât béton"; 16.0;"Outremer Telecom"
363990;-61.13583;14.78028;"61° 08' 09.00'' Ouest, 14° 46' 49.00'' Nord";"97218";"SAVANE HUBERT";"ROUTE DE SAVANE PETIT";"97260";"LE MORNE-ROUGE";"Mât béton"; 16.0;"Outremer Telecom"
364014;-61.17361;14.74500;"61° 10' 25.00'' Ouest, 14° 44' 42.00'' Nord";"97225";;"MORNE FOLLIER D1";"97250";"SAINT-PIERRE";"Mât"; 4.0;"Outremer Telecom"
364016;-61.15917;14.69333;"61° 09' 33.00'' Ouest, 14° 41' 36.00'' Nord";"97204";"DOMAINE DE TUNISIE";"CHEM DES BAUMES";"97221";"LE CARBET";"Mât béton"; 16.0;"Outremer Telecom"
364239;-61.05472;14.64083;"61° 03' 17.00'' Ouest, 14° 38' 27.00'' Nord";"97209";"DABADIE";"2 ROCADE DU BEL HORIZON IMM HORIZON";"97234";"FORT-DE-FRANCE";"Immeuble"; 19.0;"Copropriété, Syndic, SCI"
364244;-61.15611;14.66056;"61° 09' 22.00'' Ouest, 14° 39' 38.00'' Nord";"97234";"FOND BOUCHER";"CHEVAL BLANC";"97222";"BELLEFONTAINE";"Mât béton"; 16.0;"Outremer Telecom"
365415;-61.08472;14.65639;"61° 05' 05.00'' Ouest, 14° 39' 23.00'' Nord";"97209";;"8KM5 ROUTE DE BALATA PRÈS RESERVOIR";"97234";"FORT-DE-FRANCE";"Mât béton"; 16.0;"Outremer Telecom"
365417;-61.01000;14.74639;"61° 00' 36.00'' Ouest, 14° 44' 47.00'' Nord";"97228";"MORNE DES ESSES";"RUE DU STADE STADE";"97230";"SAINTE-MARIE";"Pylône autostable"; 30.0;"Outremer Telecom"
365419;-61.04083;14.67278;"61° 02' 27.00'' Ouest, 14° 40' 22.00'' Nord";"97224";"BELLE ETOILE DU NORD";"HABITATION DESLANDES";"97212";"SAINT-JOSEPH";"Mât béton"; 16.0;"Outremer Telecom"
365924;-60.93917;14.67750;"60° 56' 21.00'' Ouest, 14° 40' 39.00'' Nord";"97222";;"7 R VINCENT ALLEGRE";"97231";"LE ROBERT";"Bâtiment"; 16.0;"Outremer Telecom"
365926;-60.99194;14.77917;"60° 59' 31.00'' Ouest, 14° 46' 45.00'' Nord";"97228";"HAMEAU VILLENEUVE";"28 R DES KAÏDONS";"97230";"SAINTE-MARIE";"Mât béton"; 16.0;"Outremer Telecom"
365933;-60.98056;14.69833;"60° 58' 50.00'' Ouest, 14° 41' 54.00'' Nord";"97212";"MORNE VERT PRÉ";"CHEM LA NAZAIRE PRÈS CHATEAU D 'EAU";"97213";"GROS-MORNE";"Pylône autostable"; 35.0;"Outremer Telecom"
366131;-60.84250;14.44722;"60° 50' 33.00'' Ouest, 14° 26' 50.00'' Nord";"97226";"CAP CHAVALIER";"HABITATION BIRON";"97227";"SAINTE-ANNE";"Mât béton"; 16.0;"Outremer Telecom"
366134;-61.00778;14.80444;"61° 00' 28.00'' Ouest, 14° 48' 16.00'' Nord";"97228";"MORNE LA CROIX";"QUARTIER TENOS PAIN DE SUCRE";"97230";"SAINTE-MARIE";"Mât béton"; 16.0;"Outremer Telecom"
366396;-61.07250;14.61056;"61° 04' 21.00'' Ouest, 14° 36' 38.00'' Nord";"97209";;"16 R PIERRE ET MARIE CURIE";"97234";"FORT-DE-FRANCE";"Bâtiment"; 15.0;
366398;-61.06083;14.61278;"61° 03' 39.00'' Ouest, 14° 36' 46.00'' Nord";"97209";;"135 ROUTE DES RELIGIEUSES";"97234";"FORT-DE-FRANCE";"Bâtiment"; 15.0;
366400;-61.05972;14.60806;"61° 03' 35.00'' Ouest, 14° 36' 29.00'' Nord";"97209";"COUR VIEUX HABITANTS";"R DES RAMEAUX";"97234";"FORT-DE-FRANCE";"Bâtiment"; 10.0;
366402;-61.06000;14.60889;"61° 03' 36.00'' Ouest, 14° 36' 32.00'' Nord";"97209";;"54 ROUTE DES RELIGIEUSES";"97234";"FORT-DE-FRANCE";"Bâtiment"; 10.0;
366404;-60.99361;14.78222;"60° 59' 37.00'' Ouest, 14° 46' 56.00'' Nord";"97228";"LASSALLE VILLENEUVE";"CCAL";"97230";"SAINTE-MARIE";"Bâtiment"; 20.0;
366406;-61.09278;14.61917;"61° 05' 34.00'' Ouest, 14° 37' 09.00'' Nord";"97229";;"CAMPUS DE SCHOELCHER";"97233";"SCHOELCHER";"Bâtiment"; 20.0;
368024;-60.94917;14.62667;"60° 56' 57.00'' Ouest, 14° 37' 36.00'' Nord";"97213";;"MORNE PAVILLON PITAULT";"97232";"LE LAMENTIN";"Pylône autostable"; 18.0;
368026;-61.00083;14.61750;"61° 00' 03.00'' Ouest, 14° 37' 03.00'' Nord";"97213";;"AV NELS0N MANDELA";"97232";"LE LAMENTIN";"Immeuble"; 15.0;
371073;-61.05472;14.63056;"61° 03' 17.00'' Ouest, 14° 37' 50.00'' Nord";"97209";;"ROUTE DE LA REDOUTE";"97234";"FORT-DE-FRANCE";"Bâtiment"; 15.0;
397037;-61.00611;14.60417;"61° 00' 22.00'' Ouest, 14° 36' 15.00'' Nord";"97213";;"VOIE N°2 ZI LA LEZARDE INFOBAM";"97232";"LE LAMENTIN";"Bâtiment"; 9.0;"Société Privée SA"
400106;-60.97056;14.57583;"60° 58' 14.00'' Ouest, 14° 34' 33.00'' Nord";"97207";;"AV JEAN JAURES TENNIS CLUB ABRICOT";"97224";"DUCOS";"Mât"; 12.0;"Outremer Telecom"
400108;-60.99194;14.78111;"60° 59' 31.00'' Ouest, 14° 46' 52.00'' Nord";"97228";;"QUARTIER VILLENEUVE 11 R DES ARAWAKS";"97230";"SAINTE-MARIE";"Mât béton"; 12.0;"Outremer Telecom"
415492;-60.98083;14.52944;"60° 58' 51.00'' Ouest, 14° 31' 46.00'' Nord";"97221";;"48 R DES ETAGES";"97215";"RIVIERE-SALEE";"Mât métallique"; 10.0;"Outremer Telecom"
415494;-61.03806;14.67194;"61° 02' 17.00'' Ouest, 14° 40' 19.00'' Nord";"97224";;"R HENRI MAURICE";"97212";"SAINT-JOSEPH";"Mât béton"; 12.0;"Outremer Telecom"
415496;-60.96333;14.73639;"60° 57' 48.00'' Ouest, 14° 44' 11.00'' Nord";"97230";;"QUARTIER EPINETTE R ADRIEN STE LUCE SCI";"97220";"LA TRINITE";"Mât"; 8.0;"Outremer Telecom"
415784;-60.90333;14.57750;"60° 54' 12.00'' Ouest, 14° 34' 39.00'' Nord";"97210";;"QUARTIER MORNE ACAJOU";"97240";"LE FRANCOIS";"Pylône autostable"; 20.0;"Outremer Telecom"
415792;-61.06361;14.60639;"61° 03' 49.00'' Ouest, 14° 36' 23.00'' Nord";"97209";"LA FOLIE";"JARDIN DESCLIEUX";"97200";"FORT-DE-FRANCE";"Bâtiment"; 8.0;"Outremer Telecom"
415797;-61.09611;14.61028;"61° 05' 46.00'' Ouest, 14° 36' 37.00'' Nord";"97229";;"12 ANCIENNE ROUTE DE SCHOELCHER";"97233";"SCHOELCHER";"Bâtiment"; 8.0;"Outremer Telecom"
415987;-61.05889;14.62639;"61° 03' 32.00'' Ouest, 14° 37' 35.00'' Nord";"97209";"REDOUTE";"R DES AVENTS";"97200";"FORT-DE-FRANCE";"Bâtiment"; 8.0;"Outremer Telecom"
416000;-60.96583;14.54611;"60° 57' 57.00'' Ouest, 14° 32' 46.00'' Nord";"97221";;"40 R DE LA LIBERTÉ";"97215";"RIVIERE-SALEE";"Bâtiment"; 8.0;"Particulier"
416010;-61.02222;14.61722;"61° 01' 20.00'' Ouest, 14° 37' 02.00'' Nord";"97213";"CALIFORNIE";"LOT LES MANGLES ACAJOU GBH";"97232";"LE LAMENTIN";"Bâtiment"; 15.0;"Société Privée SA"
416020;-60.98944;14.62389;"60° 59' 22.00'' Ouest, 14° 37' 26.00'' Nord";"97213";;"QUARTIER MAANGOT VULCIN D 3";"97232";"LE LAMENTIN";"Bâtiment"; 20.0;"Société Privée SA"
418220;-61.06722;14.61306;"61° 04' 02.00'' Ouest, 14° 36' 47.00'' Nord";"97209";;"HÔPITAL DE CLARAC";"97200";"FORT-DE-FRANCE";"Bâtiment"; 28.0;
418225;-61.08389;14.61861;"61° 05' 02.00'' Ouest, 14° 37' 07.00'' Nord";"97209";;"HÔPITAL DE VENTURA";"97200";"FORT-DE-FRANCE";"Bâtiment"; 35.0;"Etablissement de soins"
422361;-61.06500;14.52500;"61° 03' 54.00'' Ouest, 14° 31' 30.00'' Nord";"97231";"MORNE BIGOT";"QUARTIER DE LA PLAINE";"97229";"LES TROIS-ILETS";"Pylône autostable"; 37.0;"Outremer Telecom"
424305;-60.97972;14.74639;"60° 58' 47.00'' Ouest, 14° 44' 47.00'' Nord";"97230";;"MORNE POIRIER";"97220";"LA TRINITE";"Pylône autostable"; 14.3;"DIGICEL"
436721;-60.88250;14.43278;"60° 52' 57.00'' Ouest, 14° 25' 58.00'' Nord";"97226";;"MAISON DE QUARTIER R DE LA PAILLE";"97227";"SAINTE-ANNE";"Bâtiment"; 8.0;"DIGICEL"
436882;-60.99694;14.59639;"60° 59' 49.00'' Ouest, 14° 35' 47.00'' Nord";"97213";;"AERODROME NORD PARKING VEHICULE";"97232";"LE LAMENTIN";"Pylône autostable"; 30.0;"ORANGE"
441108;-61.18111;14.70306;"61° 10' 52.00'' Ouest, 14° 42' 11.00'' Nord";"97204";"LAJUS";"PRÈS D20.A";"97221";"LE CARBET";"Pylône autostable"; 20.0;"ORANGE"
442993;-61.11611;14.63944;"61° 06' 58.00'' Ouest, 14° 38' 22.00'' Nord";"97229";"LA DÉMARCHE";"3 R MATHIEU RAVI";"97233";"SCHOELCHER";"Pylône autostable"; 16.0;"ORANGE"
451817;-61.06889;14.60278;"61° 04' 08.00'' Ouest, 14° 36' 10.00'' Nord";"97209";;"3 R VICTOR HUGO";"97200";"FORT-DE-FRANCE";"Bâtiment"; 21.0;"Particulier"
452549;-60.92833;14.46667;"60° 55' 42.00'' Ouest, 14° 28' 00.00'' Nord";"97227";;"4 LOT GROS RAISIN";"97228";"SAINTE-LUCE";"Mât métallique"; 7.0;"Outremer Telecom"
452551;-60.99889;14.70944;"60° 59' 56.00'' Ouest, 14° 42' 34.00'' Nord";"97212";;"QUARTIER LA FRAICHEUR R DE LA LIBERTÉ";"97213";"GROS-MORNE";"Mât métallique"; 7.0;"Outremer Telecom"
467867;-60.98889;14.65722;"60° 59' 20.00'' Ouest, 14° 39' 26.00'' Nord";"97213";"GRAND CHAMP";;"97232";"LE LAMENTIN";"Bâtiment"; 15.0;"Particulier"
471699;-60.97472;14.63833;"60° 58' 29.00'' Ouest, 14° 38' 18.00'' Nord";"97213";"ROCHES CARRÉES";"ROCHES CARRÉES";"97232";"LE LAMENTIN";"Pylône autostable"; 27.0;"DIGICEL"
472248;-60.89139;14.54750;"60° 53' 29.00'' Ouest, 14° 32' 51.00'' Nord";"97220";"VIEILLE CITERNE";"MORNE FIRMIN";"97211";"RIVIERE-PILOTE";"Pylône autostable"; 22.0;"DIGICEL"
473443;-61.05806;14.63306;"61° 03' 29.00'' Ouest, 14° 37' 59.00'' Nord";"97209";;"LOT LA CHARMEUSE N°42 REDOUTE";"97200";"FORT-DE-FRANCE";"Bâtiment"; 11.4;"DIGICEL"
476965;-60.96306;14.74083;"60° 57' 47.00'' Ouest, 14° 44' 27.00'' Nord";"97230";;"1, R JOSEPH LAGROSILLIÈRE CCALE DE LA CABESTERRE";"97220";"LA TRINITE";"Bâtiment"; 14.0;"Commune, communauté de commune"
482581;-61.01278;14.61417;"61° 00' 46.00'' Ouest, 14° 36' 51.00'' Nord";"97213";"Z.I. LES MANGLES";"Z.I. LES MANGLES N.1";"97232";"LE LAMENTIN";"Pylône autostable"; 20.0;"ORANGE"
483361;-61.03833;14.61667;"61° 02' 18.00'' Ouest, 14° 37' 00.00'' Nord";"97209";;"PRÈS N.9 - R PIÉTONNE ZAC DE RIVIÈRE ROCHE - ROUGE";"97200";"FORT-DE-FRANCE";"Bâtiment"; 22.0;"Société Privée SA"
483770;-61.14917;14.85972;"61° 08' 57.00'' Ouest, 14° 51' 35.00'' Nord";"97215";;"HABITATION BELLEVUE SITE TDF";"97218";"MACOUBA";"Pylône autostable"; 37.0;"TDF"
483806;-61.21389;14.78889;"61° 12' 50.00'' Ouest, 14° 47' 20.00'' Nord";"97219";"MORNE FOLIE";"RESERVOIR QUARTIER LA CHARMEUSE";"97250";"LE PRECHEUR";"Pylône autostable"; 43.0;"TDF"
483823;-61.05944;14.61167;"61° 03' 34.00'' Ouest, 14° 36' 42.00'' Nord";"97209";"MORNE VANIER NORD";"RTE DES RELIGIEUSES";"97200";"FORT-DE-FRANCE";"Pylône autostable"; 25.0;"ORANGE"
484295;-60.91222;14.75500;"60° 54' 44.00'' Ouest, 14° 45' 18.00'' Nord";"97230";"MORNE PAVILLON";;"97220";"LA TRINITE";"Pylône autostable"; 40.0;"TDF"
484751;-61.06694;14.51806;"61° 04' 01.00'' Ouest, 14° 31' 05.00'' Nord";"97202";"MORNE BIGOT";;"97217";"LES ANSES-D'ARLET";"Pylône autostable"; 62.5;"TDF"
486087;-61.15222;14.80611;"61° 09' 08.00'' Ouest, 14° 48' 22.00'' Nord";"97201";;"L'AILERON";"97216";"L'AJOUPA-BOUILLON";"Pylône autostable"; 44.0;"TDF"
492342;-61.07361;14.48417;"61° 04' 25.00'' Ouest, 14° 29' 03.00'' Nord";"97202";;"LES ANSES D'ARLET MORNE BELLEVUE";"97217";"LES ANSES-D'ARLET";"Pylône autostable"; 6.8;"DIGICEL"
499394;-61.17750;14.70389;"61° 10' 39.00'' Ouest, 14° 42' 14.00'' Nord";"97204";"MORNE LAJUS";;"97221";"LE CARBET";"Pylône autostable"; 30.0;"TDF"
501117;-60.90111;14.45944;"60° 54' 04.00'' Ouest, 14° 27' 34.00'' Nord";"97217";"POINTE BORGNESSE";"MORNE ACA";"97290";"LE MARIN";"Pylône autostable"; 35.0;"TDF"
501284;-60.91194;14.75556;"60° 54' 43.00'' Ouest, 14° 45' 20.00'' Nord";"97230";"MORNE PAVILLON";;"97220";"LA TRINITE";"Pylône autostable"; 40.0;"TDF"
504490;-61.01028;14.71278;"61° 00' 37.00'' Ouest, 14° 42' 46.00'' Nord";"97212";"CROIX JUBILE";;"97213";"GROS-MORNE";"Pylône autostable"; 25.0;"DIGICEL"
507308;-61.05528;14.62333;"61° 03' 19.00'' Ouest, 14° 37' 24.00'' Nord";"97209";"L'ENTRAIDE";"34 ROUTE DE L'ENTRAIDE";"97200";"FORT-DE-FRANCE";"Pylône autostable"; 12.4;"DIGICEL"
514522;-60.95861;14.55472;"60° 57' 31.00'' Ouest, 14° 33' 17.00'' Nord";"97207";"PETIT-PARADIS";"N.8/D.6 - INTERSECTION PETIT BOURG-DUCOS-ST ESPRIT";"97224";"DUCOS";"Pylône autostable"; 35.3;"DIGICEL"
514993;-61.01583;14.63000;"61° 00' 57.00'' Ouest, 14° 37' 48.00'' Nord";"97213";;"PLATEAU ACAJOU CERP";"97232";"LE LAMENTIN";"Immeuble"; 14.5;"Société Privée SA"
515246;-61.01750;14.50139;"61° 01' 03.00'' Ouest, 14° 30' 05.00'' Nord";"97206";"MORNE PAVILLON";"STATION METEO";"97223";"LE DIAMANT";"Bâtiment"; 13.0;"Météo"
520987;-61.07778;14.60944;"61° 04' 40.00'' Ouest, 14° 36' 34.00'' Nord";"97209";"CLAIRIÈRE";;"97200";"FORT-DE-FRANCE";"Pylône autostable"; 41.0;"TDF"
522611;-61.04028;14.61889;"61° 02' 25.00'' Ouest, 14° 37' 08.00'' Nord";"97209";;"28, AV DES ARAWAKS";"97234";"FORT-DE-FRANCE";"Bâtiment"; 14.0;"TDF"
522617;-61.11333;14.81694;"61° 06' 48.00'' Ouest, 14° 49' 01.00'' Nord";"97201";"GRANDE SAVANE";;"97216";"L'AJOUPA-BOUILLON";"Immeuble"; 10.0;"TDF"
524085;-61.01944;14.50917;"61° 01' 10.00'' Ouest, 14° 30' 33.00'' Nord";"97231";"MORNE CONSTANT";;"97229";"LES TROIS-ILETS";"Pylône autostable"; 31.0;"Société Privée SA"
524108;-61.06722;14.51889;"61° 04' 02.00'' Ouest, 14° 31' 08.00'' Nord";"97202";"MORNE BIGOT";"PRÈS RÉSERVOIR";"97217";"LES ANSES-D'ARLET";"Pylône autostable"; 35.0;"Société Privée SA"
524952;-61.17472;14.87222;"61° 10' 29.00'' Ouest, 14° 52' 20.00'' Nord";"97211";"BEAUSÉJOUR";;"97218";"GRAND'RIVIERE";"Pylône haubané"; 10.0;"Société Privée SA"
525227;-60.91222;14.75472;"60° 54' 44.00'' Ouest, 14° 45' 17.00'' Nord";"97230";"MORNE PAVILLON";;"97220";"LA TRINITE";"Pylône autostable"; 36.0;"Société Privée SA"
525236;-60.91222;14.75444;"60° 54' 44.00'' Ouest, 14° 45' 16.00'' Nord";"97230";"MORNE PAVILLON";;"97220";"LA TRINITE";"Pylône haubané"; 13.0;"Société Privée SA"
525261;-61.01722;14.50000;"61° 01' 02.00'' Ouest, 14° 30' 00.00'' Nord";"97206";"MORNE PAVILLON";"PRÈS STATION MÉTÉO";"97223";"LE DIAMANT";"Pylône autostable"; 25.0;"Société Privée SA"
526088;-60.89444;14.46750;"60° 53' 40.00'' Ouest, 14° 28' 03.00'' Nord";"97217";"MORNE GOMMIER";"PRÈS JEAN-BAPTISTE";"97290";"LE MARIN";"Pylône autostable"; 35.0;"Société Privée SA"
526410;-61.15139;14.80583;"61° 09' 05.00'' Ouest, 14° 48' 21.00'' Nord";"97201";;"L'AILERON 1ER REFUGE";"97216";"L'AJOUPA-BOUILLON";"Pylône autostable"; 20.0;"Société Privée SA"
526589;-60.92361;14.50500;"60° 55' 25.00'' Ouest, 14° 30' 18.00'' Nord";"97227";"QUARTIER LÉPINAY";"FACE AU CHÂTEAU D'EAU";"97228";"SAINTE-LUCE";"Pylône haubané"; 18.0;"Société Privée SA"
526591;-61.14028;14.68667;"61° 08' 25.00'' Ouest, 14° 41' 12.00'' Nord";"97234";"VERRIER";"ECOLE";"97219";"BELLEFONTAINE";"Bâtiment"; 10.0;"Commune, communauté de commune"
526593;-61.17639;14.75167;"61° 10' 35.00'' Ouest, 14° 45' 06.00'' Nord";"97225";;"QUARTIER DU FORT";"97250";"SAINT-PIERRE";"Pylône haubané"; 20.0;"Société Privée SA"
526905;-61.21361;14.78889;"61° 12' 49.00'' Ouest, 14° 47' 20.00'' Nord";"97219";"MORNE FOLIE";"CHÂTEAU D'EAU";"97250";"LE PRECHEUR";"Château d'eau - réservoir"; 12.0;"Société Privée SA"
527243;-60.88944;14.47833;"60° 53' 22.00'' Ouest, 14° 28' 42.00'' Nord";"97217";"MORNE GOMMIER";"PRÈS RÉSERVOIR";"97290";"LE MARIN";"Pylône autostable"; 18.0;"Société Privée SA"
538141;-61.05861;14.73667;"61° 03' 31.00'' Ouest, 14° 44' 12.00'' Nord";"97212";;"TROU MATELOTS";"97213";"GROS-MORNE";"Pylône autostable"; 10.0;"TDF"
540532;-61.17278;14.87056;"61° 10' 22.00'' Ouest, 14° 52' 14.00'' Nord";"97211";;"HABITATION BEAUSÉJOUR";"97218";"GRAND'RIVIERE";"Pylône autostable"; 38.0;"TDF"
540781;-61.09389;14.61472;"61° 05' 38.00'' Ouest, 14° 36' 53.00'' Nord";"97229";"PLATEAU FOFO";"84, AV DU PETIT FLORENTIN";"97233";"SCHOELCHER";"Immeuble"; 11.0;"Copropriété, Syndic, SCI"
552302;-61.14306;14.79917;"61° 08' 35.00'' Ouest, 14° 47' 57.00'' Nord";"97218";"MORNE CALLEBASSE";"PROCHE DE LA D.39";"97260";"LE MORNE-ROUGE";"Pylône autostable"; 30.0;"TDF"
554004;-61.05444;14.60583;"61° 03' 16.00'' Ouest, 14° 36' 21.00'' Nord";"97209";;"BOULEVARD  DU TSF";"97200";"FORT-DE-FRANCE";"Pylône autostable"; 22.0;"ORANGE"
555917;-61.08750;14.68917;"61° 05' 15.00'' Ouest, 14° 41' 21.00'' Nord";"97209";"COLSON";"RTE DE BALATA - N 3 HÔPITAL PSYCHIATRIQUE DE COLSON";"97200";"FORT-DE-FRANCE";"Pylône autostable"; 30.0;"ORANGE"
556647;-61.02917;14.63083;"61° 01' 45.00'' Ouest, 14° 37' 51.00'' Nord";"97213";;"MORNE PAVILLON QUARTIER BRIÈRE DE LISLE 1ER RSMA";"97232";"LE LAMENTIN";"Pylône tubulaire"; 16.0;"ORANGE"
557747;-61.15611;14.66028;"61° 09' 22.00'' Ouest, 14° 39' 37.00'' Nord";"97234";"FOND BOUCHER";"FOND-BOUCHER";"97222";"BELLEFONTAINE";"Pylône autostable"; 20.0;"TDF"
562037;-61.01750;14.66417;"61° 01' 03.00'' Ouest, 14° 39' 51.00'' Nord";"97224";"CHOISY";"D. 15";"97212";"SAINT-JOSEPH";"Pylône autostable"; 22.0;"ORANGE"
562508;-61.06833;14.53278;"61° 04' 06.00'' Ouest, 14° 31' 58.00'' Nord";"97231";"DESLOGES";"PAPIAS - PYLÔNE ORANGE";"97229";"LES TROIS-ILETS";"Mât"; 21.0;"ORANGE"
562608;-61.07306;14.63917;"61° 04' 23.00'' Ouest, 14° 38' 21.00'' Nord";"97209";"LA NORVILLE";"N.3. - RTE DE BALATA LOT GOUYÉ PRÈS DU RÉSERVOIR DE BALATA";"97200";"FORT-DE-FRANCE";"Pylône autostable"; 20.0;"ORANGE"
566298;-60.98861;14.62667;"60° 59' 19.00'' Ouest, 14° 37' 36.00'' Nord";"97213";"MANGOT VULCIN";"PRÉS D3 PYLONETDF";"97232";"LE LAMENTIN";"Mât"; 2.3;"DIGICEL"
568537;-61.17667;14.74778;"61° 10' 36.00'' Ouest, 14° 44' 52.00'' Nord";"97225";;"R DE LA PRISON STADE MUNICIPAL SAINT PIERRE URAD";"97250";"SAINT-PIERRE";"Mât béton"; 15.0;"MEDIASERV"
571723;-61.06500;14.52500;"61° 03' 54.00'' Ouest, 14° 31' 30.00'' Nord";"97231";"LA PLAINE";"MORNE BIGOT";"97229";"LES TROIS-ILETS";"Pylône autostable"; 25.0;"Société Privée SA"
581158;-61.03361;14.53222;"61° 02' 01.00'' Ouest, 14° 31' 56.00'' Nord";"97231";"LA VATABLE";;"97229";"LES TROIS-ILETS";"Pylône autostable"; 25.0;"Société Privée SA"
584445;-61.14472;14.73667;"61° 08' 41.00'' Ouest, 14° 44' 12.00'' Nord";"97208";"MORNE DES CADETS";"VC N°3 DE L'OBSERVATOIRE";"97250";"FONDS-SAINT-DENIS";"Pylône autostable"; 32.0;"TDF"
589661;-61.06389;14.61750;"61° 03' 50.00'' Ouest, 14° 37' 03.00'' Nord";"97209";"MORNE DESAIX";"RTE DU GÉNÉRAL BROSSET";"97200";"FORT-DE-FRANCE";"Pylône autostable"; 29.0;"ORANGE Services Fixes"
592389;-61.12444;14.67361;"61° 07' 28.00'' Ouest, 14° 40' 25.00'' Nord";"97205";"MORNE ROSE";"VC GRAND FOND";"97222";"CASE-PILOTE";"Pylône autostable"; 30.0;"ORANGE Services Fixes"
593857;-60.85583;14.58361;"60° 51' 21.00'' Ouest, 14° 35' 01.00'' Nord";"97210";"CAP EST";;"97240";"LE FRANCOIS";"Mât béton"; 18.0;"DIGICEL"
602436;-61.02944;14.77889;"61° 01' 46.00'' Ouest, 14° 46' 44.00'' Nord";"97228";"RECULÉE";;"97230";"SAINTE-MARIE";"Pylône autostable"; 27.0;"DIGICEL"
602442;-61.04722;14.48917;"61° 02' 50.00'' Ouest, 14° 29' 21.00'' Nord";"97206";"MORNE BLANC";;"97223";"LE DIAMANT";"Pylône autostable"; 14.0;"DIGICEL"
611659;-60.87972;14.43278;"60° 52' 47.00'' Ouest, 14° 25' 58.00'' Nord";"97226";"LE BOURG";"R DE L'ESCLAVE HÉROÏQUE";"97227";"SAINTE-ANNE";"Mât béton"; 12.0;"MEDIASERV"
611661;-61.13250;14.73750;"61° 07' 57.00'' Ouest, 14° 44' 15.00'' Nord";"97208";;"VC BAS DISPENSAIRE";"97250";"FONDS-SAINT-DENIS";"Bâtiment"; 6.0;"MEDIASERV"
615367;-61.09139;14.81722;"61° 05' 29.00'' Ouest, 14° 49' 02.00'' Nord";"97214";"MORNE CAPOT";"QUARTIER MORNE CAPOT L'ECOLE PROPRIÉTÉ TANIC";"97214";"LE LORRAIN";"Mât béton"; 12.0;"Société Privée SA"
616932;-60.99611;14.59861;"60° 59' 46.00'' Ouest, 14° 35' 55.00'' Nord";"97213";"LAREINTY";;"97232";"LE LAMENTIN";"Pylône autostable"; 30.0;"MEDIASERV"
631426;-60.99167;14.63167;"60° 59' 30.00'' Ouest, 14° 37' 54.00'' Nord";"97213";"BOIS CARRÉ";"PRÈS D3";"97232";"LE LAMENTIN";"Pylône autostable"; 30.0;"ORANGE"
634368;-61.04056;14.63889;"61° 02' 26.00'' Ouest, 14° 38' 20.00'' Nord";"97209";"JAMBETTE";"R DES LUCIOLES CHÂTEAU D'EAU";"97200";"FORT-DE-FRANCE";"Château d'eau - réservoir"; 30.0;"Syndicat des eaux, Adduction"
634407;-61.09250;14.60806;"61° 05' 33.00'' Ouest, 14° 36' 29.00'' Nord";"97229";"QUARTIER BATELIÈRE";"BD DU 25 JUIN 1935 - D.54 CITÉ OZANAM BÂT. G";"97233";"SCHOELCHER";"Immeuble"; 27.0;"Société HLM"
637900;-61.07972;14.60417;"61° 04' 47.00'' Ouest, 14° 36' 15.00'' Nord";"97209";;"3 BD  DE LA MARNE SQUASH HÔTEL";"97200";"FORT-DE-FRANCE";"Bâtiment"; 20.0;"Particulier"
638362;-60.92722;14.46889;"60° 55' 38.00'' Ouest, 14° 28' 08.00'' Nord";"97227";"PAVILLON";"R.N. 5 STADE DE STE LUCE";"97228";"SAINTE-LUCE";"Pylône autostable"; 20.0;"ORANGE"
638389;-61.05194;14.55417;"61° 03' 07.00'' Ouest, 14° 33' 15.00'' Nord";"97231";"POINTE ETIENNE";"R DES BOUGAINVILLIERS";"97229";"LES TROIS-ILETS";"Pylône autostable"; 24.0;"ORANGE Services Fixes"
638430;-61.03083;14.81583;"61° 01' 51.00'' Ouest, 14° 48' 57.00'' Nord";"97216";"MARIGOT";"CHEM RESERVOIR DUHAMELIN";"97225";"LE MARIGOT";"Pylône autostable"; 22.0;"ORANGE"
640588;-61.04833;14.47194;"61° 02' 54.00'' Ouest, 14° 28' 19.00'' Nord";"97206";"DIZAC";;"97223";"LE DIAMANT";"Pylône autostable"; 20.0;"ORANGE"
657896;-61.01472;14.49194;"61° 00' 53.00'' Ouest, 14° 29' 31.00'' Nord";"97206";"TAMARIN";"RÉSERVOIR D EAU";"97223";"LE DIAMANT";"Château d'eau - réservoir"; 19.0;"Syndicat des eaux, Adduction"
657906;-61.04083;14.61833;"61° 02' 27.00'' Ouest, 14° 37' 06.00'' Nord";"97209";;"AV DES ARAWAKS HÔTEL VALMENIÈRE";"97200";"FORT-DE-FRANCE";"Bâtiment"; 33.0;"Société Privée SA"
657918;-61.06861;14.63028;"61° 04' 07.00'' Ouest, 14° 37' 49.00'' Nord";"97209";"FLOREAL";"RÉSIDENCE LES AZALÉES";"97200";"FORT-DE-FRANCE";"Immeuble"; 17.0;"ORANGE"
657963;-61.13167;14.63917;"61° 07' 54.00'' Ouest, 14° 38' 21.00'' Nord";"97205";"CHOISEUL";"PRÈS RÉSERVOIR DOMAINE DE CHOISEUL";"97222";"CASE-PILOTE";"Pylône autostable"; 20.0;"ORANGE"
657998;-61.01306;14.61972;"61° 00' 47.00'' Ouest, 14° 37' 11.00'' Nord";"97213";"ACAJOU";"VIEUX CHEM DE CALIFORNIE";"97232";"LE LAMENTIN";"Pylône haubané"; 15.0;"ORANGE"
658260;-61.03194;14.61444;"61° 01' 55.00'' Ouest, 14° 36' 52.00'' Nord";"97213";;"ZI DE LA JAMBETTE CENTRE D'AFFAIRES CALIFORNIE 2";"97232";"LE LAMENTIN";"Bâtiment"; 27.0;"ORANGE"
658391;-60.87694;14.39750;"60° 52' 37.00'' Ouest, 14° 23' 51.00'' Nord";"97226";"POINTE DES SALINES";"POINTE DE LA PLAGE DES SALINES RTE DES SALINES SARL DELICES DE LA MER";"97227";"SAINTE-ANNE";"Pylône autostable"; 15.0;"Particulier"
658437;-61.02250;14.76167;"61° 01' 21.00'' Ouest, 14° 45' 42.00'' Nord";"97228";"BEZAUDIN PÉROU";"LA CHAPELLE";"97230";"SAINTE-MARIE";"Pylône autostable"; 22.0;"TDF"
658459;-61.06222;14.60528;"61° 03' 44.00'' Ouest, 14° 36' 19.00'' Nord";"97209";"LES HAUTS DU PORT";"ROUTE DES RELIGIEUSES VOIE 2";"97200";"FORT-DE-FRANCE";"Local technique"; 13.0;"Phares et balises"
658471;-61.14722;14.70472;"61° 08' 50.00'' Ouest, 14° 42' 17.00'' Nord";"97233";"MORNE MOULINGUET";"PRÈS D19";"97226";"LE MORNE-VERT";"Pylône autostable"; 25.0;"TDF"
658901;-61.07333;14.60306;"61° 04' 24.00'' Ouest, 14° 36' 11.00'' Nord";"97209";"POINTE SIMON";"R DU COMMERCE";"97200";"FORT-DE-FRANCE";"Bâtiment"; 26.0;"Particulier"
659605;-61.06222;14.60417;"61° 03' 44.00'' Ouest, 14° 36' 15.00'' Nord";"97209";"LES HAUTS DU PORT";"FEU DE CARÉNAGE";"97200";"FORT-DE-FRANCE";"Phare"; 14.0;"Phares et balises"
660092;-60.97306;14.65444;"60° 58' 23.00'' Ouest, 14° 39' 16.00'' Nord";"97213";"PELLETIER";"PRÈS RN1";"97232";"LE LAMENTIN";"Pylône autostable"; 30.0;"ORANGE"
660101;-61.03222;14.62056;"61° 01' 56.00'' Ouest, 14° 37' 14.00'' Nord";"97213";"CALIFORNIE";"LES HAUTS DE CALIFORNIE POINT MATPRÉS D14A";"97232";"LE LAMENTIN";"Pylône autostable"; 20.0;"ORANGE"
660107;-60.87917;14.43444;"60° 52' 45.00'' Ouest, 14° 26' 04.00'' Nord";"97226";;"AU SOMMET DU CHEM DU CALVAIRE PROCHE EGLISE DE STE ANNE";"97227";"SAINTE-ANNE";"Pylône haubané"; 17.0;"ORANGE"
660121;-61.01639;14.67083;"61° 00' 59.00'' Ouest, 14° 40' 15.00'' Nord";"97224";"CHOCO";"CHEM RURAL";"97212";"SAINT-JOSEPH";"Pylône autostable"; 30.0;"ORANGE"
660133;-61.04139;14.67444;"61° 02' 29.00'' Ouest, 14° 40' 28.00'' Nord";"97224";"SÉAILLES";"R SÉAILLES CARK";"97212";"SAINT-JOSEPH";"Pylône autostable"; 20.0;"ORANGE"
660153;-61.07833;14.62056;"61° 04' 42.00'' Ouest, 14° 37' 14.00'' Nord";"97209";"BAS DIDIER";"D.45 - 61, R DU PR GARCIN";"97200";"FORT-DE-FRANCE";"Bâtiment"; 12.0;"Société Privée SA"
660735;-60.93250;14.56556;"60° 55' 57.00'' Ouest, 14° 33' 56.00'' Nord";"97223";"GUEYDON";"CHEM COMMUNAL";"97270";"SAINT-ESPRIT";"Pylône autostable"; 22.0;"ORANGE"
660901;-61.14722;14.87528;"61° 08' 50.00'' Ouest, 14° 52' 31.00'' Nord";"97215";"MACOUBA NORD";"PRÈS D10";"97218";"MACOUBA";"Pylône autostable"; 20.0;"ORANGE"
660907;-61.08250;14.62333;"61° 04' 57.00'' Ouest, 14° 37' 24.00'' Nord";"97229";"CLUNY";"R GASTON DEFERRE";"97233";"SCHOELCHER";"Pylône autostable"; 15.0;"ORANGE"
660913;-61.07917;14.49194;"61° 04' 45.00'' Ouest, 14° 29' 31.00'' Nord";"97202";;"12 R FELIX EBOUÉ - R.D. 37";"97217";"LES ANSES-D'ARLET";"Pylône autostable"; 25.0;"ORANGE Services Fixes"
660919;-61.02889;14.78139;"61° 01' 44.00'' Ouest, 14° 46' 53.00'' Nord";"97228";"BOIS NEUF";"RECULÉE OUEST RUE MANGOT";"97230";"SAINTE-MARIE";"Pylône autostable"; 30.0;"ORANGE"
661587;-61.03639;14.53750;"61° 02' 11.00'' Ouest, 14° 32' 15.00'' Nord";"97231";"QUARTIER CITRON";"R DES CITRONNIERS STADE COMMUNAL";"97229";"LES TROIS-ILETS";"Pylône tubulaire"; 20.0;"DIGICEL"
661650;-61.04833;14.83250;"61° 02' 54.00'' Ouest, 14° 49' 57.00'' Nord";"97214";"LE VALLON";"BOURG DU LORRAIN";"97214";"LE LORRAIN";"Pylône autostable"; 26.0;"ORANGE Services Fixes"
661658;-60.95278;14.65611;"60° 57' 10.00'' Ouest, 14° 39' 22.00'' Nord";"97222";"RAISIN";"VOIE COMMUNAL DE BOIS LANCY";"97231";"LE ROBERT";"Château d'eau - réservoir"; 20.0;"Société Privée SA"
662765;-61.05889;14.67722;"61° 03' 32.00'' Ouest, 14° 40' 38.00'' Nord";"97224";;"QUATIER DU BOIS DU PARC D 47 MORNE MARC";"97212";"SAINT-JOSEPH";"Mât béton"; 16.0;"Outremer Telecom"
662768;-60.89278;14.54778;"60° 53' 34.00'' Ouest, 14° 32' 52.00'' Nord";"97223";;"QUARTIER VIEILLE CITERNE";"97270";"SAINT-ESPRIT";"Mât béton"; 20.0;"Outremer Telecom"
662770;-61.03167;14.66861;"61° 01' 54.00'' Ouest, 14° 40' 07.00'' Nord";"97224";;"LONG BOIS";"97212";"SAINT-JOSEPH";"Mât béton"; 16.0;"Outremer Telecom"
662772;-61.11611;14.86861;"61° 06' 58.00'' Ouest, 14° 52' 07.00'' Nord";"97203";"GRADIS";"R MARCEL BEDOUIN";"97218";"BASSE-POINTE";"Pylône autostable"; 30.0;"Outremer Telecom"
663340;-61.01139;14.64167;"61° 00' 41.00'' Ouest, 14° 38' 30.00'' Nord";"97213";"LA MAUGÉE";"D.15 LOT LA MAUGÉE";"97232";"LE LAMENTIN";"Pylône autostable"; 30.0;"ORANGE"
663346;-60.99806;14.61500;"60° 59' 53.00'' Ouest, 14° 36' 54.00'' Nord";"97213";;"BD FERNAND GUILON STADE YVES ADÈLE";"97232";"LE LAMENTIN";"Pylône autostable"; 22.0;"ORANGE"
663373;-60.91556;14.70722;"60° 54' 56.00'' Ouest, 14° 42' 26.00'' Nord";"97222";"POINTE SAVANE NORD";"MTE MONTÉE DU CLAPOTAGE";"97231";"LE ROBERT";"Pylône tubulaire"; 15.0;"ORANGE"
663388;-60.89583;14.52389;"60° 53' 45.00'' Ouest, 14° 31' 26.00'' Nord";"97220";"MORNE VENT";"COUR DE BELLAY";"97211";"RIVIERE-PILOTE";"Pylône autostable"; 24.0;"ORANGE"
663446;-60.87500;14.47694;"60° 52' 30.00'' Ouest, 14° 28' 37.00'' Nord";"97217";"MONTGÉRALD";"PRÈS CHATEAU D'EAU";"97290";"LE MARIN";"Mât béton"; 16.0;"Outremer Telecom"
663468;-61.02000;14.61917;"61° 01' 12.00'' Ouest, 14° 37' 09.00'' Nord";"97213";"ACAJOU SUD";"CCALE LA GALERIA";"97232";"LE LAMENTIN";"Intérieur galerie"; 3.0;"Société Privée SA"
663600;-60.85500;14.58333;"60° 51' 18.00'' Ouest, 14° 35' 00.00'' Nord";"97210";"LA PRAIRIE - CAP EST";"ALLÉE MAYO TERRAIN DESPOINTES";"97240";"LE FRANCOIS";"Pylône tubulaire"; 20.0;"ORANGE"
663691;-61.16611;14.67444;"61° 09' 58.00'' Ouest, 14° 40' 28.00'' Nord";"97234";;"CTRE TDF DE BELLEFONTAINE";"97222";"BELLEFONTAINE";"Pylône autostable"; 17.0;"TDF"
663716;-60.91222;14.75556;"60° 54' 44.00'' Ouest, 14° 45' 20.00'' Nord";"97230";"MORNE PAVILLON";"V.C. DITE DE MORNE PAVILLON S.H. FT DE MORNE PAVILLON";"97220";"LA TRINITE";"Pylône autostable"; 26.0;"ORANGE Services Fixes"
663733;-61.10500;14.63167;"61° 06' 18.00'' Ouest, 14° 37' 54.00'' Nord";"97229";"FOND ROUSSEAU";"RTE DE TERREVILLE";"97233";"SCHOELCHER";"Pylône autostable"; 22.0;"ORANGE"
663745;-61.04778;14.61000;"61° 02' 52.00'' Ouest, 14° 36' 36.00'' Nord";"97209";"DILLON";"AV SALVADOR ALLENDE TOUR NORD";"97200";"FORT-DE-FRANCE";"Immeuble"; 27.0;"Société HLM"
663751;-60.98861;14.62722;"60° 59' 19.00'' Ouest, 14° 37' 38.00'' Nord";"97213";"MANGOT VULCIN";"PRÉS D3 PYLONETDF";"97232";"LE LAMENTIN";"Pylône autostable"; 75.0;"TDF"
663770;-60.99278;14.61389;"60° 59' 34.00'' Ouest, 14° 36' 50.00'' Nord";"97213";;"CCALE PL D'ARME";"97232";"LE LAMENTIN";"Intérieur galerie"; 3.0;"Société Privée SA"
663772;-60.97500;14.65028;"60° 58' 30.00'' Ouest, 14° 39' 01.00'' Nord";"97213";"QUARTIER PELETIER";"FOND GIROMOND SITE DE TRANSLEV";"97232";"LE LAMENTIN";"Mât béton"; 14.0;"Outremer Telecom"
663774;-61.09528;14.61472;"61° 05' 43.00'' Ouest, 14° 36' 53.00'' Nord";"97229";;"PALAIS DES CONGRÈS";"97233";"SCHOELCHER";"Intérieur galerie"; 3.0;"Société Privée SA"
663776;-61.07444;14.47778;"61° 04' 28.00'' Ouest, 14° 28' 40.00'' Nord";"97202";;"QUARTIER L'ETANG PETITE ANSE EMPLMENT EN DEUX PARTIE SIS TERRAIN COLOMBE RTE DE BAS MORNE";"97217";"LES ANSES-D'ARLET";"Mât béton"; 16.0;"Outremer Telecom"
664302;-60.93389;14.50278;"60° 56' 02.00'' Ouest, 14° 30' 10.00'' Nord";"97221";"QUARTIER GRAND FLEUR";"DESMARINIERES";"97215";"RIVIERE-SALEE";"Pylône autostable"; 25.0;"ORANGE"
665020;-60.95389;14.63333;"60° 57' 14.00'' Ouest, 14° 37' 60.00'' Nord";"97213";"ROCHES CARRÉES";"MORNE BALATA D.28";"97232";"LE LAMENTIN";"Immeuble"; 16.0;"Particulier"
665045;-61.07611;14.60667;"61° 04' 34.00'' Ouest, 14° 36' 24.00'' Nord";"97209";"MORNE TARTENSON";"R ST JOHN PERSE";"97200";"FORT-DE-FRANCE";"Pylône autostable"; 22.0;"ORANGE"
665631;-61.05472;14.59917;"61° 03' 17.00'' Ouest, 14° 35' 57.00'' Nord";"97209";"VOLGA PLAGE";"56 R DE LA VALMENIÈRE";"97200";"FORT-DE-FRANCE";"Bâtiment"; 10.0;"Particulier"
665801;-60.90222;14.61611;"60° 54' 08.00'' Ouest, 14° 36' 58.00'' Nord";"97210";;"71 R FLORENT HOLO";"97240";"LE FRANCOIS";"Pylône autostable"; 25.0;"ORANGE Services Fixes"
665889;-61.06694;14.60417;"61° 04' 01.00'' Ouest, 14° 36' 15.00'' Nord";"97209";;"50 AV DES CARAIBES";"97200";"FORT-DE-FRANCE";"Immeuble"; 21.0;"Société Privée SA"
665895;-61.04028;14.62444;"61° 02' 25.00'' Ouest, 14° 37' 28.00'' Nord";"97209";"CHÂTEAUBOEUF";"R DU CHÂTEAU D'EAU PRÈS DU RÉSERVOIR D'EAU";"97200";"FORT-DE-FRANCE";"Pylône autostable"; 20.0;"ORANGE"
665901;-61.07139;14.61361;"61° 04' 17.00'' Ouest, 14° 36' 49.00'' Nord";"97209";"TRENELLE";"R DU 22 MAI 1848 BÂT. C";"97200";"FORT-DE-FRANCE";"Immeuble"; 24.0;"Société HLM"
665912;-60.99194;14.77806;"60° 59' 31.00'' Ouest, 14° 46' 41.00'' Nord";"97228";"HABITATION LASALLE";"R DES KAÏDONS PRÈS DU RÉSERVOIR";"97230";"SAINTE-MARIE";"Pylône autostable"; 20.0;"ORANGE"
666059;-60.96444;14.54806;"60° 57' 52.00'' Ouest, 14° 32' 53.00'' Nord";"97221";"PETIT BOURG";"R JOSEPH ZOBEL LOT LES ALIZÉS";"97215";"RIVIERE-SALEE";"Pylône autostable"; 36.0;"ORANGE Services Fixes"
666399;-61.06972;14.62778;"61° 04' 11.00'' Ouest, 14° 37' 40.00'' Nord";"97209";"FLOREAL";"MARIE BERGE BRILLANT";"97200";"FORT-DE-FRANCE";"Mât béton"; 16.0;"Outremer Telecom"
666403;-61.06556;14.61222;"61° 03' 56.00'' Ouest, 14° 36' 44.00'' Nord";"97209";;"120 BD PASTEUR";"97200";"FORT-DE-FRANCE";"Mât béton"; 16.0;"Outremer Telecom"
666414;-61.17667;14.74778;"61° 10' 36.00'' Ouest, 14° 44' 52.00'' Nord";"97225";;"R DE LA PRISON QUARTIER DU CENTRE";"97250";"SAINT-PIERRE";"Pylône autostable"; 30.0;"ORANGE Services Fixes"
666443;-61.07222;14.63917;"61° 04' 20.00'' Ouest, 14° 38' 21.00'' Nord";"97209";"TIVOLI";"3KM500 ROUTE DE BALATA";"97200";"FORT-DE-FRANCE";"Pylône autostable"; 25.0;"Outremer Telecom"
666499;-60.94111;14.47389;"60° 56' 28.00'' Ouest, 14° 28' 26.00'' Nord";"97227";"CORPS DE GARDE";"RTE DE CORPS DE GARDE";"97228";"SAINTE-LUCE";"Pylône autostable"; 32.0;"ORANGE"
666519;-61.07083;14.61000;"61° 04' 15.00'' Ouest, 14° 36' 36.00'' Nord";"97209";"TERRES SAINVILLE";"36 R EMILE ZOLA R JULES MONNEROT";"97200";"FORT-DE-FRANCE";"Immeuble"; 17.0;"Particulier"
666570;-60.97889;14.52194;"60° 58' 44.00'' Ouest, 14° 31' 19.00'' Nord";"97221";"LA LAUGIER";"PRÈS RÉSERVOIR";"97215";"RIVIERE-SALEE";"Pylône autostable"; 20.0;"ORANGE"
666667;-61.08944;14.61333;"61° 05' 22.00'' Ouest, 14° 36' 48.00'' Nord";"97229";"PLATEAU FOFO";"14 AV EMILE MAURICE 1 R RAPHAËL FELICITE";"97233";"SCHOELCHER";"Bâtiment"; 10.0;"Particulier"
666669;-61.06972;14.63528;"61° 04' 11.00'' Ouest, 14° 38' 07.00'' Nord";"97209";"RAVINE BLANCHE";"24 CHEM DE LA FONTANE";"97200";"FORT-DE-FRANCE";"Bâtiment"; 9.0;"Particulier"
666914;-61.05833;14.62583;"61° 03' 30.00'' Ouest, 14° 37' 33.00'' Nord";"97209";"LUNETTE BOUILLE";"49, R DES AVENTS";"97200";"FORT-DE-FRANCE";"Pylône autostable"; 22.0;"ORANGE"
667135;-61.06917;14.60583;"61° 04' 09.00'' Ouest, 14° 36' 21.00'' Nord";"97209";;"98 R VICTOR SÉVÈRE";"97200";"FORT-DE-FRANCE";"Bâtiment"; 20.0;"Particulier"
667197;-61.05222;14.61139;"61° 03' 08.00'' Ouest, 14° 36' 41.00'' Nord";"97209";;"8 R ST-CHRISTOPHE IMM KERLYS";"97200";"FORT-DE-FRANCE";"Immeuble"; 17.0;"Société Privée SA"
667222;-60.90111;14.48889;"60° 54' 04.00'' Ouest, 14° 29' 20.00'' Nord";"97220";"PETIT COTON";"CHEM RURAL CAMPAGNE RIVIERE PILOTE";"97211";"RIVIERE-PILOTE";"Pylône autostable"; 20.0;"ORANGE"
668388;-60.95194;14.50972;"60° 57' 07.00'' Ouest, 14° 30' 35.00'' Nord";"97221";"COURBARYL LOUISY";"ROUTE DE RIVIÈRE PILOTE D8 DESMARINIERES";"97215";"RIVIERE-SALEE";"Pylône autostable"; 30.0;"ORANGE"
669269;-60.83667;14.55167;"60° 50' 12.00'' Ouest, 14° 33' 06.00'' Nord";"97232";"CHÂTEAU PAILLE";"CHEM PETITE GRENADE";"97280";"LE VAUCLIN";"Pylône autostable"; 30.0;"ORANGE"
670002;-61.04694;14.61722;"61° 02' 49.00'' Ouest, 14° 37' 02.00'' Nord";"97209";;"24 ROUTE DE CHATEAUBOEUF";"97200";"FORT-DE-FRANCE";"Pylône tubulaire"; 16.0;"ORANGE"
670680;-61.03222;14.63806;"61° 01' 56.00'' Ouest, 14° 38' 17.00'' Nord";"97213";"LA FAVORITE";"QUARTIER GONDEAU";"97232";"LE LAMENTIN";"Pylône autostable"; 30.0;"Outremer Telecom"
670698;-61.07139;14.60500;"61° 04' 17.00'' Ouest, 14° 36' 18.00'' Nord";"97209";;"53, R ANTOINE SIGER";"97200";"FORT-DE-FRANCE";"Immeuble"; 19.0;"Société Privée SA"
672009;-61.04833;14.62222;"61° 02' 54.00'' Ouest, 14° 37' 20.00'' Nord";"97209";"MONTGÉRALD";"AV LA VALLÉE / AV DU PARC MONTGÉRALD RÉSIDENCE LES VERSANTS DE MONTGÉRALD";"97200";"FORT-DE-FRANCE";"Immeuble"; 19.0;"Particulier"
672026;-61.06667;14.60694;"61° 04' 00.00'' Ouest, 14° 36' 25.00'' Nord";"97209";"LA FOLIE";"1 RTE DE LA FOLIE BD  DU GÉNÉRAL DE GAULLE";"97200";"FORT-DE-FRANCE";"Immeuble"; 18.0;"Particulier"
674827;-61.05583;14.62194;"61° 03' 21.00'' Ouest, 14° 37' 19.00'' Nord";"97209";"CORIDON";"70 AV CORIDON";"97200";"FORT-DE-FRANCE";"Mât béton"; 16.0;"Outremer Telecom"
675494;-61.13583;14.78028;"61° 08' 09.00'' Ouest, 14° 46' 49.00'' Nord";"97218";;"RTE DE SAVANE PETIT STADE MUNICIPAL";"97260";"LE MORNE-ROUGE";"Pylône tubulaire"; 22.0;"DIGICEL"
675495;-61.01583;14.63000;"61° 00' 57.00'' Ouest, 14° 37' 48.00'' Nord";"97213";"ACAJOU NORD - PAYS MELE";"D. 14";"97232";"LE LAMENTIN";"Pylône autostable"; 22.0;"ORANGE"
675542;-60.94222;14.68000;"60° 56' 32.00'' Ouest, 14° 40' 48.00'' Nord";"97222";"MANSARDE CATALOGNE";"PROCHE CARREFOUR D.1/N.1  DERRIÈRE BOURG";"97231";"LE ROBERT";"Pylône autostable"; 25.0;"ORANGE"
675550;-61.10250;14.62250;"61° 06' 09.00'' Ouest, 14° 37' 21.00'' Nord";"97229";"L'ENCLOS";"24 RTE DE L'ENCLOS";"97233";"SCHOELCHER";"Mât"; 16.0;"Particulier"
676310;-61.06778;14.61389;"61° 04' 04.00'' Ouest, 14° 36' 50.00'' Nord";"97209";"CLARAC";"HÔPITAL CLARAC PRÈS D52";"97200";"FORT-DE-FRANCE";"Bâtiment"; 25.0;"Etablissement de soins"
676436;-61.06417;14.60472;"61° 03' 51.00'' Ouest, 14° 36' 17.00'' Nord";"97209";;"PL STALINGRAD";"97234";"FORT-DE-FRANCE";"Bâtiment"; 12.0;"Société Privée SA"
677068;-61.01778;14.48056;"61° 01' 04.00'' Ouest, 14° 28' 50.00'' Nord";"97206";"GRANDE ANSE DU DIAMANT";"STATION D'ÉPURATION PRÈS D7";"97223";"LE DIAMANT";"Pylône tubulaire"; 16.0;"ORANGE"
678134;-61.05222;14.61889;"61° 03' 08.00'' Ouest, 14° 37' 08.00'' Nord";"97209";;"28 R FLÛTE DES MORNES ZONE ARTISANALE DE DILLON STE MADIA AUTO CENTER";"97200";"FORT-DE-FRANCE";"Bâtiment"; 12.0;"Particulier"
678367;-61.02278;14.63556;"61° 01' 22.00'' Ouest, 14° 38' 08.00'' Nord";"97213";"PALMISTE";"RÉSIDENCE GUIMAUVE BÂT. F";"97232";"LE LAMENTIN";"Immeuble"; 32.0;"Société HLM"
678476;-61.11833;14.82278;"61° 07' 06.00'' Ouest, 14° 49' 22.00'' Nord";"97201";"ABANDONNÉ";"VOIE COMMUNALE D'ABANDONNÉ QUARTIER RACINE";"97216";"L'AJOUPA-BOUILLON";"Pylône autostable"; 44.7;"ORANGE Services Fixes"
680302;-61.05861;14.73667;"61° 03' 31.00'' Ouest, 14° 44' 12.00'' Nord";"97216";"MORNE BELLEVUE";"CH PRÈS D.1";"97225";"LE MARIGOT";"Pylône autostable"; 35.0;"ORANGE Services Fixes"
680325;-61.02889;14.48278;"61° 01' 44.00'' Ouest, 14° 28' 58.00'' Nord";"97206";;"HAUT MORNE RÉSERVOIR DIZAC D7";"97223";"LE DIAMANT";"Mât béton"; 12.0;"DIGICEL"
680715;-60.97194;14.55556;"60° 58' 19.00'' Ouest, 14° 33' 20.00'' Nord";"97207";"GÉNIPA";"R.N. 5 LOT GÉNIPA";"97224";"DUCOS";"Pylône autostable"; 30.0;"ORANGE"
680727;-61.08694;14.61611;"61° 05' 13.00'' Ouest, 14° 36' 58.00'' Nord";"97229";;"R VINCENT PLACOLY";"97233";"SCHOELCHER";"Bâtiment"; 13.0;"Copropriété, Syndic, SCI"
681615;-61.12111;14.82111;"61° 07' 16.00'' Ouest, 14° 49' 16.00'' Nord";"97201";"ABANDONNÉ OUEST";"PRÈS RN3";"97216";"L'AJOUPA-BOUILLON";"Mât béton"; 12.0;"Société Privée SA"
681640;-60.88889;14.59389;"60° 53' 20.00'' Ouest, 14° 35' 38.00'' Nord";"97210";"BOIS SOLDAT";"C/O PACQUIT";"97240";"LE FRANCOIS";"Pylône tubulaire"; 25.0;"DIGICEL"
682555;-61.05306;14.61583;"61° 03' 11.00'' Ouest, 14° 36' 57.00'' Nord";"97209";"CITÉ CALEBASSE";"MORNE CALEBASSE";"97200";"FORT-DE-FRANCE";"Immeuble"; 25.0;"Société HLM"
683202;-60.86972;14.47722;"60° 52' 11.00'' Ouest, 14° 28' 38.00'' Nord";"97217";;"HABITATION GRAND FONDS";"97290";"LE MARIN";"Pylône autostable"; 30.0;"DIGICEL"
683229;-60.98667;14.57722;"60° 59' 12.00'' Ouest, 14° 34' 38.00'' Nord";"97207";"PETITE COCOTTE";"ZI - PRÈS N.5";"97224";"DUCOS";"Pylône autostable"; 20.0;"ORANGE"
683238;-60.98972;14.61139;"60° 59' 23.00'' Ouest, 14° 36' 41.00'' Nord";"97213";"PL D'ARMES";"SUR LE TERRAIN DIJON ZI";"97232";"LE LAMENTIN";"Pylône autostable"; 35.0;"Particulier"
683457;-60.97750;14.74444;"60° 58' 39.00'' Ouest, 14° 44' 40.00'' Nord";"97230";"QUARTIER MORNE POIRIER";"D. 25A";"97220";"LA TRINITE";"Pylône autostable"; 22.0;"ORANGE"
683674;-61.06694;14.81333;"61° 04' 01.00'' Ouest, 14° 48' 48.00'' Nord";"97214";"L'ETOILE";"CARABIN PRÈS RÉSERVOIR";"97214";"LE LORRAIN";"Pylône autostable"; 32.0;"ORANGE"
684050;-61.00833;14.60667;"61° 00' 30.00'' Ouest, 14° 36' 24.00'' Nord";"97213";;"ZI DE LA LÉZARDE VOIE N° 1";"97232";"LE LAMENTIN";"Pylône autostable"; 20.0;"ORANGE"
684062;-61.00278;14.59750;"61° 00' 10.00'' Ouest, 14° 35' 51.00'' Nord";"97213";"TROU MARINGOUINS";"AÉROPORT AIMÉ CÉSAIRE LE LAMENTIN ZONE DE FRET";"97232";"LE LAMENTIN";"Mât"; 23.0;"CCI,Ch Metiers,Port Aut,Aérop"
687654;-61.00611;14.80472;"61° 00' 22.00'' Ouest, 14° 48' 17.00'' Nord";"97228";"MORNE LACROIX";"PRÈS N1 QUARTIER HAMELIN";"97230";"SAINTE-MARIE";"Pylône autostable"; 20.0;"ORANGE"
689085;-61.06944;14.51444;"61° 04' 10.00'' Ouest, 14° 30' 52.00'' Nord";"97202";"MORNE BIGOT";;"97217";"LES ANSES-D'ARLET";"Pylône autostable"; 60.0;"ORANGE Services Fixes"
695206;-60.97889;14.52194;"60° 58' 44.00'' Ouest, 14° 31' 19.00'' Nord";"97221";;"LA LAUGIER RESERVOIR";"97215";"RIVIERE-SALEE";"Mât béton"; 16.0;"Outremer Telecom"
695216;-60.91583;14.53278;"60° 54' 57.00'' Ouest, 14° 31' 58.00'' Nord";"97220";"RÉGALE";"PRÈS RÉSERVOIR";"97211";"RIVIERE-PILOTE";"Pylône autostable"; 35.0;"Outremer Telecom"
695220;-60.89389;14.48750;"60° 53' 38.00'' Ouest, 14° 29' 15.00'' Nord";"97220";;"QUARTIER MARIANNE SAINTONGE";"97211";"RIVIERE-PILOTE";"Mât béton"; 16.0;"Outremer Telecom"
695247;-61.05222;14.60417;"61° 03' 08.00'' Ouest, 14° 36' 15.00'' Nord";"97209";;"12 R DE LA TANNERIE SCI CADIGAN TSF";"97200";"FORT-DE-FRANCE";"Mât béton"; 16.0;"Outremer Telecom"
695274;-61.07833;14.62306;"61° 04' 42.00'' Ouest, 14° 37' 23.00'' Nord";"97209";;"80 R PR RAYMOND GARCIN";"97200";"FORT-DE-FRANCE";"Mât béton"; 16.0;"Outremer Telecom"
695282;-60.96083;14.73389;"60° 57' 39.00'' Ouest, 14° 44' 02.00'' Nord";"97230";;"QUARTIER FLEUR D'EPEE";"97220";"LA TRINITE";"Mât béton"; 16.0;"Outremer Telecom"
695295;-60.98472;14.51028;"60° 59' 05.00'' Ouest, 14° 30' 37.00'' Nord";"97221";;"QUARTIER MEDECIN";"97215";"RIVIERE-SALEE";"Mât béton"; 16.0;"Outremer Telecom"
695309;-60.97833;14.74611;"60° 58' 42.00'' Ouest, 14° 44' 46.00'' Nord";"97230";"MORNE CONGO";"43 ROUTE DE MORNE POIRIER";"97220";"LA TRINITE";"Mât béton"; 16.0;"Outremer Telecom"
695310;-61.06889;14.60306;"61° 04' 08.00'' Ouest, 14° 36' 11.00'' Nord";"97209";"HOTEL L'IMPERATRICE";"15 R DE LA LIBERTÉ";"97200";"FORT-DE-FRANCE";"Bâtiment"; 28.0;"Société Privée SA"
695332;-61.12361;14.63806;"61° 07' 25.00'' Ouest, 14° 38' 17.00'' Nord";"97205";"FOND BOURLET";"LOT CARAÏBES";"97222";"CASE-PILOTE";"Mât béton"; 16.0;"Outremer Telecom"
695340;-61.13472;14.63861;"61° 08' 05.00'' Ouest, 14° 38' 19.00'' Nord";"97205";"QUARTIER CHOISEUL";;"97222";"CASE-PILOTE";"Mât béton"; 16.0;"Outremer Telecom"
695572;-60.87028;14.45500;"60° 52' 13.00'' Ouest, 14° 27' 18.00'' Nord";"97226";"POINTE CAILLOUX";"QUARTIER BARETO";"97227";"SAINTE-ANNE";"Mât béton"; 16.0;"Outremer Telecom"
695576;-61.02806;14.48306;"61° 01' 41.00'' Ouest, 14° 28' 59.00'' Nord";"97206";"STE CATHERIEN";"QUARTIER PETITS LÉZARDS";"97223";"LE DIAMANT";"Mât béton"; 16.0;"Outremer Telecom"
695590;-61.03333;14.53222;"61° 01' 60.00'' Ouest, 14° 31' 56.00'' Nord";"97231";;"QUARTIER VATABLE";"97229";"LES TROIS-ILETS";"Mât béton"; 16.0;"Outremer Telecom"
695669;-61.00222;14.59833;"61° 00' 08.00'' Ouest, 14° 35' 54.00'' Nord";"97213";;"CCI ZONE AÉROPORTUAIRE";"97232";"LE LAMENTIN";"Pylône autostable"; 25.0;"Outremer Telecom"
695717;-60.93917;14.70028;"60° 56' 21.00'' Ouest, 14° 42' 01.00'' Nord";"97230";;"L'ESTRADE CR DE LAZARET CHEMIN DOUDOU";"97220";"LA TRINITE";"Pylône autostable"; 30.0;"Outremer Telecom"
695745;-60.96556;14.57472;"60° 57' 56.00'' Ouest, 14° 34' 29.00'' Nord";"97207";"QUARTIER LOURDES";"AV JEAN JAURES";"97224";"DUCOS";"Mât béton"; 16.0;"Outremer Telecom"
695761;-60.98444;14.57028;"60° 59' 04.00'' Ouest, 14° 34' 13.00'' Nord";"97207";"LA COCOTTE";"LOT N°13";"97224";"DUCOS";"Mât béton"; 16.0;"Outremer Telecom"
695771;-60.93528;14.46778;"60° 56' 07.00'' Ouest, 14° 28' 04.00'' Nord";"97227";;"STATION D'ÉPURATION PRES N5";"97228";"SAINTE-LUCE";"Pylône autostable"; 30.0;"Outremer Telecom"
695808;-60.96222;14.67028;"60° 57' 44.00'' Ouest, 14° 40' 13.00'' Nord";"97222";;"QUARTIER MOULINS À EAUX VC DE LA HAUT";"97231";"LE ROBERT";"Pylône autostable"; 25.0;"Outremer Telecom"
695812;-60.94778;14.65167;"60° 56' 52.00'' Ouest, 14° 39' 06.00'' Nord";"97222";;"QUARTIER DUCHENES CR DE HUBERT";"97231";"LE ROBERT";"Mât béton"; 16.0;"Outremer Telecom"
695997;-61.01111;14.65278;"61° 00' 40.00'' Ouest, 14° 39' 10.00'' Nord";"97213";;"BELEME  1 D 15";"97232";"LE LAMENTIN";"Mât béton"; 16.0;"Outremer Telecom"
696001;-61.01528;14.62583;"61° 00' 55.00'' Ouest, 14° 37' 33.00'' Nord";"97213";"ACAJOU";"RES DES HAUTS LOT LES HORIZONS";"97232";"LE LAMENTIN";"Immeuble"; 23.0;"Copropriété, Syndic, SCI"
696005;-61.00167;14.61583;"61° 00' 06.00'' Ouest, 14° 36' 57.00'' Nord";"97213";;"44 R ERNEST ANDRE";"97232";"LE LAMENTIN";"Immeuble"; 18.0;"Copropriété, Syndic, SCI"
696009;-60.97944;14.62639;"60° 58' 46.00'' Ouest, 14° 37' 35.00'' Nord";"97213";"BOIS THIBAULT";"QUARTIER UNION PRES BRASSERIE LORRAINE";"97232";"LE LAMENTIN";"Pylône autostable"; 35.0;"Outremer Telecom"
696016;-60.94833;14.61861;"60° 56' 54.00'' Ouest, 14° 37' 07.00'' Nord";"97213";;"QUARTIER MORNES PITAULT";"97232";"LE LAMENTIN";"Pylône autostable"; 25.0;"Outremer Telecom"
696368;-60.85583;14.58361;"60° 51' 21.00'' Ouest, 14° 35' 01.00'' Nord";"97210";"LA PLAINE";"VELOCY LA PRAIRIE";"97240";"LE FRANCOIS";"Mât béton"; 16.0;"Outremer Telecom"
696373;-60.90389;14.61472;"60° 54' 14.00'' Ouest, 14° 36' 53.00'' Nord";"97210";;"10 R HOMERE CLEMENT IMM. LUCCIN";"97240";"LE FRANCOIS";"Immeuble"; 18.0;"Particulier"
696406;-61.09278;14.61028;"61° 05' 34.00'' Ouest, 14° 36' 37.00'' Nord";"97229";"CITE OZANAM";"QUARTIER BATELIERE";"97233";"SCHOELCHER";"Immeuble"; 38.5;"Société HLM"
696425;-61.08694;14.61611;"61° 05' 13.00'' Ouest, 14° 36' 58.00'' Nord";"97229";"PLATEAU FOFO";"R LORSOLD";"97233";"SCHOELCHER";"Bâtiment"; 14.0;"Outremer Telecom"
696445;-61.10528;14.63167;"61° 06' 19.00'' Ouest, 14° 37' 54.00'' Nord";"97229";"FOND ROUSSEAU";"QUARTIER TERREVILLE PRÈS RESERVOIR";"97233";"SCHOELCHER";"Mât béton"; 16.0;"Outremer Telecom"
696467;-60.84750;14.51250;"60° 50' 51.00'' Ouest, 14° 30' 45.00'' Nord";"97232";"MORNE CARRIÈRE";;"97280";"LE VAUCLIN";"Mât béton"; 16.0;"Outremer Telecom"
696490;-60.84306;14.54028;"60° 50' 35.00'' Ouest, 14° 32' 25.00'' Nord";"97232";;"QUARTIER SIGY PRÈS RESERVOIR";"97280";"LE VAUCLIN";"Mât béton"; 16.0;"Outremer Telecom"
701589;-61.04444;14.59833;"61° 02' 40.00'' Ouest, 14° 35' 54.00'' Nord";"97209";"POINTE DES GRIVES";"CTRE FT DE LA POINTE DES GRIVES";"97200";"FORT-DE-FRANCE";"Pylône autostable"; 32.0;"ORANGE Services Fixes"
707043;-60.99806;14.61389;"60° 59' 53.00'' Ouest, 14° 36' 50.00'' Nord";"97213";"RÉSERVOIR PETIT MANOIR";"COLLÈGE DU PETIT MANOIR";"97232";"LE LAMENTIN";"Château d'eau - réservoir"; 45.0;"Société Privée SA"
709727;-60.85194;14.49417;"60° 51' 07.00'' Ouest, 14° 29' 39.00'' Nord";"97217";"MORNE VENT";;"97290";"LE MARIN";"Pylône autostable"; 6.0;"Titulaire programme Radio/TV"
709841;-61.06528;14.52500;"61° 03' 55.00'' Ouest, 14° 31' 30.00'' Nord";"97231";;"MORNE BIGOT LA PLAINE DES TROIS ILETS";"97229";"LES TROIS-ILETS";"Pylône autostable"; 15.0;"Société Privée SA"
711583;-60.95306;14.62500;"60° 57' 11.00'' Ouest, 14° 37' 30.00'' Nord";"97213";;"MORNE PAVILLON MORNE PAVILLON";"97232";"LE LAMENTIN";"Bâtiment"; 12.0;"9 CEGETEL"
716324;-61.14167;14.70778;"61° 08' 30.00'' Ouest, 14° 42' 28.00'' Nord";"97233";"RD 19";"BOIS LÉZARD PROCHE CIMETIÈRE";"97226";"LE MORNE-VERT";"Mât béton"; 15.0;"Conseil Régional"
716847;-60.84000;14.54528;"60° 50' 24.00'' Ouest, 14° 32' 43.00'' Nord";"97232";"LE BOURG";"R DE LA RÉPUBLIQUE";"97280";"LE VAUCLIN";"Mât béton"; 15.0;"Conseil Régional"
716853;-61.05167;14.55444;"61° 03' 06.00'' Ouest, 14° 33' 16.00'' Nord";"97231";"POINTE DU BOUT";"R DES BOUGAINVILLIERS PARKING COMMUNAL";"97229";"LES TROIS-ILETS";"Mât béton"; 15.0;"Conseil Régional"
716865;-61.04556;14.53722;"61° 02' 44.00'' Ouest, 14° 32' 14.00'' Nord";"97231";"ROUTE DE LA PAGERIE";"STATION DE POMPAGE";"97229";"LES TROIS-ILETS";"Mât béton"; 15.0;"Conseil Régional"
716871;-60.87861;14.53667;"60° 52' 43.00'' Ouest, 14° 32' 12.00'' Nord";"97232";"MORNE RAQUETTES";;"97280";"LE VAUCLIN";"Mât béton"; 15.0;"Conseil Régional"
720606;-61.09417;14.61917;"61° 05' 39.00'' Ouest, 14° 37' 09.00'' Nord";"97229";"UNIVERSITÉ ANTILLES GUYANE";"D.44 QUARTIER RAVINE TOUZA BIBLIOTHÈQUE UNIVERSITAIRE";"97233";"SCHOELCHER";"Bâtiment"; 30.0;"Etat, Ministère"
730358;-61.03500;14.61528;"61° 02' 06.00'' Ouest, 14° 36' 55.00'' Nord";"97213";;"ZI DE LA JAMBETTE POP";"97232";"LE LAMENTIN";"Bâtiment"; 15.0;"Société Privée SA"
735970;-60.91250;14.63500;"60° 54' 45.00'' Ouest, 14° 38' 06.00'' Nord";"97210";;"QUARTIER MORNE COURBARIL";"97240";"LE FRANCOIS";"Mât béton"; 16.0;"Outremer Telecom"
758730;-60.84722;14.51250;"60° 50' 50.00'' Ouest, 14° 30' 45.00'' Nord";"97232";"MORNE CARRIÈRE";"ROUTE COMMUNALE";"97280";"LE VAUCLIN";"Pylône autostable"; 20.0;"ORANGE"
759542;-61.07444;14.47778;"61° 04' 28.00'' Ouest, 14° 28' 40.00'' Nord";"97202";"MORNE LA CAPOTE";"QUARTIER BAS MORNE N 37";"97217";"LES ANSES-D'ARLET";"Pylône autostable"; 35.0;"ORANGE"
759640;-61.08694;14.66333;"61° 05' 13.00'' Ouest, 14° 39' 48.00'' Nord";"97209";"CAMP DE BALATA-TOURTET";"RTE DE BALATA - N.3 R DES CHATAIGNIERS";"97200";"FORT-DE-FRANCE";"Bâtiment"; 14.4;"Particulier"
762216;-61.17889;14.87278;"61° 10' 44.00'' Ouest, 14° 52' 22.00'' Nord";"97231";"LE BOURG/LA POSTE";"R DES P ET T";"97229";"LES TROIS-ILETS";"Mât métallique"; 6.0;"MEDIASERV"
767392;-61.07250;14.60417;"61° 04' 21.00'' Ouest, 14° 36' 15.00'' Nord";"97209";;"42-44 R GARNIER PAGÉS IMM MONPLAISIR";"97200";"FORT-DE-FRANCE";"Immeuble"; 33.5;"Société Privée SA"
772086;-61.11167;14.63361;"61° 06' 42.00'' Ouest, 14° 38' 01.00'' Nord";"97229";"FOND LAHAYE";"SCHOELCHER";"97233";"SCHOELCHER";"Pylône autostable"; 19.0;"TDF"
774868;-61.05750;14.65389;"61° 03' 27.00'' Ouest, 14° 39' 14.00'' Nord";"97224";"FOND DESTREILLES";"CHEM LOT VALLÉE HEUREUSE VILLA EMILIE";"97212";"SAINT-JOSEPH";"Pylône tubulaire"; 18.0;"ORANGE"
777652;-61.13917;14.64500;"61° 08' 21.00'' Ouest, 14° 38' 42.00'' Nord";"97205";;"ECOLE LA BATTERIE";"97222";"CASE-PILOTE";"Pylône haubané"; 16.5;"TDF"
777662;-61.22500;14.80250;"61° 13' 30.00'' Ouest, 14° 48' 09.00'' Nord";"97219";"COQUETTE";"RD10 DE ST PIERRE À BASSE POINTE";"97250";"LE PRECHEUR";"Pylône autostable"; 18.0;"TDF"
777666;-61.06028;14.67528;"61° 03' 37.00'' Ouest, 14° 40' 31.00'' Nord";"97224";"BOIS DU PARC";"ST JOSEPH";"97212";"SAINT-JOSEPH";"Pylône autostable"; 21.0;"TDF"
778905;-60.95750;14.48222;"60° 57' 27.00'' Ouest, 14° 28' 56.00'' Nord";"97227";;"QUARTIER BERNARD";"97228";"SAINTE-LUCE";"Pylône autostable"; 32.9;"DIGICEL"
778942;-60.94806;14.73833;"60° 56' 53.00'' Ouest, 14° 44' 18.00'' Nord";"97230";;"CHEM DU CHATEAU D'EAU POINTE MARCUSSY";"97220";"LA TRINITE";"Pylône autostable"; 15.0;"DIGICEL"
781584;-60.99194;14.78056;"60° 59' 31.00'' Ouest, 14° 46' 50.00'' Nord";"97228";;"18 R DES ARAWAKS";"97230";"SAINTE-MARIE";"Bâtiment"; 5.0;"Société Privée SA"
782430;-61.05056;14.82778;"61° 03' 02.00'' Ouest, 14° 49' 40.00'' Nord";"97214";;"LE VALLON";"97214";"LE LORRAIN";"Pylône autostable"; 25.0;"DIGICEL"
782440;-61.05833;14.61472;"61° 03' 30.00'' Ouest, 14° 36' 53.00'' Nord";"97209";;"126 ROUTE DES RELIGIEUSES IMM DPA";"97200";"FORT-DE-FRANCE";"Bâtiment"; 10.0;"Copropriété, Syndic, SCI"
782444;-60.93528;14.46917;"60° 56' 07.00'' Ouest, 14° 28' 09.00'' Nord";"97227";"R DE SFRANGIPANIERS";"RÉSIDENCE PAVILLON BAT 3 RN 5";"97228";"SAINTE-LUCE";"Immeuble"; 15.0;"Copropriété, Syndic, SCI"
784715;-61.12250;14.86833;"61° 07' 21.00'' Ouest, 14° 52' 06.00'' Nord";"97203";;"R DU DR MORESTIN";"97218";"BASSE-POINTE";"Mât béton"; 12.0;"MEDIASERV"
784731;-61.04861;14.83222;"61° 02' 55.00'' Ouest, 14° 49' 56.00'' Nord";"97214";;"RN1 GROSSOL";"97214";"LE LORRAIN";"Mât béton"; 12.0;"MEDIASERV"
784734;-60.97861;14.69694;"60° 58' 43.00'' Ouest, 14° 41' 49.00'' Nord";"97212";"MORNE VERT PRÉ";;"97213";"GROS-MORNE";"Mât béton"; 4.0;"MEDIASERV"
790295;-60.84722;14.51250;"60° 50' 50.00'' Ouest, 14° 30' 45.00'' Nord";"97232";;"MORNE CARRIÈRE";"97280";"LE VAUCLIN";"Pylône autostable"; 27.0;"DIGICEL"
790303;-60.86944;14.53417;"60° 52' 10.00'' Ouest, 14° 32' 03.00'' Nord";"97232";"BEAUSÉJOUR";"D32";"97280";"LE VAUCLIN";"Pylône autostable"; 27.0;"DIGICEL"
793528;-61.02583;14.62750;"61° 01' 33.00'' Ouest, 14° 37' 39.00'' Nord";"97213";;"ACAJOU - RÉSIDENCE LES ARCADES - BASSE GONDEAU";"97232";"LE LAMENTIN";"Immeuble"; 26.0;"Copropriété, Syndic, SCI"
794306;-60.87861;14.60083;"60° 52' 43.00'' Ouest, 14° 36' 03.00'' Nord";"97210";"DARTAULT";"DOSTALY EST";"97240";"LE FRANCOIS";"Pylône autostable"; 25.0;"ORANGE"
795181;-61.17028;14.74278;"61° 10' 13.00'' Ouest, 14° 44' 34.00'' Nord";"97225";;"MORNE DES CADETS";"97250";"SAINT-PIERRE";"Pylône autostable"; 25.0;"DIGICEL"
795187;-61.03056;14.81583;"61° 01' 50.00'' Ouest, 14° 48' 57.00'' Nord";"97216";;"DUHAMELIN";"97225";"LE MARIGOT";"Pylône autostable"; 25.0;"DIGICEL"
795193;-61.08667;14.60528;"61° 05' 12.00'' Ouest, 14° 36' 19.00'' Nord";"97209";"BD DE LA MARNE";"POINTE DES NÈGRES IMM PANORAMA";"97200";"FORT-DE-FRANCE";"Immeuble"; 55.0;"Copropriété, Syndic, SCI"
796223;-60.84250;14.44722;"60° 50' 33.00'' Ouest, 14° 26' 50.00'' Nord";"97226";;"CAP CHEVALIER";"97227";"SAINTE-ANNE";"Pylône autostable"; 11.0;"DIGICEL"
796768;-61.13472;14.63806;"61° 08' 05.00'' Ouest, 14° 38' 17.00'' Nord";"97205";"CHOISEUL";;"97222";"CASE-PILOTE";"Pylône autostable"; 20.0;"DIGICEL"
798526;-60.84250;14.44722;"60° 50' 33.00'' Ouest, 14° 26' 50.00'' Nord";"97226";"CAP CHEVALIER";"HABITATION BIRON";"97227";"SAINTE-ANNE";"Pylône autostable"; 15.0;"ORANGE"
798571;-60.98278;14.76833;"60° 58' 58.00'' Ouest, 14° 46' 06.00'' Nord";"97228";"PETITE RIVIÈRE SALÉE";"R.N.1 - CHEM RURAL HABITATION ANSE AZEROT EST";"97230";"SAINTE-MARIE";"Bâtiment"; 12.0;"Particulier"
798889;-61.10417;14.63000;"61° 06' 15.00'' Ouest, 14° 37' 48.00'' Nord";"97229";"TERREVILLE";"RÉSIDENCE MARYLAND";"97233";"SCHOELCHER";"Bâtiment"; 22.0;"DIGICEL"
798970;-61.01306;14.61444;"61° 00' 47.00'' Ouest, 14° 36' 52.00'' Nord";"97213";;"ZI LES MANGLES";"97232";"LE LAMENTIN";"Pylône autostable"; 27.0;"DIGICEL"
805987;-61.12083;14.86778;"61° 07' 15.00'' Ouest, 14° 52' 04.00'' Nord";"97203";"HACKAERT";"R DES PALMIERS";"97218";"BASSE-POINTE";"Pylône autostable"; 27.0;"DIGICEL"
822055;-61.00528;14.63000;"61° 00' 19.00'' Ouest, 14° 37' 48.00'' Nord";"97213";;"QUARTIER LONG PRÉ CROISÉE JEANNE D'ARC";"97232";"LE LAMENTIN";"pylône arbre"; 32.0;"Commune, communauté de commune"
825540;-61.08333;14.60861;"61° 05' 00.00'' Ouest, 14° 36' 31.00'' Nord";"97209";"BELLEVUE";"105, RTE DE SCHOELCHER";"97200";"FORT-DE-FRANCE";"Bâtiment"; 18.0;"Particulier"
826346;-60.98889;14.62972;"60° 59' 20.00'' Ouest, 14° 37' 47.00'' Nord";"97213";;"MANGO VULCIN";"97210";"LE LAMENTIN";"Immeuble"; 15.0;"Etablissement de soins"
829663;-61.02028;14.61917;"61° 01' 13.00'' Ouest, 14° 37' 09.00'' Nord";"97213";"LA GALLÉRIA";"CCAL LA GALLÉRIA";"97232";"LE LAMENTIN";"Bâtiment"; 10.5;"Société Privée SA"
831489;-60.99917;14.61528;"60° 59' 57.00'' Ouest, 14° 36' 55.00'' Nord";"97213";;"BD FERNAND GUILLON";"97232";"LE LAMENTIN";"Bâtiment"; 15.0;"Société Privée SA"
831491;-60.99111;14.63194;"60° 59' 28.00'' Ouest, 14° 37' 55.00'' Nord";"97213";"BOIS CARRÈ";"MANGOT VULCIN  ZONE 7 ÉTAGE 3";"97232";"LE LAMENTIN";"Bâtiment"; 25.0;"Société Privée SA"
831493;-60.99889;14.61500;"60° 59' 56.00'' Ouest, 14° 36' 54.00'' Nord";"97213";;"BD FERNAND GUILLON  LOCAL";"97232";"LE LAMENTIN";"Bâtiment"; 15.0;"Société Privée SA"
831495;-60.99083;14.63167;"60° 59' 27.00'' Ouest, 14° 37' 54.00'' Nord";"97213";;"MANGOT VULCIN  ZONE 19 ÉTAGE 2";"97232";"LE LAMENTIN";"Bâtiment"; 18.0;"Société Privée SA"
836330;-60.97944;14.69778;"60° 58' 46.00'' Ouest, 14° 41' 52.00'' Nord";"97212";"MORNE VERT PRÉ";;"97213";"GROS-MORNE";"Pylône autostable"; 55.0;"ORANGE Services Fixes"
848266;-60.86972;14.58583;"60° 52' 11.00'' Ouest, 14° 35' 09.00'' Nord";"97210";;"PONT DE PALMISTES EXPLOITATION AGRICOLE DU SUD EST MORNE COURBARIL";"97240";"LE FRANCOIS";"Mât béton"; 12.0;"Outremer Telecom"
849800;-61.13583;14.78028;"61° 08' 09.00'' Ouest, 14° 46' 49.00'' Nord";"97218";"MORNE ROUGE";"LE BOURG SCI SOMA4 R SCHOELCHER";"97260";"LE MORNE-ROUGE";"Mât béton"; 12.0;"MEDIASERV"
850306;-61.01750;14.74556;"61° 01' 03.00'' Ouest, 14° 44' 44.00'' Nord";"97228";"MORNE DES ESSES";"ANGLE R CALVAIRE ET AV JEAN JAURÈS QUARTIER MORNE DES ESSES";"97230";"SAINTE-MARIE";"Bâtiment"; 6.0;"MEDIASERV"
851825;-61.07361;14.48417;"61° 04' 25.00'' Ouest, 14° 29' 03.00'' Nord";"97202";"BAS MORNE";;"97217";"LES ANSES-D'ARLET";"Mât métallique"; 6.0;"Société Privée SA"
851941;-61.02278;14.76167;"61° 01' 22.00'' Ouest, 14° 45' 42.00'' Nord";"97228";"BEZAUDIN PÉROU";"SITE FT LA CHAPELLE";"97230";"SAINTE-MARIE";"Pylône autostable"; 20.0;"ORANGE"
853302;-61.07917;14.49194;"61° 04' 45.00'' Ouest, 14° 29' 31.00'' Nord";"97202";;"R FELIX EBOUÉ PARC MUNICIPAL";"97217";"LES ANSES-D'ARLET";"Mât métallique"; 7.0;"Société Privée SA"
858222;-60.90167;14.49139;"60° 54' 06.00'' Ouest, 14° 29' 29.00'' Nord";"97220";;"MORNE ROCHE SUD";"97211";"RIVIERE-PILOTE";"Pylône autostable"; 11.0;"DIGICEL"
859911;-61.00722;14.48778;"61° 00' 26.00'' Ouest, 14° 29' 16.00'' Nord";"97206";;"MARE POIRIER";"97223";"LE DIAMANT";"Immeuble"; 10.5;"Copropriété, Syndic, SCI"
861140;-60.98667;14.57750;"60° 59' 12.00'' Ouest, 14° 34' 39.00'' Nord";"97207";;"ZI PETITE COCOTTE";"97224";"DUCOS";"Bâtiment"; 12.0;"Particulier"
861226;-61.06139;14.60583;"61° 03' 41.00'' Ouest, 14° 36' 21.00'' Nord";"97209";;"LES HAUTS DU PORT - BÂT. DUMONT";"97200";"FORT-DE-FRANCE";"Immeuble"; 20.0;"Copropriété, Syndic, SCI"
861236;-61.03944;14.63333;"61° 02' 22.00'' Ouest, 14° 37' 60.00'' Nord";"97209";"LA MEYNARD";;"97200";"FORT-DE-FRANCE";"Pylône autostable"; 28.4;"Commune, communauté de commune"
861905;-60.88222;14.57000;"60° 52' 56.00'' Ouest, 14° 34' 12.00'' Nord";"97232";;"QUARTIER HUMBERT";"97280";"LE VAUCLIN";"Pylône autostable"; 11.0;"DIGICEL"
863963;-60.99861;14.59667;"60° 59' 55.00'' Ouest, 14° 35' 48.00'' Nord";"97213";"AÉROPORT DE FORT-DE-FRANCE";;"97232";"LE LAMENTIN";"Pylône autostable"; 30.0;"BOUYGUES"
864648;-61.04806;14.61000;"61° 02' 53.00'' Ouest, 14° 36' 36.00'' Nord";"97209";;"R LÉON GONTRAND DAMAS BÂT N";"97200";"FORT-DE-FRANCE";"Immeuble"; 27.0;"Copropriété, Syndic, SCI"
867664;-61.11167;14.63333;"61° 06' 42.00'' Ouest, 14° 37' 60.00'' Nord";"97229";;"RTE DE LA DÉMARCHE - PYLÔNE EDF";"97233";"SCHOELCHER";"Pylône autostable"; 28.0;"EDF ou GDF"
879252;-61.07250;14.63917;"61° 04' 21.00'' Ouest, 14° 38' 21.00'' Nord";"97209";;"RÉSERVOIR ROUTE DE BALATA";"97200";"FORT-DE-FRANCE";"Pylône autostable"; 31.0;"DIGICEL"
887453;-61.06250;14.82194;"61° 03' 45.00'' Ouest, 14° 49' 19.00'' Nord";"97214";;"CTRE ADMINISTRATIF SOCIO-EDUCATIF DE MORNE CÉRON";"97214";"LE LORRAIN";"Pylône autostable"; 20.0;"Société Privée SA"
887890;-61.09722;14.61694;"61° 05' 50.00'' Ouest, 14° 37' 01.00'' Nord";"97229";;"LOT LES FLAMBOYANTS";"97233";"SCHOELCHER";"Bâtiment"; 16.5;"Particulier"
910639;-61.06972;14.60583;"61° 04' 11.00'' Ouest, 14° 36' 21.00'' Nord";"97209";;"R VICTOR SEVERE";"97200";"FORT-DE-FRANCE";"Immeuble"; 20.0;"Société Privée SA"
911083;-60.90528;14.48278;"60° 54' 19.00'' Ouest, 14° 28' 58.00'' Nord";"97220";;"QUARTIER POMPONNE";"97211";"RIVIERE-PILOTE";"Bâtiment"; 5.0;"Société Privée SA"
911406;-61.00139;14.60611;"61° 00' 05.00'' Ouest, 14° 36' 22.00'' Nord";"97213";"MANIYHY";"ZONE DE MANITHY";"97232";"LE LAMENTIN";"Immeuble"; 12.0;"Particulier"
912385;-61.07083;14.61083;"61° 04' 15.00'' Ouest, 14° 36' 39.00'' Nord";"97209";;"TERRES SAINVILLES";"97200";"FORT-DE-FRANCE";"Bâtiment"; 25.3;"Particulier"
912975;-61.00222;14.61639;"61° 00' 08.00'' Ouest, 14° 36' 59.00'' Nord";"97213";;"27 R ERNEST  ANDRÉ";"97232";"LE LAMENTIN";"Bâtiment"; 26.0;"Particulier"
914070;-60.89278;14.46944;"60° 53' 34.00'' Ouest, 14° 28' 10.00'' Nord";"97217";;"MORNE GOSIER";"97290";"LE MARIN";"Pylône autostable"; 15.0;"Société Privée SA"
914131;-61.07083;14.61000;"61° 04' 15.00'' Ouest, 14° 36' 36.00'' Nord";"97209";"TERRE SAINTVILLE";"AV JEAN JAURES";"97200";"FORT-DE-FRANCE";"Immeuble"; 27.0;"Particulier"
915141;-61.00694;14.48806;"61° 00' 25.00'' Ouest, 14° 29' 17.00'' Nord";"97206";"MARE POIRIER";"QUARTIER O'MULLAN";"97223";"LE DIAMANT";"Mât béton"; 16.0;"Outremer Telecom"
920905;-60.91417;14.69778;"60° 54' 51.00'' Ouest, 14° 41' 52.00'' Nord";"97222";;"18 MONTEE DES PALMIERS LOT POINTE SAVANE";"97231";"LE ROBERT";"Immeuble"; 13.0;"Particulier"
921293;-61.04306;14.60806;"61° 02' 35.00'' Ouest, 14° 36' 29.00'' Nord";"97209";;"45 MORNE DILLON";"97200";"FORT-DE-FRANCE";"Mât béton"; 14.0;"Outremer Telecom"
924651;-61.05528;14.63000;"61° 03' 19.00'' Ouest, 14° 37' 48.00'' Nord";"97209";;"217  ROUTE DE REDOUTE";"97200";"FORT-DE-FRANCE";"Immeuble"; 15.0;"Particulier"
925646;-61.03972;14.63306;"61° 02' 23.00'' Ouest, 14° 37' 59.00'' Nord";"97209";"LA MEYNARD";"ROUTE DE LA JAMBETTE";"97200";"FORT-DE-FRANCE";"Mât béton"; 16.0;"Outremer Telecom"
926727;-61.05139;14.82611;"61° 03' 05.00'' Ouest, 14° 49' 34.00'' Nord";"97214";;"LE VALLON CHEM DE LA LANGE";"97214";"LE LORRAIN";"Pylône autostable"; 25.0;"Outremer Telecom"
927913;-60.94861;14.60083;"60° 56' 55.00'' Ouest, 14° 36' 03.00'' Nord";"97207";;"FOND SAVANE";"97224";"DUCOS";"Pylône autostable"; 25.0;"Outremer Telecom"
927981;-61.03944;14.53944;"61° 02' 22.00'' Ouest, 14° 32' 22.00'' Nord";"97231";"LA XAVIER";"LOT LES HAMEAUX DE L'ESPERANCE";"97229";"LES TROIS-ILETS";"Mât métallique"; 6.0;"Outremer Telecom"
928518;-61.00444;14.70972;"61° 00' 16.00'' Ouest, 14° 42' 35.00'' Nord";"97212";;"27 R VICTOR SCHOELCHER IMM NAZAIRE";"97213";"GROS-MORNE";"Immeuble"; 15.0;"Commune, communauté de commune"
934292;-61.14361;14.68833;"61° 08' 37.00'' Ouest, 14° 41' 18.00'' Nord";"97234";"VERRIER";"MORNE CAPOT";"97222";"BELLEFONTAINE";"Pylône autostable"; 21.0;"CROSS"
955676;-61.10778;14.62750;"61° 06' 28.00'' Ouest, 14° 37' 39.00'' Nord";"97229";"ANSE MADAME";"21 RUE ETIENNE SICOT ANSE MADAME";"97233";"SCHOELCHER";"Immeuble"; 16.0;"Particulier"
971012;-60.91222;14.75472;"60° 54' 44.00'' Ouest, 14° 45' 17.00'' Nord";"97230";;"MORNE PAVILLON";"97220";"LA TRINITE";"Pylône autostable"; 33.0;"Société Privée SA"
971344;-61.02278;14.71167;"61° 01' 22.00'' Ouest, 14° 42' 42.00'' Nord";"97212";"RIVIÈRE LÉZARDE";"CHEM FLAMBOYANTS";"97223";"GROS-MORNE";"Mât béton"; 16.0;"Outremer Telecom"
971747;-61.16028;14.70194;"61° 09' 37.00'' Ouest, 14° 42' 07.00'' Nord";"97204";"BEL EVENT";;"97226";"LE CARBET";"Pylône autostable"; 17.0;"Société Privée SA"
971751;-61.07889;14.60333;"61° 04' 44.00'' Ouest, 14° 36' 12.00'' Nord";"97209";;"2 BOULEVARD DE LA MARNE";"97200";"FORT-DE-FRANCE";"Mât métallique"; 7.0;"Société Privée SA"
986878;-60.90333;14.57750;"60° 54' 12.00'' Ouest, 14° 34' 39.00'' Nord";"97210";"MORNE ACAJOU";"PRÈS RÉSERVOIR";"97240";"LE FRANCOIS";"Pylône autostable"; 43.0;"Société Privée SA"
1050280;-61.06861;14.51556;"61° 04' 07.00'' Ouest, 14° 30' 56.00'' Nord";"97202";"MORNE BIGOT";;"97217";"LES ANSES-D'ARLET";"Pylône autostable"; 20.0;"Société Privée SA"
1056796;-61.04028;14.61694;"61° 02' 25.00'' Ouest, 14° 37' 01.00'' Nord";"97213";"VALMENIERE";"CENTRE D'AFFAIRE BAT C2";"97232";"LE LAMENTIN";"Immeuble"; 15.0;"Société Privée SA"
1056798;-61.00417;14.60611;"61° 00' 15.00'' Ouest, 14° 36' 22.00'' Nord";"97213";;"ZONE INDUSTRIELLE DE LA LÉZARDE ENTREPRISE MUSSARD";"97232";"LE LAMENTIN";"Immeuble"; 38.0;"Société Privée SA"
1059625;-61.06500;14.52500;"61° 03' 54.00'' Ouest, 14° 31' 30.00'' Nord";"97231";"QUARTIER DE LA PLAINE - MORNE";;"97229";"LES TROIS-ILETS";"Pylône autostable"; 37.0;"Outremer Telecom"
1200527;-61.16889;14.74667;"61° 10' 08.00'' Ouest, 14° 44' 48.00'' Nord";"97225";;"QUARTIER SAINT JAMES LYCÉE PRO. BP39";"97250";"SAINT-PIERRE";"Bâtiment"; 15.0;"Société Privée SA"
1217685;-60.88917;14.55472;"60° 53' 21.00'' Ouest, 14° 33' 17.00'' Nord";"97232";"GOUJON";"D 18 PRÈS RÉSERVOIR";"97280";"LE VAUCLIN";"Mât béton"; 12.0;"ORANGE Services Fixes"
1238347;-61.07278;14.60278;"61° 04' 22.00'' Ouest, 14° 36' 10.00'' Nord";"97209";;"6 RESIDENCE DE LA POINTE SIMON 6 RUE DU COMMERCE";"97200";"FORT-DE-FRANCE";"Immeuble"; 20.0;"Société Privée SA"
1263033;-61.03944;14.79889;"61° 02' 22.00'' Ouest, 14° 47' 56.00'' Nord";"97216";;"QUARTIER DOMINANTE ANCIENNE ECOLE";"97225";"LE MARIGOT";"Bâtiment"; 10.0;"Commune, communauté de commune"
1273520;-60.83611;14.46750;"60° 50' 10.00'' Ouest, 14° 28' 03.00'' Nord";"97226";"CHAMP FLEURY";;"97227";"SAINTE-ANNE";"Pylône autostable"; 25.0;"ORANGE"
1274006;-61.07500;14.60361;"61° 04' 30.00'' Ouest, 14° 36' 13.00'' Nord";"97209";;"7 BD ROBERT ATTULY";"97200";"FORT-DE-FRANCE";"Bâtiment"; 11.0;"Commune, communauté de commune"
1274008;-61.06944;14.60722;"61° 04' 10.00'' Ouest, 14° 36' 26.00'' Nord";"97209";;"BD DU GENERAL DE GAULLE HOTEL DE VILLE";"97200";"FORT-DE-FRANCE";"Bâtiment"; 30.0;"Commune, communauté de commune"
1274100;-60.94806;14.61833;"60° 56' 53.00'' Ouest, 14° 37' 06.00'' Nord";"97210";"MORNE PAVILLON";"CH DU RÉSERVOIR";"97240";"LE FRANCOIS";"Pylône autostable"; 22.0;"ORANGE"
1274153;-61.01750;14.50139;"61° 01' 03.00'' Ouest, 14° 30' 05.00'' Nord";"97206";;"MORNE PAVILLON";"97223";"LE DIAMANT";"Pylône autostable"; 12.0;"Société Privée SA"
1278614;-60.95000;14.64861;"60° 57' 00.00'' Ouest, 14° 38' 55.00'' Nord";"97222";"DUCHESNE";"MORNE LACROIX";"97231";"LE ROBERT";"Pylône autostable"; 28.0;"Société Privée SA"
1286909;-61.03861;14.72722;"61° 02' 19.00'' Ouest, 14° 43' 38.00'' Nord";"97212";"BOIS LÉZARDS";"QUARTIER SINAI";"97213";"GROS-MORNE";"Pylône autostable"; 27.0;"DIGICEL"
1292215;-60.98083;14.59222;"60° 58' 51.00'' Ouest, 14° 35' 32.00'' Nord";"97207";"LE BAC";"109 RUE DE LA MAZOUKA";"97224";"DUCOS";"Immeuble"; 13.0;"Particulier"
1292217;-61.00694;14.52944;"61° 00' 25.00'' Ouest, 14° 31' 46.00'' Nord";"97231";"CHATEAU GAILLARD";"HABITATION LA POTERIE";"97229";"LES TROIS-ILETS";"Pylône autostable"; 20.0;"Outremer Telecom"
1305600;-61.05278;14.53028;"61° 03' 10.00'' Ouest, 14° 31' 49.00'' Nord";"97231";;"L'ANSE A L'ANE";"97229";"LES TROIS-ILETS";"Pylône autostable"; 20.0;"DIGICEL"
1324388;-61.03833;14.62500;"61° 02' 18.00'' Ouest, 14° 37' 30.00'' Nord";"97209";"CHATEAUBOEUF";"RUE RAYMOND LABAT LYCÉE PROFESSIONNEL CHATEAUBOEUF";"97200";"FORT-DE-FRANCE";"Bâtiment"; 10.0;"Commune, communauté de commune"
1326835;-60.94944;14.69250;"60° 56' 58.00'' Ouest, 14° 41' 33.00'' Nord";"97222";"MONT VERT";"VC DE AUGRAIN VIVIES GASCHETTE";"97231";"LE ROBERT";"Pylône autostable"; 32.0;"ORANGE"
1326924;-61.06000;14.62417;"61° 03' 36.00'' Ouest, 14° 37' 27.00'' Nord";"97209";"LUNETTE BROUILLÉ";"ROUTE DE REDOUTE - 2,500 KM N° 122 F";"97200";"FORT-DE-FRANCE";"Bâtiment"; 12.0;"Particulier"
1327033;-61.03833;14.61667;"61° 02' 18.00'' Ouest, 14° 37' 00.00'' Nord";"97209";"ZAC DE RIVIÈRE ROCHE";"RUE GEORGES ZAIRE";"97200";"FORT-DE-FRANCE";"Bâtiment"; 12.0;"Société Privée SA"
1331729;-61.07861;14.61083;"61° 04' 43.00'' Ouest, 14° 36' 39.00'' Nord";"97209";;"4 RUE DES HIBISCUS CLINIQUE SAINT PAUL FORT DE FRANCE BAY";"97200";"FORT-DE-FRANCE";"Bâtiment"; 30.0;"Etablissement de soins"
1342232;-61.00333;14.60750;"61° 00' 12.00'' Ouest, 14° 36' 27.00'' Nord";"97213";"FOUR À CHAUX";"R EMMANUEL COURANT";"97232";"LE LAMENTIN";"Pylône autostable"; 32.3;"ORANGE"
1351347;-61.06361;14.80944;"61° 03' 49.00'' Ouest, 14° 48' 34.00'' Nord";"97214";"MORNE CARABIN";"CROISÉE QUATRE";"97214";"LE LORRAIN";"Pylône autostable"; 20.0;"Société Privée SA"
1351349;-61.06500;14.80611;"61° 03' 54.00'' Ouest, 14° 48' 22.00'' Nord";"97214";"MORNE CARABIN";;"97214";"LE LORRAIN";"Pylône autostable"; 20.0;"Société Privée SA"
1351742;-61.03111;14.61417;"61° 01' 52.00'' Ouest, 14° 36' 51.00'' Nord";"97213";"CALIFORNIE";"ENTREPRISE FRANCOIS BERTE  CHEMIN RURAL N°2";"97232";"LE LAMENTIN";"Pylône autostable"; 20.5;"ORANGE"
1387153;-61.02000;14.61944;"61° 01' 12.00'' Ouest, 14° 37' 10.00'' Nord";"97213";"ACAJOU SUD";"CENTRE COMMERCIAL LA GALLÉRIA";"97232";"LE LAMENTIN";"Bâtiment"; 5.0;"Société Privée SA"
1393608;-60.94139;14.67361;"60° 56' 29.00'' Ouest, 14° 40' 25.00'' Nord";"97222";;"STADE MUNICIPAL DU BOURG";"97231";"LE ROBERT";"Pylône autostable"; 30.0;"ORANGE"
1395518;-61.13500;14.85278;"61° 08' 06.00'' Ouest, 14° 51' 10.00'' Nord";"97203";"VOIE HAUTEUR BOURBON";"CHEMIN COMMUNAL";"97218";"BASSE-POINTE";"Pylône autostable"; 25.0;"DIGICEL"
1398171;-61.07889;14.60333;"61° 04' 44.00'' Ouest, 14° 36' 12.00'' Nord";"97209";;"2 BD DE LA MARNE";"97200";"FORT-DE-FRANCE";"Bâtiment"; 10.0;"Société Privée SA"
1433561;-60.95750;14.48194;"60° 57' 27.00'' Ouest, 14° 28' 55.00'' Nord";"97227";"BERNARD";"TROIS RIVIÈRES";"97228";"SAINTE-LUCE";"Pylône autostable"; 32.0;"Outremer Telecom"
1436181;-60.89333;14.46806;"60° 53' 36.00'' Ouest, 14° 28' 05.00'' Nord";"97217";"MORNE GOMMIER";"JEAN-BAPTISTE";"97290";"LE MARIN";"Pylône autostable"; 31.0;"Société Privée SA"
1437269;-60.91194;14.75500;"60° 54' 43.00'' Ouest, 14° 45' 18.00'' Nord";"97230";"MORNE GOMMIER";;"97220";"LA TRINITE";"Pylône autostable"; 30.0;"Société Privée SA"
1438733;-60.87056;14.47222;"60° 52' 14.00'' Ouest, 14° 28' 20.00'' Nord";"97217";"CARREFOUR DIAKA";;"97200";"LE MARIN";"Mât métallique"; 10.0;"Société Privée SA"
1438735;-60.88944;14.47833;"60° 53' 22.00'' Ouest, 14° 28' 42.00'' Nord";"97217";"MORNE GOMMIER - QUATIER PUIFFE";;"97290";"LE MARIN";"Pylône autostable"; 17.0;"Société Privée SA"
1440694;-61.06333;14.80083;"61° 03' 48.00'' Ouest, 14° 48' 03.00'' Nord";"97214";"HAUT CARABIN";;"97214";"LE LORRAIN";"Mât béton"; 10.0;"Titulaire programme Radio/TV"
1446914;-60.99611;14.59500;"60° 59' 46.00'' Ouest, 14° 35' 42.00'' Nord";"97213";"AÉROPORT DE FORT-DE-FRANCE";"SERVICE RÉGIONAL DE LA MARTINIQUE AÉROPORT MARTINIQUE AIMÉ CÉSAIRE BP 379";"97288";"LE LAMENTIN";"Bâtiment"; 5.0;"Météo"
1466804;-61.02583;14.69250;"61° 01' 33.00'' Ouest, 14° 41' 33.00'' Nord";"97224";"SERIAL";"EXPLOITATION DU TERRAIL";"97212";"SAINT-JOSEPH";"Mât"; 10.0;"Outremer Telecom"
1467708;-60.94944;14.62639;"60° 56' 58.00'' Ouest, 14° 37' 35.00'' Nord";"97213";"MORNE PAVILLON";"RÉSERVOIR";"97232";"LE LAMENTIN";"Château d'eau - réservoir"; 15.0;"Syndicat des eaux, Adduction"
1468906;-60.96028;14.58722;"60° 57' 37.00'' Ouest, 14° 35' 14.00'' Nord";"97207";"MORNE CARETTE";"INSTALLATION DE LA SME À MORNE CARETTE";"97224";"DUCOS";"Pylône tubulaire"; 10.5;"Outremer Telecom"
1471368;-61.01778;14.50167;"61° 01' 04.00'' Ouest, 14° 30' 06.00'' Nord";"97206";;"MORNE PAVILLON";"97223";"LE DIAMANT";"Château d'eau - réservoir"; 10.0;"Syndicat des eaux, Adduction"
1471370;-61.07028;14.60694;"61° 04' 13.00'' Ouest, 14° 36' 25.00'' Nord";"97209";;"BD DU GENERAL DE GAULLE";"97200";"FORT-DE-FRANCE";"Bâtiment"; 12.0;"Copropriété, Syndic, SCI"
1471372;-61.04111;14.61083;"61° 02' 28.00'' Ouest, 14° 36' 39.00'' Nord";"97209";;"LA TROMPEUSE";"97200";"FORT-DE-FRANCE";"Bâtiment"; 12.0;"Copropriété, Syndic, SCI"
1473318;-60.83333;14.48389;"60° 50' 00.00'' Ouest, 14° 29' 02.00'' Nord";"97217";"CAP FERRET";;"97290";"LE MARIN";"Pylône autostable"; 30.0;"DIGICEL"
1484619;-61.11944;14.86806;"61° 07' 10.00'' Ouest, 14° 52' 05.00'' Nord";"97203";"HACKAERT NORD";"RUE DU DOCTEUR MORESTIN";"97218";"BASSE-POINTE";"Pylône autostable"; 33.0;"ORANGE Services Fixes"
1484627;-61.03861;14.63306;"61° 02' 19.00'' Ouest, 14° 37' 59.00'' Nord";"97209";"LA MEYNARD";"HOPITAL";"97200";"FORT-DE-FRANCE";"Bâtiment"; 39.0;"Etablissement de soins"
1485766;-60.88556;14.55806;"60° 53' 08.00'' Ouest, 14° 33' 29.00'' Nord";"97232";"MONTAGNE DU VAUCLIN";"MORNE VAUCLIN";"97280";"LE VAUCLIN";"Pylône autostable"; 23.5;"EDF ou GDF"
1495364;-61.04528;14.60028;"61° 02' 43.00'' Ouest, 14° 36' 01.00'' Nord";"97209";"LA POINTE DES GRIVES";"CENTRE D'AFFAIRES « LE LAGON » RUE ERNEST HEMINGWAY";"97200";"FORT-DE-FRANCE";"Bâtiment"; 15.0;"Société Privée SA"
1495499;-61.07833;14.60583;"61° 04' 42.00'' Ouest, 14° 36' 21.00'' Nord";"97209";"MORNE TARTENSON";"AVENUE SAINT JOHN PERSE";"97200";"FORT-DE-FRANCE";"Mât béton"; 15.0;"Etat, Ministère"
1495501;-61.10000;14.63972;"61° 06' 00.00'' Ouest, 14° 38' 23.00'' Nord";"97229";;"LES HAUTS DE TERREVILLE";"97233";"SCHOELCHER";"Mât béton"; 13.0;"Etat, Ministère"
1522966;-60.99806;14.61278;"60° 59' 53.00'' Ouest, 14° 36' 46.00'' Nord";"97213";;"LYCÉE PLACE D'ARME";"97232";"LE LAMENTIN";"Bâtiment"; 17.0;"Société Privée SA"
1522985;-61.05944;14.83444;"61° 03' 34.00'' Ouest, 14° 50' 04.00'' Nord";"97214";;"LYCÉE LORRAIN CITÉ SCOLAIRE JOSEPH PERMOCK";"97214";"LE LORRAIN";"Bâtiment"; 22.0;"Société Privée SA"
1523412;-61.03750;14.78528;"61° 02' 15.00'' Ouest, 14° 47' 07.00'' Nord";"97228";"LA FERME SAINT JACQUES";"HABITATION THEBAULT PAIN DE SUCRE";"97230";"SAINTE-MARIE";"Mât"; 10.0;"Outremer Telecom"
1584744;-60.99972;14.59528;"60° 59' 59.00'' Ouest, 14° 35' 43.00'' Nord";"97213";;"AEROPORT FORT DE FRANCE CCI";"97232";"LE LAMENTIN";"Bâtiment"; 15.0;"CCI,Ch Metiers,Port Aut,Aérop"
1594437;-60.94889;14.74611;"60° 56' 56.00'' Ouest, 14° 44' 46.00'' Nord";"97230";;"CITÉ SCOLAIRE FRANTZ FANON LYCÉE FRANTZ FANON";"97220";"LA TRINITE";"Bâtiment"; 25.0;"Etat, Ministère"
1603464;-61.07861;14.51222;"61° 04' 43.00'' Ouest, 14° 30' 44.00'' Nord";"97202";"MORNE BIGOT";"MORNE BIGOT FT";"97217";"LES ANSES-D'ARLET";"Pylône haubané"; 54.0;"ORANGE"
1603978;-60.91611;14.75361;"60° 54' 58.00'' Ouest, 14° 45' 13.00'' Nord";"97230";;"MORNE PAVILLON - PRESQU'ILE DE LA CARAVELLE";"97220";"LA TRINITE";"Pylône autostable"; 14.0;"EDF ou GDF"
1605307;-60.88750;14.55639;"60° 53' 15.00'' Ouest, 14° 33' 23.00'' Nord";"97232";;"MONTAGNE DU VAUCLIN";"97280";"LE VAUCLIN";"Pylône autostable"; 18.0;"EDF ou GDF"
1605706;-60.90083;14.45917;"60° 54' 03.00'' Ouest, 14° 27' 33.00'' Nord";"97217";;"MORNE ACCA";"97290";"LE MARIN";"Pylône autostable"; 40.0;"EDF ou GDF"
1605740;-61.06333;14.73528;"61° 03' 48.00'' Ouest, 14° 44' 07.00'' Nord";"97212";;"MORNE BELLEVUE";"97213";"GROS-MORNE";"Pylône autostable"; 40.0;"EDF ou GDF"
1624638;-61.06472;14.60778;"61° 03' 53.00'' Ouest, 14° 36' 28.00'' Nord";"97209";;"39 ROUTE DE LA FOLIE";"97200";"FORT-DE-FRANCE";"Immeuble"; 10.0;"Société Privée SA"
1626196;-61.03056;14.61194;"61° 01' 50.00'' Ouest, 14° 36' 43.00'' Nord";"97213";;"ZI CALIFORNIE LABO";"97210";"LE LAMENTIN";"Bâtiment"; 10.0;"Société Privée SA"
1626198;-61.03111;14.61278;"61° 01' 52.00'' Ouest, 14° 36' 46.00'' Nord";"97213";;"ZI CALIFORNIE POSTE DE GARDE ACCUEIL";"97210";"LE LAMENTIN";"Bâtiment"; 10.0;"Société Privée SA"
1626200;-61.03083;14.61139;"61° 01' 51.00'' Ouest, 14° 36' 41.00'' Nord";"97213";;"ZI CALIFORNIE POSTE DE GARDE DOUANES";"97210";"LE LAMENTIN";"Bâtiment"; 5.0;"Société Privée SA"
1626202;-61.03028;14.60917;"61° 01' 49.00'' Ouest, 14° 36' 33.00'' Nord";"97213";;"ZI CALIFORNIE SALLE DE CONTROLE";"97210";"LE LAMENTIN";"Bâtiment"; 10.0;"Société Privée SA"
1626204;-61.03111;14.61111;"61° 01' 52.00'' Ouest, 14° 36' 40.00'' Nord";"97213";;"ZI CALIFORNIE POMPIERS";"97210";"LE LAMENTIN";"Bâtiment"; 10.0;"Société Privée SA"
1626206;-61.03000;14.61222;"61° 01' 48.00'' Ouest, 14° 36' 44.00'' Nord";"97213";;"ZI CALIFORNIE SALLE DE FORMATION";"97210";"LE LAMENTIN";"Bâtiment"; 10.0;"Société Privée SA"
1693309;-61.09361;14.61972;"61° 05' 37.00'' Ouest, 14° 37' 11.00'' Nord";"97229";;"QUARTIER RAVINE TOUZA UNIVERSITÉ DES ANTILLES ET DE LA GUADELOUPE";"97275";"SCHOELCHER";"Immeuble"; 15.5;"Etat, Ministère"
1725931;-60.90111;14.46000;"60° 54' 04.00'' Ouest, 14° 27' 36.00'' Nord";"97217";"MORNE ACA";;"97220";"LE MARIN";"Pylône autostable"; 20.0;"Société Privée SA"
1725933;-61.06611;14.51778;"61° 03' 58.00'' Ouest, 14° 31' 04.00'' Nord";"97202";"MORNE BIGOT";;"97217";"LES ANSES-D'ARLET";"Pylône autostable"; 20.0;"Société Privée SA"
1742562;-61.05500;14.64139;"61° 03' 18.00'' Ouest, 14° 38' 29.00'' Nord";"97209";"RAVINE VILAINE";"17 ROCADE DU BEL HORIZON - D.57 EPICERIE GROMAT";"97200";"FORT-DE-FRANCE";"Pylône autostable"; 25.0;"ORANGE"
1747923;-61.05417;14.63250;"61° 03' 15.00'' Ouest, 14° 37' 57.00'' Nord";"97209";"REDOUTE CENTRE OUEST";"DÉPARTEMENTALE 49  ROUTE DE REDOUTE EGLISE";"97200";"FORT-DE-FRANCE";"Monument religieux"; 32.0;"Association"
1747925;-60.88000;14.47389;"60° 52' 48.00'' Ouest, 14° 28' 26.00'' Nord";"97217";"HABITATION BAIE DU MARIN";;"97290";"LE MARIN";"Pylône autostable"; 20.0;"ORANGE"
1764391;-61.06417;14.60194;"61° 03' 51.00'' Ouest, 14° 36' 07.00'' Nord";"97209";;"BASSIN DE RADOUB";"97200";"FORT-DE-FRANCE";"Immeuble"; 3.0;"Société Privée SA"
1777922;-61.11333;14.62833;"61° 06' 48.00'' Ouest, 14° 37' 42.00'' Nord";"97229";"FOND BERNIER";"RTE DE LA DÉMARCHE";"97233";"SCHOELCHER";"Bâtiment"; 9.0;"Particulier"
1782250;-60.94778;14.74000;"60° 56' 52.00'' Ouest, 14° 44' 24.00'' Nord";"97230";"CITÉ BEAUSEJOUR";;"97220";"LA TRINITE";"Pylône tubulaire"; 20.0;"ORANGE"
1782252;-60.86500;14.47806;"60° 51' 54.00'' Ouest, 14° 28' 41.00'' Nord";"97217";"LA BERRY";"CHEM RURAL";"97290";"LE MARIN";"Pylône autostable"; 20.0;"ORANGE"
1791746;-60.96806;14.57306;"60° 58' 05.00'' Ouest, 14° 34' 23.00'' Nord";"97207";"LES ABRICOTS";"RUE DES AMAREUSES ZI DE LA FABRIQUE";"97224";"DUCOS";"Bâtiment"; 23.1;"ORANGE"
1794382;-60.91444;14.63556;"60° 54' 52.00'' Ouest, 14° 38' 08.00'' Nord";"97210";"COTONNERIE";"MORNE COURBARIL";"97240";"LE FRANCOIS";"Pylône autostable"; 12.0;"DIGICEL"
1810689;-61.14444;14.73667;"61° 08' 40.00'' Ouest, 14° 44' 12.00'' Nord";"97208";"MORNE DES CADETS";"OBSERVATOIRE VOLCANIQUE";"97250";"FONDS-SAINT-DENIS";"Pylône autostable"; 30.0;"TDF"
1821293;-61.08694;14.66417;"61° 05' 13.00'' Ouest, 14° 39' 51.00'' Nord";"97209";"CAMP DE BALATA TOURTET";"ROUTE DE BALATA N3";"97200";"FORT-DE-FRANCE";"Pylône autostable"; 24.0;"ORANGE"
1821459;-61.06167;14.79889;"61° 03' 42.00'' Ouest, 14° 47' 56.00'' Nord";"97214";"POINTE DES CARRIERES";"HAUT CARABIN";"97214";"LE LORRAIN";"Pylône haubané"; 10.0;"EDF ou GDF"
1823352;-61.22472;14.80250;"61° 13' 29.00'' Ouest, 14° 48' 09.00'' Nord";"97219";"BOURG DU PRECHEUR";"ROUTE AMIE CESAIRE";"97250";"LE PRECHEUR";"Pylône autostable"; 23.0;"ORANGE Services Fixes"
1831315;-61.08139;14.60472;"61° 04' 53.00'' Ouest, 14° 36' 17.00'' Nord";"97209";;"16 BOULEVARD DE LA MARNE CROSS AG";"97200";"FORT-DE-FRANCE";"Bâtiment"; 14.0;"CROSS"
1840226;-61.05056;14.55583;"61° 03' 02.00'' Ouest, 14° 33' 21.00'' Nord";"97231";;"POINTE DU BOUT";"97229";"LES TROIS-ILETS";"Bâtiment"; 17.3;"Outremer Telecom"
1849214;-60.93778;14.68556;"60° 56' 16.00'' Ouest, 14° 41' 08.00'' Nord";"97222";;"18 RUE GASCHETTE";"97231";"LE ROBERT";"Immeuble"; 13.0;"Société Privée SA"
1849216;-60.99306;14.61361;"60° 59' 35.00'' Ouest, 14° 36' 49.00'' Nord";"97213";;"CENTRE COMMERCIAL PLACES D'ARMES";"97232";"LE LAMENTIN";"Intérieur galerie"; 3.0;"Société Privée SA"
1855294;-60.91167;14.75528;"60° 54' 42.00'' Ouest, 14° 45' 19.00'' Nord";"97230";"MORNE PAVILLON";;"97230";"LA TRINITE";"Mât béton"; 12.0;"Société Privée SA"
1857369;-60.98667;14.51111;"60° 59' 12.00'' Ouest, 14° 30' 40.00'' Nord";"97221";"GUIMBE";"CHEMIN DE BELLEVUE";"97215";"RIVIERE-SALEE";"Pylône autostable"; 25.0;"DIGICEL"
1861102;-61.02056;14.72889;"61° 01' 14.00'' Ouest, 14° 43' 44.00'' Nord";"97212";"BOIS LÉZARDS";"RTE DÉPARTEMENTALE 2 DE BORELLIE";"97213";"GROS-MORNE";"Pylône autostable"; 32.0;"ORANGE"
1861854;-60.92722;14.50583;"60° 55' 38.00'' Ouest, 14° 30' 21.00'' Nord";"97227";;"MORNE LÉPINAY";"97228";"SAINTE-LUCE";"Mât béton"; 12.5;"Société Privée SA"
1861858;-60.98194;14.57194;"60° 58' 55.00'' Ouest, 14° 34' 19.00'' Nord";"97207";;"74 AVENUE MARC ANDRÉ";"97224";"DUCOS";"Mât béton"; 12.9;"Société Privée SA"
1861882;-61.08833;14.61694;"61° 05' 18.00'' Ouest, 14° 37' 01.00'' Nord";"97229";;"3 RUE DU PETIT FLORENTIN";"97233";"SCHOELCHER";"Bâtiment"; 12.2;"Particulier"
1861905;-61.07556;14.61444;"61° 04' 32.00'' Ouest, 14° 36' 52.00'' Nord";"97209";;"29 RUE DE LA CARRIÈRE";"97200";"FORT-DE-FRANCE";"Mât béton"; 13.5;"Société Privée SA"
1862241;-60.97500;14.55833;"60° 58' 30.00'' Ouest, 14° 33' 30.00'' Nord";"97207";;"CENTRE COMMERCIAL GENIPA";"97224";"DUCOS";"Mât"; 16.0;"Société Privée SA"
1866580;-60.94722;14.56806;"60° 56' 50.00'' Ouest, 14° 34' 05.00'' Nord";"97223";"CHEMIN DU SAPOTILLIER";"MORNE LA VALEUR";"97270";"SAINT-ESPRIT";"Pylône tubulaire"; 27.0;"DIGICEL"
1875142;-60.96528;14.51333;"60° 57' 55.00'' Ouest, 14° 30' 48.00'' Nord";"97221";"LYCEE JOSEPH ZOBEL";"QUARTIER THORAILLE BP38";"97215";"RIVIERE-SALEE";"Bâtiment"; 16.0;"Société Privée SA"
1876027;-60.98917;14.77806;"60° 59' 21.00'' Ouest, 14° 46' 41.00'' Nord";"97228";"LYCEE ST MARIE";"BVD CELESTE";"97230";"SAINTE-MARIE";"Bâtiment"; 17.0;"Société Privée SA"
1880613;-60.88278;14.44750;"60° 52' 58.00'' Ouest, 14° 26' 51.00'' Nord";"97226";;"POINTE DU MARIN CLUB MED";"97227";"SAINTE-ANNE";"Bâtiment"; 4.0;"Société Privée SA"
1880617;-61.00167;14.60639;"61° 00' 06.00'' Ouest, 14° 36' 23.00'' Nord";"97213";"MANITHY";"ZA DU MANITHY";"97232";"LE LAMENTIN";"Bâtiment"; 11.0;"Société Privée SA"
1881227;-61.04861;14.61806;"61° 02' 55.00'' Ouest, 14° 37' 05.00'' Nord";"97209";;"AV LOUIS DOUMERGUE QUARTIER MONTGÉRALD";"97200";"FORT-DE-FRANCE";"Bâtiment"; 12.0;"Outremer Telecom"
1889778;-60.97417;14.55583;"60° 58' 27.00'' Ouest, 14° 33' 21.00'' Nord";"97207";;"GENIPA";"97224";"DUCOS";"Bâtiment"; 10.0;"Société Privée SA"
1900894;-60.89333;14.46806;"60° 53' 36.00'' Ouest, 14° 28' 05.00'' Nord";"97217";"MORNE GOMMIER";"LIEUDIT: MORNE GOMMIER";"97290";"LE MARIN";"Pylône autostable"; 25.0;"Société Privée SA"
1903570;-60.98056;14.52778;"60° 58' 50.00'' Ouest, 14° 31' 40.00'' Nord";"97221";;"RUE VICTOR SCHOELCHER";"97215";"RIVIERE-SALEE";"Bâtiment"; 6.0;"Outremer Telecom"
1903805;-60.89639;14.52417;"60° 53' 47.00'' Ouest, 14° 31' 27.00'' Nord";"97220";"MORNE VENT";"CROIX GODET RENÉE";"97211";"RIVIERE-PILOTE";"Pylône autostable"; 30.0;"DIGICEL"
1914291;-60.88306;14.44778;"60° 52' 59.00'' Ouest, 14° 26' 52.00'' Nord";"97226";"LES BOUCANIERS";"CLUB MEDITERRANÉE POINTE MARIN";"97227";"SAINTE-ANNE";"Mât béton"; 14.0;"Outremer Telecom"
1916931;-60.96472;14.73111;"60° 57' 53.00'' Ouest, 14° 43' 52.00'' Nord";"97230";"CROISÉE PALMISTE";"RUE AMÉDÉE CABRE N1 CHEMIN DES POMMES D'EAU";"97220";"LA TRINITE";"Pylône autostable"; 31.5;"DIGICEL"
1922498;-60.99139;14.57694;"60° 59' 29.00'' Ouest, 14° 34' 37.00'' Nord";"97207";;"QUARTIER CHAMPIGNY CENTRE PENITENTIAIRE";"97224";"DUCOS";"Immeuble"; 9.0;"Etat, Ministère"
1922608;-60.90944;14.62417;"60° 54' 34.00'' Ouest, 14° 37' 27.00'' Nord";"97210";"VAPEUR EST";"HAUT DE TRIANON 2 ENTRÉE IMM SANTAL";"97240";"LE FRANCOIS";"Pylône autostable"; 22.0;"DIGICEL"
1946980;-61.06639;14.79611;"61° 03' 59.00'' Ouest, 14° 47' 46.00'' Nord";"97214";"HAUT CARABIN";"MORNE JACQUES";"97214";"LE LORRAIN";"Pylône autostable"; 20.0;"Société Privée SA"
1959052;-61.06861;14.60389;"61° 04' 07.00'' Ouest, 14° 36' 14.00'' Nord";"97209";;"15 RUE DE LA LIBERTE HOTEL IMPERATRICE";"97200";"FORT-DE-FRANCE";"Bâtiment"; 19.0;"Outremer Telecom"
1959054;-61.00611;14.48694;"61° 00' 22.00'' Ouest, 14° 29' 13.00'' Nord";"97206";;"QUARTIER O MULLANE";"97223";"LE DIAMANT";"Mât béton"; 16.0;"Outremer Telecom"
1959056;-60.87667;14.39750;"60° 52' 36.00'' Ouest, 14° 23' 51.00'' Nord";"97226";;"POINTE DE SALINES";"97227";"SAINTE-ANNE";"Mât"; 14.0;"Outremer Telecom"
1961484;-61.15611;14.66028;"61° 09' 22.00'' Ouest, 14° 39' 37.00'' Nord";"97234";"FOND BOUCHER";"FOND-BOUCHER";"97222";"BELLEFONTAINE";"Pylône autostable"; 27.0;"TDF"
1968661;-61.15306;14.76194;"61° 09' 11.00'' Ouest, 14° 45' 43.00'' Nord";"97218";"PLATEAU SABLE";"RN2";"97260";"LE MORNE-ROUGE";"Pylône autostable"; 32.0;"DIGICEL"
1974829;-61.08250;14.62333;"61° 04' 57.00'' Ouest, 14° 37' 24.00'' Nord";"97229";;"PLATEAU FOFO - RAVINE TOUZA";"97233";"SCHOELCHER";"Pylône autostable"; 20.0;"DIGICEL"
1974837;-60.95611;14.64778;"60° 57' 22.00'' Ouest, 14° 38' 52.00'' Nord";"97213";"DUCHESNE";"DUCHESNE SUD";"97232";"LE LAMENTIN";"Pylône autostable"; 30.0;"DIGICEL"
1975501;-60.99000;14.49278;"60° 59' 24.00'' Ouest, 14° 29' 34.00'' Nord";"97206";;"FOND MANOEL TERRAIN CETE";"97223";"LE DIAMANT";"Pylône autostable"; 32.0;"DIGICEL"
1975511;-61.02139;14.79694;"61° 01' 17.00'' Ouest, 14° 47' 49.00'' Nord";"97228";;"LIEU-DIT PAIN DE SUCRE";"97230";"SAINTE-MARIE";"Pylône autostable"; 32.0;"DIGICEL"
1975537;-61.10694;14.75389;"61° 06' 25.00'' Ouest, 14° 45' 14.00'' Nord";"97218";;"HABITATION PETITE CECILE";"97260";"LE MORNE-ROUGE";"Pylône autostable"; 30.0;"DIGICEL"
1975567;-60.98417;14.67722;"60° 59' 03.00'' Ouest, 14° 40' 38.00'' Nord";"97213";"QUARTIER BELLE ISLE";"DAUBERT";"97232";"LE LAMENTIN";"Pylône autostable"; 15.0;"DIGICEL"
1975571;-61.01639;14.67861;"61° 00' 59.00'' Ouest, 14° 40' 43.00'' Nord";"97224";;"QUARTIER CHAPELLE";"97212";"SAINT-JOSEPH";"Pylône autostable"; 25.0;"DIGICEL"
1975575;-60.94861;14.66500;"60° 56' 55.00'' Ouest, 14° 39' 54.00'' Nord";"97222";"PONTALÉRY";;"97231";"LE ROBERT";"Pylône autostable"; 12.0;"DIGICEL"
1975579;-60.85250;14.56444;"60° 51' 09.00'' Ouest, 14° 33' 52.00'' Nord";"97232";"BAIE DES MULETS";"PETITE GRENADE";"97280";"LE VAUCLIN";"Mât béton"; 16.0;"DIGICEL"
1975616;-61.10528;14.62056;"61° 06' 19.00'' Ouest, 14° 37' 14.00'' Nord";"97229";;"RUE DU PETIT TAMARIN  IMMEUBLE BELLE EUGÉNIE";"97233";"SCHOELCHER";"Immeuble"; 13.0;"DIGICEL"
1975996;-61.05361;14.61472;"61° 03' 13.00'' Ouest, 14° 36' 53.00'' Nord";"97209";;"R DE LA ROCADE IMP DU TONNELIER IMM LAUPA";"97200";"FORT-DE-FRANCE";"Immeuble"; 11.7;"Copropriété, Syndic, SCI"
1977662;-61.13361;14.79500;"61° 08' 01.00'' Ouest, 14° 47' 42.00'' Nord";"97218";"HABITATION CHAMONIX";"RN 3, GRAND FOND HABITATION CHAMONIX";"97260";"LE MORNE-ROUGE";"Pylône autostable"; 22.0;"DIGICEL"
1977667;-61.09333;14.81833;"61° 05' 36.00'' Ouest, 14° 49' 06.00'' Nord";"97214";"QUARTIER PLATEAU";"MORNE DEGRAS";"97214";"LE LORRAIN";"Pylône autostable"; 32.0;"DIGICEL"
1978415;-61.14000;14.65056;"61° 08' 24.00'' Ouest, 14° 39' 02.00'' Nord";"97205";;"LES HAUTS DE MANIBA";"97222";"CASE-PILOTE";"Pylône tubulaire"; 18.0;"DIGICEL"
1979060;-61.11306;14.84639;"61° 06' 47.00'' Ouest, 14° 50' 47.00'' Nord";"97203";"LEYRITZ";"PLANTATION LEYRITZ";"97218";"BASSE-POINTE";"Pylône autostable"; 25.0;"DIGICEL"
1991445;-61.05722;14.59833;"61° 03' 26.00'' Ouest, 14° 35' 54.00'' Nord";"97209";"POINTES DES CARRIERES";"RUE DU 13 MARS 1977";"97200";"FORT-DE-FRANCE";"Bâtiment"; 12.0;"EDF ou GDF"
1991469;-60.89333;14.46806;"60° 53' 36.00'' Ouest, 14° 28' 05.00'' Nord";"97217";"JEAN  BAPTISTE";"PRES JEAN  BAPTISTE";"97290";"LE MARIN";"Pylône autostable"; 25.0;"EDF ou GDF"
1991817;-61.07472;14.61139;"61° 04' 29.00'' Ouest, 14° 36' 41.00'' Nord";"97209";;"RUE CARLOS FINLAY ERMITAGE";"97200";"FORT-DE-FRANCE";"Immeuble"; 14.0;"Société Privée SA"
1993957;-60.91222;14.75472;"60° 54' 44.00'' Ouest, 14° 45' 17.00'' Nord";"97230";"MORNE PAVILLON";"CHEMIN DU SEMAPHORE";"97220";"LA TRINITE";"Pylône autostable"; 12.0;"EDF ou GDF"
1993967;-61.05583;14.60722;"61° 03' 21.00'' Ouest, 14° 36' 26.00'' Nord";"97209";"TEMPLE";"6 AVENUE VICTOR LAMON";"97200";"FORT-DE-FRANCE";"Bâtiment"; 12.0;"EDF ou GDF"
