Numéro du support;Longitude;Latitude;"Position";"Insee";"Lieu dit";"Adresse";"Code postal";"Commune";"Nature du support";Hauteur en m;"Propriétaire"
21842;55.47500;-21.16889;"55° 28' 30.00'' Est, 21° 10' 08.00'' Sud";"97424";;"7 R ELIARD TECHER - LA POSTE BUREAU DU PALMISTE ROUGE";"97413";"CILAOS";"Bâtiment"; 8.0;"ORANGE Services Fixes"
21850;55.51778;-21.06472;"55° 31' 04.00'' Est, 21° 03' 53.00'' Sud";"97421";"HELL BOURG";"STATION FRANCE TÉLÉCOM";"97433";"SALAZIE";"Bâtiment"; 9.0;"ORANGE Services Fixes"
21858;55.47556;-21.03222;"55° 28' 32.00'' Est, 21° 01' 56.00'' Sud";"97421";"GRAND ILET";"STATION FRANCE TÉLÉCOM";"97433";"SALAZIE";"Bâtiment"; 7.0;"ORANGE Services Fixes"
21860;55.43667;-21.15111;"55° 26' 12.00'' Est, 21° 09' 04.00'' Sud";"97424";"ILET À CORDES";;"97413";"CILAOS";"Bâtiment"; 10.0;"ORANGE Services Fixes"
44367;55.51361;-20.90917;"55° 30' 49.00'' Est, 20° 54' 33.00'' Sud";"97418";"RIVIÈRE DES PLUIES";"RUE DE LA VIERGE NOIRE CENTRE DE TRANSMISSION";"97438";"SAINTE-MARIE";"Pylône autostable"; 25.0;"ORANGE Services Fixes"
44976;55.30944;-21.04583;"55° 18' 34.00'' Est, 21° 02' 45.00'' Sud";"97415";"LE GUILLAUME";"66 RTE HUBERT DELISLE GUILLAUME RD3";"97434";"SAINT-PAUL";"Pylône autostable"; 22.0;
47165;55.30417;-21.01917;"55° 18' 15.00'' Est, 21° 01' 09.00'' Sud";"97415";;"BELLEMENE LES CANOTS";"97434";"SAINT-PAUL";"Pylône autostable"; 16.0;"Sté Réunionn. de Radiotéléph."
47169;55.57444;-21.36722;"55° 34' 28.00'' Est, 21° 22' 02.00'' Sud";"97405";"MANAPANY LES BAS";"15 IMP DES PAILLES EN QUEUE";"97429";"PETITE-ILE";"Pylône tubulaire"; 6.0;"Sté Réunionn. de Radiotéléph."
47184;55.31333;-21.14139;"55° 18' 48.00'' Est, 21° 08' 29.00'' Sud";"97413";"LA CHALOUPE";"98 R ALEXANDRE BEGUE";"97436";"SAINT-LEU";"Pylône autostable"; 16.0;"Sté Réunionn. de Radiotéléph."
47188;55.73444;-21.06944;"55° 44' 04.00'' Est, 21° 04' 10.00'' Sud";"97410";"ST FRANCOIS";"CHEM DU CAP";"97470";"SAINT-BENOIT";"Pylône autostable"; 16.0;"Sté Réunionn. de Radiotéléph."
47190;55.46083;-20.92194;"55° 27' 39.00'' Est, 20° 55' 19.00'' Sud";"97411";"ST FRANCOIS";"CHEM DES FOUGERES";"97490";"SAINT-DENIS";"Pylône tubulaire"; 6.1;"Sté Réunionn. de Radiotéléph."
47587;55.31722;-20.94694;"55° 19' 02.00'' Est, 20° 56' 49.00'' Sud";"97407";;"R THEODORE DROUET ZAC 2000 SRR";"97420";"LE PORT";"Dalle en béton"; 10.0;"Sté Réunionn. de Radiotéléph."
47825;55.49139;-20.90111;"55° 29' 29.00'' Est, 20° 54' 04.00'' Sud";"97411";;"28 RTE DE MOUFIA";"97490";"SAINT-DENIS";"Mât"; 4.0;"Outremer Telecom"
48759;55.45222;-20.88139;"55° 27' 08.00'' Est, 20° 52' 53.00'' Sud";"97411";;"35 R STE ANNE";"97490";"SAINT-DENIS";"Immeuble"; 15.0;"Société Privée SA"
50369;55.34333;-20.92528;"55° 20' 36.00'' Est, 20° 55' 31.00'' Sud";"97408";;"LES LATANIERS";"97419";"LA POSSESSION";"Immeuble"; 19.0;"Sté Réunionn. de Radiotéléph."
50377;55.56139;-21.36694;"55° 33' 41.00'' Est, 21° 22' 01.00'' Sud";"97405";;"CHEM TERRAIN PAULETTE";"97429";"PETITE-ILE";"Pylône autostable"; 16.0;"Sté Réunionn. de Radiotéléph."
50387;55.42333;-21.29889;"55° 25' 24.00'' Est, 21° 17' 56.00'' Sud";"97416";;"85 RN PIERREFONDS";"97432";"SAINT-PIERRE";"Mât béton"; 16.0;"Sté Réunionn. de Radiotéléph."
50473;55.69306;-21.00833;"55° 41' 35.00'' Est, 21° 00' 30.00'' Sud";"97410";"CAMP BEAUVALLON";"RIVIERE DES ROCHES";"97470";"SAINT-BENOIT";"Mât béton"; 16.0;"Société Privée SA"
50479;55.27306;-21.00972;"55° 16' 23.00'' Est, 21° 00' 35.00'' Sud";"97415";;"54 ET 56 R DU COMMERCE";"97434";"SAINT-PAUL";"Immeuble"; 19.0;"Particulier"
52850;55.25583;-21.05583;"55° 15' 21.00'' Est, 21° 03' 21.00'' Sud";"97415";"VILLELE";"R MAHATMA GHANDI";"97434";"SAINT-PAUL";"Pylône autostable"; 30.0;"Sté Réunionn. de Radiotéléph."
52872;55.58806;-20.93833;"55° 35' 17.00'' Est, 20° 56' 18.00'' Sud";"97420";;"LES HAUTS DE LA RENAISSANCE";"97441";"SAINTE-SUZANNE";"Pylône autostable"; 48.0;"Sté Réunionn. de Radiotéléph."
52884;55.42389;-20.89778;"55° 25' 26.00'' Est, 20° 53' 52.00'' Sud";"97411";"COLORADO";"CHEM DU COLORADO";"97490";"SAINT-DENIS";"Pylône autostable"; 35.0;"Sté Réunionn. de Radiotéléph."
52890;55.46278;-20.88556;"55° 27' 46.00'' Est, 20° 53' 08.00'' Sud";"97411";"VAUBAN";"3 R D'ALSACE RES LE MANIKOM";"97490";"SAINT-DENIS";"Immeuble"; 24.0;"Sté Réunionn. de Radiotéléph."
52896;55.46139;-21.27111;"55° 27' 41.00'' Est, 21° 16' 16.00'' Sud";"97403";"L'EQUERRE";"32 CHEM DE L'EQUERRE";"97414";"ENTRE-DEUX";"Pylône autostable"; 20.0;"Sté Réunionn. de Radiotéléph."
52906;55.26917;-21.00861;"55° 16' 09.00'' Est, 21° 00' 31.00'' Sud";"97415";"TOUR FEU";"FRONT DE MER QUAI GILBERT";"97434";"SAINT-PAUL";"Pylône autostable"; 19.7;"Sté Réunionn. de Radiotéléph."
52912;55.54083;-21.28000;"55° 32' 27.00'' Est, 21° 16' 48.00'' Sud";"97422";"LA CHAPELLE PETIT TAMPON";"CHEM DU MILIEU";"97430";"LE TAMPON";"Immeuble"; 12.0;"Sté Réunionn. de Radiotéléph."
52926;55.23417;-21.01972;"55° 14' 03.00'' Est, 21° 01' 11.00'' Sud";"97415";"CAP LAHOUSSAYE";"RN 1";"97434";"SAINT-PAUL";"Mât"; 4.9;"Sté Réunionn. de Radiotéléph."
52932;55.52972;-21.35750;"55° 31' 47.00'' Est, 21° 21' 27.00'' Sud";"97416";"GRAND BOIS";"CHEM DE LA COLLINE";"97432";"SAINT-PIERRE";"Pylône autostable"; 12.0;"Sté Réunionn. de Radiotéléph."
52938;55.60000;-21.25750;"55° 36' 00.00'' Est, 21° 15' 27.00'' Sud";"97422";"NOTRE DAME DE LA PAIX";"CD 36";"97430";"LE TAMPON";"Pylône autostable"; 16.0;"Sté Réunionn. de Radiotéléph."
52944;55.42194;-20.87472;"55° 25' 19.00'' Est, 20° 52' 29.00'' Sud";"97411";"CAP BERNARD";"RTE DU LITTORAL POINT DDE 3 0 15";"97490";"SAINT-DENIS";"Pylône autostable"; 12.0;"Sté Réunionn. de Radiotéléph."
52946;55.58167;-21.37083;"55° 34' 54.00'' Est, 21° 22' 15.00'' Sud";"97405";"L'ETS";"RN 2";"97429";"PETITE-ILE";"Pylône autostable"; 14.0;"Sté Réunionn. de Radiotéléph."
52948;55.81361;-21.21222;"55° 48' 49.00'' Est, 21° 12' 44.00'' Sud";"97419";"BOIS BLANC";"FORET DE BOIS BLANC RN 2";"97439";"SAINTE-ROSE";"Pylône autostable"; 15.5;"Sté Réunionn. de Radiotéléph."
52952;55.39111;-20.92111;"55° 23' 28.00'' Est, 20° 55' 16.00'' Sud";"97411";;"270 RTE ANTIDE BOYER";"97490";"SAINT-DENIS";"Pylône autostable"; 16.0;"Sté Réunionn. de Radiotéléph."
52964;55.46944;-20.88583;"55° 28' 10.00'' Est, 20° 53' 09.00'' Sud";"97411";"BUTOR";"IMM LE FLOREAL 10 R LEOPOLD RAMBAUD";"97490";"SAINT-DENIS";"Immeuble"; 14.0;"Société HLM"
52966;55.56833;-20.89750;"55° 34' 06.00'' Est, 20° 53' 51.00'' Sud";"97418";;"9 CHEM RURAL IMM INDIA BAT C LES GASPARTS";"97438";"SAINTE-MARIE";"Pylône autostable"; 25.0;"Sté Réunionn. de Radiotéléph."
52978;55.47472;-20.89083;"55° 28' 29.00'' Est, 20° 53' 27.00'' Sud";"97411";"DEUX CANONS";"85 B R DES DEUX CANONS";"97490";"SAINT-DENIS";"Pylône autostable"; 25.0;"Sté Réunionn. de Radiotéléph."
52984;55.48778;-20.88889;"55° 29' 16.00'' Est, 20° 53' 20.00'' Sud";"97411";;"STADE DU CHAUDRON R GEORGES POMPIDOU";"97490";"SAINT-DENIS";"Pylône autostable"; 25.0;"Sté Réunionn. de Radiotéléph."
52988;55.48833;-20.89333;"55° 29' 18.00'' Est, 20° 53' 36.00'' Sud";"97411";;"R ROGER PAYET";"97490";"SAINT-DENIS";"Immeuble"; 25.5;"Sté Réunionn. de Radiotéléph."
52992;55.48250;-20.89250;"55° 28' 57.00'' Est, 20° 53' 33.00'' Sud";"97411";"STE CLOTILDE";"11 R MARC PAYET";"97490";"SAINT-DENIS";"Immeuble"; 25.5;"Sté Réunionn. de Radiotéléph."
52996;55.52972;-20.91722;"55° 31' 47.00'' Est, 20° 55' 02.00'' Sud";"97418";"BOIS ROUGE";;"97438";"SAINTE-MARIE";"Pylône autostable"; 25.0;"Sté Réunionn. de Radiotéléph."
52998;55.47472;-20.88611;"55° 28' 29.00'' Est, 20° 53' 10.00'' Sud";"97411";;"70 R LEOPOLD RAMBAUD";"97490";"SAINT-DENIS";"Bâtiment"; 15.0;"Société Privée SA"
53004;55.56833;-20.91056;"55° 34' 06.00'' Est, 20° 54' 38.00'' Sud";"97418";"RAVINE DES CHEVRES LES HAUTS";"3 IMP LE VERGER";"97438";"SAINTE-MARIE";"Pylône autostable"; 25.0;"Sté Réunionn. de Radiotéléph."
53020;55.44694;-20.88000;"55° 26' 49.00'' Est, 20° 52' 48.00'' Sud";"97411";"LA RIVIERE ST DENIS";"PARKING DE LA REPUBLIQUE";"97490";"SAINT-DENIS";"Bâtiment"; 30.0;"Société HLM"
53022;55.44917;-20.88389;"55° 26' 57.00'' Est, 20° 53' 02.00'' Sud";"97411";;"19 R STE MARIE RES DU MUSEE";"97490";"SAINT-DENIS";"Bâtiment"; 20.5;"Copropriété, Syndic, SCI"
53030;55.48528;-20.89778;"55° 29' 07.00'' Est, 20° 53' 52.00'' Sud";"97411";"STE CLOTILDE";"147 R FRANCOIS DE MAHY";"97490";"SAINT-DENIS";"Immeuble"; 20.0;"Société HLM"
53034;55.45111;-20.89750;"55° 27' 04.00'' Est, 20° 53' 51.00'' Sud";"97411";;"72 ALL DE L'AVE MARIA PROVIDENCE";"97490";"SAINT-DENIS";"Pylône autostable"; 22.0;"Sté Réunionn. de Radiotéléph."
53038;55.42472;-20.88722;"55° 25' 29.00'' Est, 20° 53' 14.00'' Sud";"97411";"LA MONTAGNE";"30 CHEM HAUTBOIS";"97490";"SAINT-DENIS";"Immeuble"; 26.0;"Société HLM"
53040;55.49139;-20.89778;"55° 29' 29.00'' Est, 20° 53' 52.00'' Sud";"97411";;"RTE DU MOUFIA";"97490";"SAINT-DENIS";"Immeuble"; 22.0;"Société HLM"
53042;55.48111;-20.89861;"55° 28' 52.00'' Est, 20° 53' 55.00'' Sud";"97411";;"R LORY LES HAUTS";"97490";"SAINT-DENIS";"Immeuble"; 23.0;"Société HLM"
53044;55.45833;-20.89111;"55° 27' 30.00'' Est, 20° 53' 28.00'' Sud";"97411";;"25 R LEON DIERX BAT. F";"97490";"SAINT-DENIS";"Immeuble"; 43.0;"Société HLM"
53046;55.41306;-20.89583;"55° 24' 47.00'' Est, 20° 53' 45.00'' Sud";"97411";;"2 R RAOUL FOLLEREAU LA MONTAGNE";"97490";"SAINT-DENIS";"Immeuble"; 21.0;"Société HLM"
53052;55.33194;-20.93444;"55° 19' 55.00'' Est, 20° 56' 04.00'' Sud";"97408";;"9 AV RAYMOND VERGES STADE GARGARINE";"97419";"LA POSSESSION";"Pylône autostable"; 30.0;"Sté Réunionn. de Radiotéléph."
53054;55.29972;-20.93306;"55° 17' 59.00'' Est, 20° 55' 59.00'' Sud";"97407";;"STADE MUNICIPAL GEORGES LAMBRAKIS";"97420";"LE PORT";"Pylône autostable"; 25.0;"Sté Réunionn. de Radiotéléph."
53058;55.31000;-20.93639;"55° 18' 36.00'' Est, 20° 56' 11.00'' Sud";"97407";;"R CORRE LEONUS";"97420";"LE PORT";"Pylône autostable"; 20.5;"Sté Réunionn. de Radiotéléph."
53060;55.30750;-20.94194;"55° 18' 27.00'' Est, 20° 56' 31.00'' Sud";"97407";;"BD DES MASCAREIGNES";"97420";"LE PORT";"Pylône autostable"; 25.0;"Sté Réunionn. de Radiotéléph."
53066;55.22583;-21.05583;"55° 13' 33.00'' Est, 21° 03' 21.00'' Sud";"97415";"ST GILLES LES BAINS";"1 R DES ARUMS";"97434";"SAINT-PAUL";"Pylône autostable"; 20.5;"Sté Réunionn. de Radiotéléph."
53068;55.24278;-21.09361;"55° 14' 34.00'' Est, 21° 05' 37.00'' Sud";"97415";"LA SALINE";"CHEM DES ARGONAURES";"97434";"SAINT-PAUL";"Pylône autostable"; 22.0;"Sté Réunionn. de Radiotéléph."
53070;55.23222;-21.02667;"55° 13' 56.00'' Est, 21° 01' 36.00'' Sud";"97415";"GRAND FOND";"55 LOT. SAFER ST GILLES LES BAINS";"97434";"SAINT-PAUL";"Pylône autostable"; 12.2;"Sté Réunionn. de Radiotéléph."
53074;55.32917;-20.96556;"55° 19' 45.00'' Est, 20° 57' 56.00'' Sud";"97408";"STE THERESE";"50 CHEM ST ALME";"97419";"LA POSSESSION";"Pylône autostable"; 25.0;"Sté Réunionn. de Radiotéléph."
53082;55.33000;-21.17667;"55° 19' 48.00'' Est, 21° 10' 36.00'' Sud";"97413";;"23 CHEM DE LA SOURCE CHALOUPE ST LEU";"97436";"SAINT-LEU";"Pylône autostable"; 20.0;"Sté Réunionn. de Radiotéléph."
53086;55.30167;-21.20861;"55° 18' 06.00'' Est, 21° 12' 31.00'' Sud";"97413";;"CHEM MAZEAU MADURAN";"97436";"SAINT-LEU";"Pylône autostable"; 16.0;"Sté Réunionn. de Radiotéléph."
53088;55.27972;-21.00083;"55° 16' 47.00'' Est, 21° 00' 03.00'' Sud";"97415";;"R ST EXPEDIT RES BERNICA";"97434";"SAINT-PAUL";"Immeuble"; 21.0;"Société HLM"
53090;55.26722;-21.01389;"55° 16' 02.00'' Est, 21° 00' 50.00'' Sud";"97415";;"15 R DES MORTS";"97434";"SAINT-PAUL";"Immeuble"; 19.0;"Particulier"
53094;55.30389;-20.94000;"55° 18' 14.00'' Est, 20° 56' 24.00'' Sud";"97407";;"AV RAYMOND VERGES LA BUTTE";"97420";"LE PORT";"Immeuble"; 21.0;"Société HLM"
53096;55.29806;-20.94389;"55° 17' 53.00'' Est, 20° 56' 38.00'' Sud";"97407";;"52 R SARDA GARRIGA IMM RICO CARPAYE";"97420";"LE PORT";"Immeuble"; 29.0;"Société HLM"
53104;55.27972;-21.01333;"55° 16' 47.00'' Est, 21° 00' 48.00'' Sud";"97415";"GRANDE FONTAINE";"68 R CHARLES GUILLOCHET";"97434";"SAINT-PAUL";"Pylône autostable"; 12.0;"Sté Réunionn. de Radiotéléph."
53106;55.33583;-20.92667;"55° 20' 09.00'' Est, 20° 55' 36.00'' Sud";"97408";"MAIRIE DE LA POSSESSION";"HOTEL DE VILLE DE LA POSSESSION";"97419";"LA POSSESSION";"Pylône autostable"; 30.0;"Sté Réunionn. de Radiotéléph."
53108;55.23194;-21.07972;"55° 13' 55.00'' Est, 21° 04' 47.00'' Sud";"97415";"FILAOS";"CHEM CAROSSE";"97434";"SAINT-PAUL";"Pylône autostable"; 35.0;"Sté Réunionn. de Radiotéléph."
53110;55.22444;-21.07028;"55° 13' 28.00'' Est, 21° 04' 13.00'' Sud";"97415";;"6101 AV DE BOURBON L'HERMITAGE";"97434";"SAINT-PAUL";"Pylône autostable"; 25.0;"Sté Réunionn. de Radiotéléph."
53112;55.29778;-21.22556;"55° 17' 52.00'' Est, 21° 13' 32.00'' Sud";"97413";"BOIS DE NEFLES";"32 CHEM ST PAUL";"97436";"SAINT-LEU";"Pylône autostable"; 12.0;"Sté Réunionn. de Radiotéléph."
53114;55.38472;-20.89111;"55° 23' 05.00'' Est, 20° 53' 28.00'' Sud";"97411";"RAVINE A JACQUES";"RTE DU LITTORAL";"97490";"SAINT-DENIS";"Pylône autostable"; 12.0;"Sté Réunionn. de Radiotéléph."
53118;55.29917;-20.96250;"55° 17' 57.00'' Est, 20° 57' 45.00'' Sud";"97415";;"7 B  AV DE LA RIVIERE DES GALETS ZI CAMBAIE";"97434";"SAINT-PAUL";"Pylône autostable"; 30.0;"Sté Réunionn. de Radiotéléph."
53122;55.31028;-21.06944;"55° 18' 37.00'' Est, 21° 04' 10.00'' Sud";"97415";"BASSIN SOURIS";"6264 RTE HUBERT DELISLE";"97434";"SAINT-PAUL";"Pylône autostable"; 30.0;"Sté Réunionn. de Radiotéléph."
53124;55.28000;-21.05139;"55° 16' 48.00'' Est, 21° 03' 05.00'' Sud";"97415";"BERNICA";"RTE DE FATIMA";"97434";"SAINT-PAUL";"Pylône autostable"; 25.0;"Sté Réunionn. de Radiotéléph."
53126;55.33222;-20.95028;"55° 19' 56.00'' Est, 20° 57' 01.00'' Sud";"97408";"BOEUF MORT";"17 ET 19 R LUCAY LANGENIER";"97419";"LA POSSESSION";"Bâtiment"; 20.0;"Société HLM"
53130;55.26667;-21.05000;"55° 15' 60.00'' Est, 21° 03' 00.00'' Sud";"97415";;"84 CHEM. DEP 6";"97434";"SAINT-PAUL";"Immeuble"; 15.0;"Copropriété, Syndic, SCI"
53138;55.47528;-21.31556;"55° 28' 31.00'' Est, 21° 18' 56.00'' Sud";"97416";"LIGNE PARADIS";"ZI N° 2";"97432";"SAINT-PIERRE";"Pylône autostable"; 30.0;"Sté Réunionn. de Radiotéléph."
53152;55.47139;-21.28611;"55° 28' 17.00'' Est, 21° 17' 10.00'' Sud";"97416";;"4 CHEM MOULIN A CAFE";"97432";"SAINT-PIERRE";"Pylône autostable"; 25.0;"SFR"
53158;55.49361;-21.30222;"55° 29' 37.00'' Est, 21° 18' 08.00'' Sud";"97416";"LA LIGNE DES BAMBOUS";"CHEM CONCESSION CONDE";"97432";"SAINT-PIERRE";"Pylône autostable"; 27.0;"Sté Réunionn. de Radiotéléph."
53160;55.50778;-21.26056;"55° 30' 28.00'' Est, 21° 15' 38.00'' Sud";"97422";;"42 CHEM BENOITON 3 MARES";"97430";"LE TAMPON";"Pylône autostable"; 30.0;"Sté Réunionn. de Radiotéléph."
53162;55.50639;-21.27806;"55° 30' 23.00'' Est, 21° 16' 41.00'' Sud";"97422";;"98 R DES FLAMBOYANTS";"97430";"LE TAMPON";"Pylône autostable"; 30.0;"Sté Réunionn. de Radiotéléph."
53168;55.52917;-21.26306;"55° 31' 45.00'' Est, 21° 15' 47.00'' Sud";"97422";;"CHEM PIERRE CADET";"97430";"LE TAMPON";"Pylône autostable"; 30.0;"Sté Réunionn. de Radiotéléph."
53172;55.43667;-21.26139;"55° 26' 12.00'' Est, 21° 15' 41.00'' Sud";"97414";"RIVIERE ST LOUIS";"R DE LA PL DES FETES";"97450";"SAINT-LOUIS";"Pylône autostable"; 25.0;"Sté Réunionn. de Radiotéléph."
53176;55.61306;-21.38167;"55° 36' 47.00'' Est, 21° 22' 54.00'' Sud";"97412";;"LA CURE 1 R AMIRAL LACAZE";"97480";"SAINT-JOSEPH";"Immeuble"; 17.0;"Sté Réunionn. de Radiotéléph."
53178;55.74333;-21.36444;"55° 44' 36.00'' Est, 21° 21' 52.00'' Sud";"97417";"MARE LONGUE";"5 BRULE DE MARE LONGUE";"97442";"SAINT-PHILIPPE";"Pylône autostable"; 30.0;"Sté Réunionn. de Radiotéléph."
53184;55.37278;-21.27056;"55° 22' 22.00'' Est, 21° 16' 14.00'' Sud";"97404";;"COMPLEXE SPORTIF PLAINE DU GOL";"97427";"L'ETANG-SALE";"Pylône autostable"; 25.0;"Sté Réunionn. de Radiotéléph."
53186;55.60944;-21.37722;"55° 36' 34.00'' Est, 21° 22' 38.00'' Sud";"97412";;"2 R JUSTINIEN VITRY";"97480";"SAINT-JOSEPH";"Pylône autostable"; 20.0;"Sté Réunionn. de Radiotéléph."
53190;55.62694;-21.35694;"55° 37' 37.00'' Est, 21° 21' 25.00'' Sud";"97412";"JEAN PETIT";"CHEM DU CAPTAGE";"97480";"SAINT-JOSEPH";"Pylône autostable"; 20.0;"Sté Réunionn. de Radiotéléph."
53200;55.39944;-21.20889;"55° 23' 58.00'' Est, 21° 12' 32.00'' Sud";"97414";"LES MAKES";"R DU BON ACCUEIL TERRAIN BENARD";"97450";"SAINT-LOUIS";"Pylône autostable"; 16.0;"Sté Réunionn. de Radiotéléph."
53202;55.64556;-21.37667;"55° 38' 44.00'' Est, 21° 22' 36.00'' Sud";"97412";"LANGEVIN";"R MAUNIER";"97480";"SAINT-JOSEPH";"Pylône autostable"; 20.0;"Sté Réunionn. de Radiotéléph."
53204;55.71889;-21.03972;"55° 43' 08.00'' Est, 21° 02' 23.00'' Sud";"97410";;"R FERDINAND HUBERT";"97470";"SAINT-BENOIT";"Immeuble"; 14.0;"Société HLM"
53208;55.71111;-21.05222;"55° 42' 40.00'' Est, 21° 03' 08.00'' Sud";"97410";;"51 AVENUE JEAN MONNET BRAS FUSIL";"97470";"SAINT-BENOIT";"Immeuble"; 15.0;"Société HLM"
53212;55.68250;-21.00111;"55° 40' 57.00'' Est, 21° 00' 04.00'' Sud";"97402";"COLLEGE";"50 R RAYMOND ALBIUS";"97412";"BRAS-PANON";"Pylône autostable"; 30.0;"Sté Réunionn. de Radiotéléph."
53214;55.64750;-20.93611;"55° 38' 51.00'' Est, 20° 56' 10.00'' Sud";"97409";"CAMBUSTON";"758 AV DES MASCAREIGNES";"97440";"SAINT-ANDRE";"Pylône autostable"; 30.0;"SFR"
53220;55.53556;-21.03222;"55° 32' 08.00'' Est, 21° 01' 56.00'' Sud";"97421";;"RTE MARE A CITRONS";"97433";"SALAZIE";"Pylône autostable"; 20.0;"Sté Réunionn. de Radiotéléph."
53228;55.78194;-21.12944;"55° 46' 55.00'' Est, 21° 07' 46.00'' Sud";"97419";"PETIT BRULE";"13 SENTIER LOULOU";"97439";"SAINTE-ROSE";"Pylône autostable"; 20.0;"Sté Réunionn. de Radiotéléph."
53236;55.29417;-21.03583;"55° 17' 39.00'' Est, 21° 02' 09.00'' Sud";"97415";"LE GUILLAUME";"31 CHEM DES FLEURS";"97434";"SAINT-PAUL";"Pylône autostable"; 30.0;"Sté Réunionn. de Radiotéléph."
53238;55.71611;-21.04306;"55° 42' 58.00'' Est, 21° 02' 35.00'' Sud";"97410";"STATION ELF";"RN 2";"97470";"SAINT-BENOIT";"Pylône autostable"; 30.0;"Sté Réunionn. de Radiotéléph."
53286;55.53000;-21.25028;"55° 31' 48.00'' Est, 21° 15' 01.00'' Sud";"97422";"LOT CASSIOPEE";"R GERARD PHILIPPE";"97430";"LE TAMPON";"Pylône autostable"; 25.0;"Sté Réunionn. de Radiotéléph."
53288;55.37806;-20.93333;"55° 22' 41.00'' Est, 20° 56' 00.00'' Sud";"97408";"FERME AVICOLE";"25IÈME KM CD 41";"97419";"LA POSSESSION";"Pylône autostable"; 21.0;"Sté Réunionn. de Radiotéléph."
53300;55.30000;-20.93750;"55° 17' 60.00'' Est, 20° 56' 15.00'' Sud";"97407";;"22 R DU PERE LAFOSSE";"97420";"LE PORT";"Immeuble"; 38.0;"SFR"
53304;55.39583;-20.88194;"55° 23' 45.00'' Est, 20° 52' 55.00'' Sud";"97411";;"POINTE DU GOUFFRE RTE DU LITTORAL";"97490";"SAINT-DENIS";"Mât béton"; 12.0;"DDE"
53306;55.74583;-21.08750;"55° 44' 45.00'' Est, 21° 05' 15.00'' Sud";"97410";"PETIT ST PIERRE";"208 RN 2";"97470";"SAINT-BENOIT";"Pylône autostable"; 18.0;"Sté Réunionn. de Radiotéléph."
53314;55.70306;-21.21889;"55° 42' 11.00'' Est, 21° 13' 08.00'' Sud";"97419";"PITON DE PARTAGE";"SENTIER DU NEZ COUPE";"97439";"SAINTE-ROSE";"Mât"; 4.2;"SFR"
53320;55.43444;-20.88639;"55° 26' 04.00'' Est, 20° 53' 11.00'' Sud";"97411";;"2 RTE DES EUCALYPTUS LA VIGIE";"97490";"SAINT-DENIS";"Immeuble"; 10.0;"Sté Réunionn. de Radiotéléph."
53330;55.38722;-21.06889;"55° 23' 14.00'' Est, 21° 04' 08.00'' Sud";"97415";"PITON MAIDO";;"97411";"SAINT-PAUL";"Mât métallique"; 4.0;"Sté Réunionn. de Radiotéléph."
53951;55.44944;-20.88694;"55° 26' 58.00'' Est, 20° 53' 13.00'' Sud";"97411";;"2 R DE LA SOURCE";"97490";"SAINT-DENIS";"Immeuble"; 19.0;"Conseil Général"
53958;55.45056;-20.87389;"55° 27' 02.00'' Est, 20° 52' 26.00'' Sud";"97411";;"19 R DE LA DIGUE";"97490";"SAINT-DENIS";"Immeuble"; 9.0;"Conseil Général"
53983;55.44778;-20.87778;"55° 26' 52.00'' Est, 20° 52' 40.00'' Sud";"97411";;"26 R DE LA VICTOIRE";"97490";"SAINT-DENIS";"Immeuble"; 15.0;"Conseil Général"
55001;55.69389;-21.08500;"55° 41' 38.00'' Est, 21° 05' 06.00'' Sud";"97410";;"46 R CHEM DE CEINTURE";"97470";"SAINT-BENOIT";"Pylône autostable"; 26.0;"ORANGE"
55009;55.65417;-21.21333;"55° 39' 15.00'' Est, 21° 12' 48.00'' Sud";"97422";"PITON DES BASALTES";"SENTIERS DU PITON DES BALSATES";"97430";"LE TAMPON";"Mât"; 5.0;"ORANGE"
55013;55.41194;-21.29028;"55° 24' 43.00'' Est, 21° 17' 25.00'' Sud";"97414";;"152 R DU DR RAYMOND VERGÈS";"97450";"SAINT-LOUIS";"Immeuble"; 16.0;"Particulier"
63596;55.74778;-21.11889;"55° 44' 52.00'' Est, 21° 07' 08.00'' Sud";"97410";"LES ORANGERS";"RTE HUBERT DELISLE";"97470";"SAINT-BENOIT";"Pylône autostable"; 12.0;"ORANGE"
65329;55.70222;-21.07000;"55° 42' 08.00'' Est, 21° 04' 12.00'' Sud";"97410";;"LA PIERRE";"97470";"SAINT-BENOIT";"Bâtiment"; 8.0;"ORANGE Services Fixes"
65532;55.49611;-20.94361;"55° 29' 46.00'' Est, 20° 56' 37.00'' Sud";"97411";;"CHEMIN DE MONTAUBAN";"97490";"SAINT-DENIS";"Mât"; 8.0;"ORANGE Services Fixes"
67268;55.70944;-21.37472;"55° 42' 34.00'' Est, 21° 22' 29.00'' Sud";"97412";"BASSE VALLÉE";"GFA DES GIROFLES BASSE VALLEE";"97480";"SAINT-JOSEPH";"Mât béton"; 20.0;"Sté Réunionn. de Radiotéléph."
67588;55.63333;-21.31167;"55° 37' 60.00'' Est, 21° 18' 42.00'' Sud";"97412";"LE SERRE";"RTE DE GRAND COUDE";"97480";"SAINT-JOSEPH";"Mât"; 8.0;"ORANGE Services Fixes"
67605;55.61167;-21.35278;"55° 36' 42.00'' Est, 21° 21' 10.00'' Sud";"97412";"LES LIANES";"CAROSSE BESAVES AUTOCOM";"97480";"SAINT-JOSEPH";"Bâtiment"; 8.0;"ORANGE Services Fixes"
130272;55.41972;-20.87500;"55° 25' 11.00'' Est, 20° 52' 30.00'' Sud";"97411";"CAP BERNARD";"RN 1";"97490";"SAINT-DENIS";"Pylône autostable"; 12.0;"ORANGE Services Fixes"
147202;55.62639;-21.13500;"55° 37' 35.00'' Est, 21° 08' 06.00'' Sud";"97406";;"R DE LA RÉPUBLIQUE BUREAU DE POSTE PREMIER VILLAGE";"97431";"LA PLAINE-DES-PALMISTES";"Bâtiment"; 12.0;"ORANGE Services Fixes"
147484;55.49194;-21.14000;"55° 29' 31.00'' Est, 21° 08' 24.00'' Sud";"97424";"ILET DU BRAS SEC";"CHEMIN VIGNERON";"97413";"CILAOS";"Bâtiment"; 5.0;"ORANGE Services Fixes"
147502;55.53889;-21.02889;"55° 32' 20.00'' Est, 21° 01' 44.00'' Sud";"97421";;"ROUTE DE SALAZIE PRÉS D48";"97433";"SALAZIE";"Bâtiment"; 10.0;"ORANGE Services Fixes"
147521;55.49500;-20.89667;"55° 29' 42.00'' Est, 20° 53' 48.00'' Sud";"97411";"LE CHAUDRON";"STATION MÉTÉOROLOGIQUE B.P. 4232";"97490";"SAINT-DENIS";"Bâtiment"; 13.0;"Météo"
147555;55.35278;-21.21139;"55° 21' 10.00'' Est, 21° 12' 41.00'' Sud";"97401";"TEVELAVE";"CHEM MAURER";"97425";"LES AVIRONS";"Bâtiment"; 7.0;"ORANGE Services Fixes"
147678;55.38083;-20.98056;"55° 22' 51.00'' Est, 20° 58' 50.00'' Sud";"97408";"DOS D'ÂNE";;"97419";"LA POSSESSION";"Bâtiment"; 9.0;"ORANGE Services Fixes"
147682;55.43639;-20.92139;"55° 26' 11.00'' Est, 20° 55' 17.00'' Sud";"97411";"LE BRULE";"167, ROUTE DES BAMBOUS";"97490";"SAINT-DENIS";"Bâtiment"; 8.0;"ORANGE Services Fixes"
147705;55.70750;-21.34861;"55° 42' 27.00'' Est, 21° 20' 55.00'' Sud";"97417";"BASSE VALLÉE";;"97442";"SAINT-PHILIPPE";"Bâtiment"; 8.0;"ORANGE Services Fixes"
147708;55.63222;-21.07639;"55° 37' 56.00'' Est, 21° 04' 35.00'' Sud";"97410";"TAKAMAKA";"D53 POINT KILOMÉTRIQUE 12";"97470";"SAINT-BENOIT";"Bâtiment"; 10.0;"ORANGE Services Fixes"
147712;55.48583;-20.89417;"55° 29' 09.00'' Est, 20° 53' 39.00'' Sud";"97411";"STE CLOTHILDE";"CD 44 LE CHAUDRON";"97490";"SAINT-DENIS";"Bâtiment"; 14.0;"ORANGE Services Fixes"
147739;55.55194;-21.21667;"55° 33' 07.00'' Est, 21° 12' 60.00'' Sud";"97422";"LA PLAINE DES CAFRES";"R RAPHAEL DOUYERE";"97430";"LE TAMPON";"Bâtiment"; 4.0;"ORANGE Services Fixes"
158667;55.45333;-20.88417;"55° 27' 12.00'' Est, 20° 53' 03.00'' Sud";"97411";;"25 CITE FERDINAND";"97490";"SAINT-DENIS";"Support non décrit"; 7.0;
158953;55.50944;-21.21167;"55° 30' 34.00'' Est, 21° 12' 42.00'' Sud";"97403";;"STATION POMPAGE BRAS DE PLAINE";"97414";"ENTRE-DEUX";"Support non décrit"; 10.0;
158955;55.50139;-21.22750;"55° 30' 05.00'' Est, 21° 13' 39.00'' Sud";"97422";;"RESERVOIR BRAS DE PONTHO";"97430";"LE TAMPON";"Support non décrit"; 10.0;
175944;55.74861;-21.34056;"55° 44' 55.00'' Est, 21° 20' 26.00'' Sud";"97417";;"SENTIER BOTANIQUE";"97442";"SAINT-PHILIPPE";"Support non décrit";;
204311;55.46694;-20.93500;"55° 28' 01.00'' Est, 20° 56' 06.00'' Sud";"97411";;"232 RTE DU PITON BOIS DE NEFLE";"97490";"SAINT-DENIS";"Support non décrit"; 3.0;
204373;55.42389;-20.89806;"55° 25' 26.00'' Est, 20° 53' 53.00'' Sud";"97411";;"PYLONE SFR LE COLORADO";"97490";"SAINT-DENIS";"Pylône autostable"; 18.0;"SFR"
204375;55.43889;-20.91500;"55° 26' 20.00'' Est, 20° 54' 54.00'' Sud";"97411";;"RESERVOIR DU BRULE";"97490";"SAINT-DENIS";"Château d'eau - réservoir"; 10.0;
204463;55.42417;-21.07528;"55° 25' 27.00'' Est, 21° 04' 31.00'' Sud";"97408";"LA NOUVELLE";;"97419";"LA POSSESSION";"Mât"; 3.0;"ORANGE Services Fixes"
204743;55.60028;-21.25250;"55° 36' 01.00'' Est, 21° 15' 09.00'' Sud";"97422";"NOTRE DAME DE LA PAIX";;"97430";"LE TAMPON";"Bâtiment"; 6.0;"ORANGE Services Fixes"
204747;55.61583;-21.24611;"55° 36' 57.00'' Est, 21° 14' 46.00'' Sud";"97412";"ROCHE PLATE";;"97480";"SAINT-JOSEPH";"Bâtiment"; 7.0;
204757;55.42778;-21.02639;"55° 25' 40.00'' Est, 21° 01' 35.00'' Sud";"97408";"ILET À MALHEUR";;"97419";"LA POSSESSION";"Bâtiment"; 4.0;"ORANGE Services Fixes"
204763;55.53667;-21.06056;"55° 32' 12.00'' Est, 21° 03' 38.00'' Sud";"97421";"MAISON FORESTIÈRE DE BELOUVE";;"97433";"SALAZIE";"Bâtiment"; 7.0;"Etat, Ministère"
204881;55.74194;-21.07861;"55° 44' 31.00'' Est, 21° 04' 43.00'' Sud";"97410";"STE ANNE";"AUTOCOM";"97470";"SAINT-BENOIT";"Bâtiment"; 5.0;"ORANGE Services Fixes"
204896;55.49639;-21.10972;"55° 29' 47.00'' Est, 21° 06' 35.00'' Sud";"97424";"GITE DU PITON DES NEIGES";"GITE DE LA CAVERNE DU FOUR";"97413";"CILAOS";"Bâtiment"; 6.0;
204898;55.40944;-21.03972;"55° 24' 34.00'' Est, 21° 02' 23.00'' Sud";"97408";"GRAND-PLACE";"CIRQUE DE MAFATE ECOLE DE GRAND PLACE";"97419";"LA POSSESSION";"Bâtiment"; 5.0;"ORANGE Services Fixes"
240702;55.48611;-21.01778;"55° 29' 10.00'' Est, 21° 01' 04.00'' Sud";"97421";"GRAND ILET";"90 CHEM DES VÉTYVERS- MARE À MARTIN";"97433";"SALAZIE";"Pylône autostable"; 12.0;"ORANGE"
266699;55.72389;-21.11167;"55° 43' 26.00'' Est, 21° 06' 42.00'' Sud";"97410";;"190 CD 3";"97470";"SAINT-BENOIT";"Pylône autostable"; 15.0;
276239;55.61639;-21.37750;"55° 36' 59.00'' Est, 21° 22' 39.00'' Sud";"97412";;"2 R MAURY";"97480";"SAINT-JOSEPH";"Pylône autostable"; 20.0;"ORANGE Services Fixes"
276243;55.34111;-20.95194;"55° 20' 28.00'' Est, 20° 57' 07.00'' Sud";"97408";"STE THÉRÈSE";"CH DE BOEUF MORT";"97419";"LA POSSESSION";"Bâtiment"; 19.0;"ORANGE Services Fixes"
276249;55.33333;-20.98389;"55° 20' 00.00'' Est, 20° 59' 02.00'' Sud";"97415";"LA PLAINE";"R LECONTE DE LISLE";"97434";"SAINT-PAUL";"Immeuble"; 13.0;"ORANGE Services Fixes"
276255;55.30056;-20.93806;"55° 18' 02.00'' Est, 20° 56' 17.00'' Sud";"97407";;"8 R DU PÈRE LAFOSSSE";"97420";"LE PORT";"Immeuble"; 21.0;"ORANGE Services Fixes"
276275;55.31528;-21.14194;"55° 18' 55.00'' Est, 21° 08' 31.00'' Sud";"97413";;"LA CHALOUPE";"97436";"SAINT-LEU";"Pylône autostable"; 18.0;"ORANGE Services Fixes"
276283;55.61083;-21.35250;"55° 36' 39.00'' Est, 21° 21' 09.00'' Sud";"97412";;"LES LIANES";"97480";"SAINT-JOSEPH";"Pylône autostable"; 18.0;"ORANGE Services Fixes"
276293;55.52694;-21.25611;"55° 31' 37.00'' Est, 21° 15' 22.00'' Sud";"97422";;"28 CHEM  LUPSOT 13ÈME KM";"97430";"LE TAMPON";"Pylône autostable"; 30.0;"ORANGE"
276301;55.33361;-20.93333;"55° 20' 01.00'' Est, 20° 56' 00.00'' Sud";"97408";;"R LOUIS ARAGON";"97419";"LA POSSESSION";"Immeuble"; 18.0;"Société HLM"
276305;55.31083;-20.94111;"55° 18' 39.00'' Est, 20° 56' 28.00'' Sud";"97407";;"AV DE LA COMPAGNIE DES INDES";"97420";"LE PORT";"Bâtiment"; 14.0;"Copropriété, Syndic, SCI"
276307;55.63778;-20.93861;"55° 38' 16.00'' Est, 20° 56' 19.00'' Sud";"97420";;"R RAYMOND VERGES-QUARTIER FRANÇAIS";"97441";"SAINTE-SUZANNE";"Local technique"; 10.0;"Commune, communauté de commune"
276315;55.55639;-20.89778;"55° 33' 23.00'' Est, 20° 53' 52.00'' Sud";"97418";"LES GASPARDS";"R SIMONE SIGNORET";"97438";"SAINTE-MARIE";"Immeuble"; 26.0;"Société HLM"
276317;55.63333;-21.37000;"55° 37' 60.00'' Est, 21° 22' 12.00'' Sud";"97412";;"CHEM AIMÉE TURPIN - ANG CH. DES PRUNES";"97480";"SAINT-JOSEPH";"Mât béton"; 16.0;"ORANGE"
276321;55.65111;-21.37806;"55° 39' 04.00'' Est, 21° 22' 41.00'' Sud";"97412";;"CHEM TERRAIN - LANGEVIN";"97480";"SAINT-JOSEPH";"Pylône autostable"; 25.0;"ORANGE"
276324;55.70861;-21.37444;"55° 42' 31.00'' Est, 21° 22' 28.00'' Sud";"97417";;"BARIL BASSE VALLEE";"97442";"SAINT-PHILIPPE";"Mât béton"; 16.0;"Commune, communauté de commune"
276331;55.33667;-20.92944;"55° 20' 12.00'' Est, 20° 55' 46.00'' Sud";"97408";;"R HUBERT DE LISLE - IMM SIDR";"97419";"LA POSSESSION";"Immeuble"; 15.0;"Copropriété, Syndic, SCI"
276339;55.40000;-21.29417;"55° 23' 60.00'' Est, 21° 17' 39.00'' Sud";"97414";"Z.I. BEL AIR";"7 R FRANÇOIS CUDENET";"97450";"SAINT-LOUIS";"Pylône tubulaire"; 16.0;"ORANGE Services Fixes"
276341;55.62028;-20.95167;"55° 37' 13.00'' Est, 20° 57' 06.00'' Sud";"97420";"DEUX RIVES";"CHEM D AMOUR LAURENT";"97441";"SAINTE-SUZANNE";"Pylône autostable"; 18.0;"ORANGE Services Fixes"
276343;55.30750;-21.21583;"55° 18' 27.00'' Est, 21° 12' 57.00'' Sud";"97413";;"LES FRANGIPANIERS - LE PORTAIL";"97436";"SAINT-LEU";"Pylône autostable"; 18.0;"ORANGE Services Fixes"
276347;55.67944;-20.99722;"55° 40' 46.00'' Est, 20° 59' 50.00'' Sud";"97402";;"1 R EUGÉNIE DAYOT";"97412";"BRAS-PANON";"Immeuble"; 16.0;"Copropriété, Syndic, SCI"
276355;55.31861;-20.96250;"55° 19' 07.00'' Est, 20° 57' 45.00'' Sud";"97407";;"68 B /70 R JACQUES DUCLOS";"97420";"LE PORT";"Immeuble"; 19.0;"Société HLM"
276363;55.40389;-21.28778;"55° 24' 14.00'' Est, 21° 17' 16.00'' Sud";"97414";;"STADE DE ST LOUIS";"97450";"SAINT-LOUIS";"Pylône autostable"; 23.0;"Commune, communauté de commune"
276369;55.46111;-20.88833;"55° 27' 40.00'' Est, 20° 53' 18.00'' Sud";"97411";;"39 R DU GÉNÉRAL ROLAND";"97490";"SAINT-DENIS";"Immeuble"; 35.0;"Copropriété, Syndic, SCI"
276377;55.47389;-21.31444;"55° 28' 26.00'' Est, 21° 18' 52.00'' Sud";"97416";;"R BENOITE BOULARD - ZI 2";"97432";"SAINT-PIERRE";"Mât béton"; 15.0;"ORANGE"
276383;55.65167;-20.96444;"55° 39' 06.00'' Est, 20° 57' 52.00'' Sud";"97409";"MILLE ROCHES";"300 R DU LYCÉE";"97440";"SAINT-ANDRE";"Immeuble"; 33.0;"Société HLM"
276389;55.45417;-20.87528;"55° 27' 15.00'' Est, 20° 52' 31.00'' Sud";"97411";;"4 BD LANCASTEL";"97400";"SAINT-DENIS";"Immeuble"; 15.0;"Copropriété, Syndic, SCI"
276405;55.49750;-21.29861;"55° 29' 51.00'' Est, 21° 17' 55.00'' Sud";"97416";;"59 CHEM DE CONCESSION CONDE";"97432";"SAINT-PIERRE";"Mât béton"; 16.0;"ORANGE"
276411;55.35861;-21.21139;"55° 21' 31.00'' Est, 21° 12' 41.00'' Sud";"97401";"TÉLEVAVE";"CHEM FRANCIS RIVIÈRE";"97425";"LES AVIRONS";"Pylône autostable"; 18.0;"ORANGE"
276419;55.72083;-21.04611;"55° 43' 15.00'' Est, 21° 02' 46.00'' Sud";"97410";"BEAUFOND";"CITÉ JOSEPH HUBERT 2-BÂT. D";"97470";"SAINT-BENOIT";"Immeuble"; 16.0;"Copropriété, Syndic, SCI"
276421;55.45639;-21.29944;"55° 27' 23.00'' Est, 21° 17' 58.00'' Sud";"97416";;"5 AV LAURENT VERGÈS";"97432";"SAINT-PIERRE";"Immeuble"; 20.0;"Société HLM"
276427;55.32750;-20.94750;"55° 19' 39.00'' Est, 20° 56' 51.00'' Sud";"97408";"ZAC BALTHASAR";"R D HANOÏ";"97419";"LA POSSESSION";"Mât béton"; 15.0;"ORANGE"
276431;55.29000;-20.93833;"55° 17' 24.00'' Est, 20° 56' 18.00'' Sud";"97407";;"65-67 R DE ST PAUL";"97420";"LE PORT";"Immeuble"; 17.0;"ORANGE"
276433;55.67194;-20.94500;"55° 40' 19.00'' Est, 20° 56' 42.00'' Sud";"97409";;"CITÉ SATEC - CHEM LAGOURGUE";"97440";"SAINT-ANDRE";"Pylône autostable"; 18.0;"ORANGE"
276441;55.51889;-20.92361;"55° 31' 08.00'' Est, 20° 55' 25.00'' Sud";"97418";;"90 R DE LA GRANDE MONTÉE";"97438";"SAINTE-MARIE";"Pylône autostable"; 16.0;"ORANGE"
276447;55.71083;-21.05167;"55° 42' 39.00'' Est, 21° 03' 06.00'' Sud";"97410";"BRAS-FUSIL";"R JEAN MONNET RÉSIDENCE LES CASCADES";"97470";"SAINT-BENOIT";"Immeuble"; 17.0;"Copropriété, Syndic, SCI"
276449;55.63361;-21.33917;"55° 38' 01.00'' Est, 21° 20' 21.00'' Sud";"97412";"JEAN PETIT";"22 R DU LAVOIR";"97480";"SAINT-JOSEPH";"Mât béton"; 16.0;"ORANGE"
276453;55.29528;-21.06361;"55° 17' 43.00'' Est, 21° 03' 49.00'' Sud";"97415";"TAN-ROUGE";"CHEM DE LA MAIRIE TAN ROUGE";"97434";"SAINT-PAUL";"Mât béton"; 14.0;"ORANGE"
276457;55.68472;-21.01056;"55° 41' 05.00'' Est, 21° 00' 38.00'' Sud";"97410";"RIVIÈRE DES ROCHES";"91 R CHEM BASSIN LA PAIX";"97470";"SAINT-BENOIT";"Pylône autostable"; 16.0;"ORANGE"
276459;55.56833;-20.89556;"55° 34' 06.00'' Est, 20° 53' 44.00'' Sud";"97418";"LA CONVENANCE EST";"4 R MARCEL PROUST";"97438";"SAINTE-MARIE";"Immeuble"; 18.0;"Société HLM"
276481;55.72806;-21.05889;"55° 43' 41.00'' Est, 21° 03' 32.00'' Sud";"97410";"RAVINE SÈCHE";"6, CHEM SÉVÈRE RAVINE SÈCHE";"97470";"SAINT-BENOIT";"Pylône autostable"; 16.0;"ORANGE"
276491;55.33972;-21.23778;"55° 20' 23.00'' Est, 21° 14' 16.00'' Sud";"97401";;"RTE DES POIVRIERS CD 16";"97425";"LES AVIRONS";"Bâtiment"; 15.0;"ORANGE"
276497;55.30278;-21.19250;"55° 18' 10.00'' Est, 21° 11' 33.00'' Sud";"97413";"GRAND FOND";"N° 64 CD 25/SECTION CX N° 483";"97436";"SAINT-LEU";"Mât béton"; 15.0;"ORANGE"
276499;55.29528;-20.94250;"55° 17' 43.00'' Est, 20° 56' 33.00'' Sud";"97407";;"5 R ST-ANGE DOXIL RÉSIDENCE LES CHOCAS";"97420";"LE PORT";"Immeuble"; 19.0;"Copropriété, Syndic, SCI"
276505;55.48639;-21.34222;"55° 29' 11.00'' Est, 21° 20' 32.00'' Sud";"97416";"BASSIN BOEUF";"N° 4 R DES LYS";"97432";"SAINT-PIERRE";"Mât béton"; 16.0;"ORANGE"
276507;55.46056;-20.92194;"55° 27' 38.00'' Est, 20° 55' 19.00'' Sud";"97411";;"72 CHEM DES FOUGÈRES ST-FRANÇOIS";"97490";"SAINT-DENIS";"Pylône autostable"; 6.0;"ORANGE"
276515;55.74472;-21.08889;"55° 44' 41.00'' Est, 21° 05' 20.00'' Sud";"97410";"PETIT ST-PIERRE";"36, CHEM LIGNE 440";"97470";"SAINT-BENOIT";"Pylône autostable"; 16.0;"ORANGE"
276537;55.54889;-20.89778;"55° 32' 56.00'' Est, 20° 53' 52.00'' Sud";"97418";"LA DÉCOUVERTE";"ZATTE MANGUE, R 20 DÉCEMBRE";"97438";"SAINTE-MARIE";"Immeuble"; 18.0;"Société HLM"
278706;55.46000;-21.29139;"55° 27' 36.00'' Est, 21° 17' 29.00'' Sud";"97416";;"6 IMP GRANULANT RAVINE DES CABRIS";"97432";"SAINT-PIERRE";"Bâtiment"; 6.0;"Particulier"
284582;55.62222;-21.00528;"55° 37' 20.00'' Est, 21° 00' 19.00'' Sud";"97402";"BELLE VUE LES HAUTS";"24 CHEM BELLEVUE";"97412";"BRAS-PANON";"Pylône haubané"; 10.0;
289942;55.35972;-20.96861;"55° 21' 35.00'' Est, 20° 58' 07.00'' Sud";"97408";"RESERVOIR";"R DENIS DIDEROT";"97419";"LA POSSESSION";"Pylône tubulaire"; 12.0;"Sté Réunionn. de Radiotéléph."
289944;55.26944;-21.07250;"55° 16' 10.00'' Est, 21° 04' 21.00'' Sud";"97415";"CAROSSE";"R ANTIMENE";"97434";"SAINT-PAUL";"Pylône autostable"; 16.0;"Sté Réunionn. de Radiotéléph."
290168;55.55389;-21.32389;"55° 33' 14.00'' Est, 21° 19' 26.00'' Sud";"97416";"GOYAVE";"29 R DE LA COUR";"97432";"SAINT-PIERRE";"Mât béton"; 16.0;"Sté Réunionn. de Radiotéléph."
290170;55.64806;-21.33472;"55° 38' 53.00'' Est, 21° 20' 05.00'' Sud";"97412";"LA CRETE";"19 CHEM DES FRELONS";"97480";"SAINT-JOSEPH";"Mât béton"; 16.0;"Sté Réunionn. de Radiotéléph."
290381;55.66667;-20.96833;"55° 39' 60.00'' Est, 20° 58' 06.00'' Sud";"97409";;"ANGLE CHEM RAVINE CREUSE ET BALANCE";"97440";"SAINT-ANDRE";"Pylône autostable"; 16.0;"Sté Réunionn. de Radiotéléph."
290773;55.31028;-21.13417;"55° 18' 37.00'' Est, 21° 08' 03.00'' Sud";"97413";"BRAS MOUTON";"R ALEXANDRE BEGUE";"97436";"SAINT-LEU";"Bâtiment"; 5.7;"Sté Réunionn. de Radiotéléph."
291084;55.30333;-21.19278;"55° 18' 12.00'' Est, 21° 11' 34.00'' Sud";"97413";;"30 CHEM MAZEAU";"97436";"SAINT-LEU";"Mât béton"; 16.0;"Sté Réunionn. de Radiotéléph."
291086;55.42139;-21.24417;"55° 25' 17.00'' Est, 21° 14' 39.00'' Sud";"97414";"LES CANNOTS";"CHEM LOUIS LEBON";"97450";"SAINT-LOUIS";"Mât béton"; 16.0;"Sté Réunionn. de Radiotéléph."
291088;55.50250;-21.24806;"55° 30' 09.00'' Est, 21° 14' 53.00'' Sud";"97422";;"CHEM POIVRE";"97430";"LE TAMPON";"Mât béton"; 16.0;"Sté Réunionn. de Radiotéléph."
291557;55.28667;-21.09667;"55° 17' 12.00'' Est, 21° 05' 48.00'' Sud";"97415";;"77 CHEM DE LIGNE";"97434";"SAINT-PAUL";"Mât béton"; 17.5;"Sté Réunionn. de Radiotéléph."
291676;55.46833;-20.89500;"55° 28' 06.00'' Est, 20° 53' 42.00'' Sud";"97411";"LA TRINITE";"BAT 22";"97490";"SAINT-DENIS";"Immeuble"; 19.0;"Sté Réunionn. de Radiotéléph."
292094;55.54139;-21.24028;"55° 32' 29.00'' Est, 21° 14' 25.00'' Sud";"97422";;"N°10 CHEM DE NORMANDIE";"97430";"LE TAMPON";"Mât béton"; 16.0;"Sté Réunionn. de Radiotéléph."
296823;55.52056;-21.24556;"55° 31' 14.00'' Est, 21° 14' 44.00'' Sud";"97422";"N°26 R DES BAMBOUS";"CHEM BARROT";"97430";"LE TAMPON";"Mât béton"; 16.0;"Sté Réunionn. de Radiotéléph."
296827;55.33056;-21.04556;"55° 19' 50.00'' Est, 21° 02' 44.00'' Sud";"97415";"PETITE FRANCE";"CHEM DU MAIDO LE GUILLAUME";"97434";"SAINT-PAUL";"Mât béton"; 16.0;"Sté Réunionn. de Radiotéléph."
296829;55.37028;-20.92250;"55° 22' 13.00'' Est, 20° 55' 21.00'' Sud";"97408";;"CD 441";"97419";"LA POSSESSION";"Mât béton"; 16.0;"Sté Réunionn. de Radiotéléph."
297294;55.52306;-21.06417;"55° 31' 23.00'' Est, 21° 03' 51.00'' Sud";"97421";"HELL BOURG";"13 IMP DES SONGES";"97433";"SALAZIE";"Pylône autostable"; 10.0;"Titulaire programme Radio/TV"
298182;55.79611;-21.29139;"55° 47' 46.00'' Est, 21° 17' 29.00'' Sud";"97417";"BRAS DU REMPART";"TREMBLET";"97442";"SAINT-PHILIPPE";"Pylône autostable"; 25.0;"Sté Réunionn. de Radiotéléph."
298955;55.38750;-21.07028;"55° 23' 15.00'' Est, 21° 04' 13.00'' Sud";"97415";"LE MAIDO";"MAFATE";"97434";"SAINT-PAUL";"Mât métallique"; 3.0;"ORANGE Services Fixes"
298959;55.43028;-21.27861;"55° 25' 49.00'' Est, 21° 16' 43.00'' Sud";"97414";"PLATEAU GOYAVE";"CHEM PETIT BONDIEU";"97450";"SAINT-LOUIS";"Pylône autostable"; 16.0;"ORANGE"
299249;55.48944;-20.93417;"55° 29' 22.00'' Est, 20° 56' 03.00'' Sud";"97411";"LA BRETAGNE - STE CLOTILDE";"23 T CHEM DES ACACIAS";"97490";"SAINT-DENIS";"Pylône autostable"; 12.0;"Titulaire programme Radio/TV"
299375;55.42222;-21.02250;"55° 25' 20.00'' Est, 21° 01' 21.00'' Sud";"97408";"MAFATE";"AURÈRE MAFATE";"97419";"LA POSSESSION";"Pylône autostable"; 12.0;"Titulaire programme Radio/TV"
300370;55.28917;-21.04583;"55° 17' 21.00'' Est, 21° 02' 45.00'' Sud";"97415";"LE BERNICA";"CHEM BRAS MOUTON";"97434";"SAINT-PAUL";"Pylône tubulaire"; 18.0;"ORANGE"
300379;55.50056;-20.90306;"55° 30' 02.00'' Est, 20° 54' 11.00'' Sud";"97411";;"R RENÉ DE MARNE TECHNOPOLE";"97490";"SAINT-DENIS";"Bâtiment"; 15.0;
300382;55.47028;-21.33639;"55° 28' 13.00'' Est, 21° 20' 11.00'' Sud";"97416";"HÔTEL STERNE";"73, R LORION";"97432";"SAINT-PIERRE";"Bâtiment"; 11.0;"Société Privée SA"
300608;55.32861;-21.16444;"55° 19' 43.00'' Est, 21° 09' 52.00'' Sud";"97413";"CHALOUPE ST-LEU - LES CAMÉLIAS";"08 R BASSON";"97436";"SAINT-LEU";"Pylône autostable"; 18.0;"ORANGE"
300610;55.62694;-21.29500;"55° 37' 37.00'' Est, 21° 17' 42.00'' Sud";"97412";"GRAND COUDE";"R DE L'USINE À THÉ";"97480";"SAINT-JOSEPH";"Pylône autostable"; 19.0;"ORANGE"
300783;55.72639;-21.36306;"55° 43' 35.00'' Est, 21° 21' 47.00'' Sud";"97417";"LE BARIL DES HAUTS";"21 CHEM PAUL HOAREAU";"97442";"SAINT-PHILIPPE";"Pylône autostable"; 16.0;"ORANGE"
304279;55.46583;-20.88806;"55° 27' 57.00'' Est, 20° 53' 17.00'' Sud";"97411";;"POSTE LES DATTIERS";"97490";"SAINT-DENIS";"Mât";;
304281;55.45000;-20.87917;"55° 27' 00.00'' Est, 20° 52' 45.00'' Sud";"97411";;"14 R STE ANNE";"97490";"SAINT-DENIS";"Bâtiment"; 12.0;"EDF GDF"
304373;55.42194;-21.20222;"55° 25' 19.00'' Est, 21° 12' 08.00'' Sud";"97414";"PLAINE DES MAKES";"CHEM MONT-PLAISIR";"97450";"SAINT-LOUIS";"Pylône autostable"; 15.0;"ORANGE"
305092;55.34750;-21.04806;"55° 20' 51.00'' Est, 21° 02' 53.00'' Sud";"97415";"PETITE FRANCE";"RTE FORESTIÈRE DES CRYPTOMERIAS";"97434";"SAINT-PAUL";"Pylône autostable"; 17.0;"Particulier"
307979;55.45083;-20.97306;"55° 27' 03.00'' Est, 20° 58' 23.00'' Sud";"97411";"LA ROCHE ECRITE";"COTE 1834";"97490";"SAINT-DENIS";"Mât"; 14.0;
307981;55.43972;-20.93278;"55° 26' 23.00'' Est, 20° 55' 58.00'' Sud";"97411";"LE BRULE";"CHEM DE LA RTE ECRITE";"97490";"SAINT-DENIS";"Mât"; 10.0;
308240;55.70222;-21.07056;"55° 42' 08.00'' Est, 21° 04' 14.00'' Sud";"97410";;"LES JACQUES CITE SMA";"97470";"SAINT-BENOIT";"Mât"; 3.0;
308242;55.71250;-21.03444;"55° 42' 45.00'' Est, 21° 02' 04.00'' Sud";"97410";;"R GEORGES POMPIDOU";"97470";"SAINT-BENOIT";"Bâtiment"; 12.0;
308244;55.74389;-21.08250;"55° 44' 38.00'' Est, 21° 04' 57.00'' Sud";"97410";;"12 CHEM MORANGE MAIRIE DE STE ANNE";"97470";"SAINT-BENOIT";"Bâtiment"; 8.0;
310024;55.48611;-20.91444;"55° 29' 10.00'' Est, 20° 54' 52.00'' Sud";"97411";"MOUFIA";"17 ALL DES TULIPES";"97490";"SAINT-DENIS";"Pylône autostable"; 12.0;"Sté Réunionn. de Radiotéléph."
318676;55.47167;-21.13861;"55° 28' 18.00'' Est, 21° 08' 19.00'' Sud";"97424";"R DES ROSES";;"97413";"CILAOS";"Pylône haubané"; 12.0;"Titulaire programme Radio/TV"
320339;55.42278;-20.88944;"55° 25' 22.00'' Est, 20° 53' 22.00'' Sud";"97411";;"3 CHEM BAILLY";"97490";"SAINT-DENIS";"Mât béton"; 12.0;"Outremer Telecom"
320499;55.34139;-20.92722;"55° 20' 29.00'' Est, 20° 55' 38.00'' Sud";"97408";;"22 R VALENTIN ABRAL";"97419";"LA POSSESSION";"Mât béton"; 10.0;"Outremer Telecom"
320503;55.34028;-20.95250;"55° 20' 25.00'' Est, 20° 57' 09.00'' Sud";"97408";;"1 CHEM ANCELLY";"97419";"LA POSSESSION";"Immeuble"; 11.0;"Particulier"
320673;55.69944;-21.07472;"55° 41' 58.00'' Est, 21° 04' 29.00'' Sud";"97410";;"RN3 LA CONFIANCE PRES RÉSERVOIR";"97470";"SAINT-BENOIT";"Mât béton"; 14.0;"Telco OI"
320931;55.34694;-20.92639;"55° 20' 49.00'' Est, 20° 55' 35.00'' Sud";"97408";;"50 B  CD 41";"97419";"LA POSSESSION";"Mât"; 3.0;"Outremer Telecom"
326278;55.48056;-20.89111;"55° 28' 50.00'' Est, 20° 53' 28.00'' Sud";"97411";;"21 AV LECONTE DE LISLE";"97490";"SAINT-DENIS";"Bâtiment"; 3.0;
326462;55.70444;-21.07028;"55° 42' 16.00'' Est, 21° 04' 13.00'' Sud";"97410";"LA CONFIANCE";"24 LOT CHAMPAK";"97470";"SAINT-BENOIT";"Pylône autostable"; 16.0;"Sté Réunionn. de Radiotéléph."
327951;55.45139;-21.31889;"55° 27' 05.00'' Est, 21° 19' 08.00'' Sud";"97416";"ZI N°3";"15 AV CHARLES ISAUTIER";"97432";"SAINT-PIERRE";"Pylône autostable"; 25.0;"Sté Réunionn. de Radiotéléph."
328376;55.36528;-21.24750;"55° 21' 55.00'' Est, 21° 14' 51.00'' Sud";"97404";;"231 RTE CANOTS";"97427";"L'ETANG-SALE";"Mât"; 7.0;
329733;55.78667;-21.34472;"55° 47' 12.00'' Est, 21° 20' 41.00'' Sud";"97417";;"CHEM MONT SERIN";"97442";"SAINT-PHILIPPE";"Pylône autostable"; 25.0;"Sté Réunionn. de Radiotéléph."
331454;55.68889;-20.97278;"55° 41' 20.00'' Est, 20° 58' 22.00'' Sud";"97409";;"CHEM GRAND CANAL RIVIERE DU MAT LES BAS";"97440";"SAINT-ANDRE";"Bâtiment"; 14.8;"Sté Réunionn. de Radiotéléph."
334905;55.58194;-21.27500;"55° 34' 55.00'' Est, 21° 16' 30.00'' Sud";"97422";"LE TAMPON BERGERIE";"NOTRE DAME DE LA PAIX";"97430";"LE TAMPON";"Mât béton"; 16.0;"Sté Réunionn. de Radiotéléph."
335430;55.73833;-21.11583;"55° 44' 18.00'' Est, 21° 06' 57.00'' Sud";"97410";"CAMBOURG";"CD 3";"97470";"SAINT-BENOIT";"Mât béton"; 16.0;"Sté Réunionn. de Radiotéléph."
337890;55.41333;-21.28972;"55° 24' 48.00'' Est, 21° 17' 23.00'' Sud";"97414";;"21 R LAMBERT";"97450";"SAINT-LOUIS";"Bâtiment"; 15.0;
337892;55.45056;-20.87278;"55° 27' 02.00'' Est, 20° 52' 22.00'' Sud";"97411";;"2 R JULIETTE DODU";"97490";"SAINT-DENIS";"Bâtiment"; 10.0;
337894;55.49250;-20.88972;"55° 29' 33.00'' Est, 20° 53' 23.00'' Sud";"97411";;"11 ALLEE MAUREAU STE CLOTILDE";"97490";"SAINT-DENIS";"Bâtiment"; 10.0;
337898;55.72111;-21.03833;"55° 43' 16.00'' Est, 21° 02' 18.00'' Sud";"97410";;"66 R AMIRAL BOUVET";"97470";"SAINT-BENOIT";"Bâtiment"; 10.0;
337902;55.45556;-21.33278;"55° 27' 20.00'' Est, 21° 19' 58.00'' Sud";"97416";;"ZI NUMERO 1 LA RAVINE BLANCHE";"97432";"SAINT-PIERRE";"Bâtiment"; 10.0;
337904;55.28611;-20.93528;"55° 17' 10.00'' Est, 20° 56' 07.00'' Sud";"97407";;"R CHARLES DICKENS";"97420";"LE PORT";"Bâtiment"; 10.0;
337906;55.44611;-20.87556;"55° 26' 46.00'' Est, 20° 52' 32.00'' Sud";"97411";;"1 AV DE LA VICTOIRE";"97490";"SAINT-DENIS";"Bâtiment"; 10.0;
337908;55.27056;-21.00806;"55° 16' 14.00'' Est, 21° 00' 29.00'' Sud";"97415";;"R EVARISTE DE PARNY";"97434";"SAINT-PAUL";"Bâtiment"; 10.0;
337910;55.48000;-21.33861;"55° 28' 48.00'' Est, 21° 20' 19.00'' Sud";"97416";;"R AUGUSTIN ARCHAMBAUD";"97432";"SAINT-PIERRE";"Bâtiment"; 10.0;
337912;55.71222;-21.03806;"55° 42' 44.00'' Est, 21° 02' 17.00'' Sud";"97410";;"7 AV F MITTERAND";"97470";"SAINT-BENOIT";"Bâtiment"; 10.0;
337914;55.50944;-20.89056;"55° 30' 34.00'' Est, 20° 53' 26.00'' Sud";"97418";;"AEROPORT DE ST DENIS GILLOT";"97438";"SAINTE-MARIE";"Bâtiment"; 10.0;
340857;55.42278;-21.20139;"55° 25' 22.00'' Est, 21° 12' 05.00'' Sud";"97414";"BRAS SYLVERT";"65 CHEM MONTPLAISIR LES MAKES";"97450";"SAINT-LOUIS";"Mât béton"; 16.0;"Sté Réunionn. de Radiotéléph."
342593;55.46500;-21.25444;"55° 27' 54.00'' Est, 21° 15' 16.00'' Sud";"97403";;"CHEM REMY RIVIERE";"97414";"ENTRE-DEUX";"Mât béton"; 10.0;"TDF"
342930;55.47222;-21.13500;"55° 28' 20.00'' Est, 21° 08' 06.00'' Sud";"97424";"CILAOS CENTRE";"13 T R DES GLYCINES CILAOS CENTRE";"97413";"CILAOS";"Pylône autostable"; 18.0;"Sté Réunionn. de Radiotéléph."
345566;55.62444;-21.35972;"55° 37' 28.00'' Est, 21° 21' 35.00'' Sud";"97412";;"IMPASSE DU RELAIS";"97480";"SAINT-JOSEPH";"Mât béton"; 10.5;"TDF"
345772;55.63083;-20.98750;"55° 37' 51.00'' Est, 20° 59' 15.00'' Sud";"97409";"BELLEVUE";"11 CHEM DE NOTRE DAME DE ROSAIRE";"97440";"SAINT-ANDRE";"Mât béton"; 16.0;"Telco OI"
345778;55.70278;-21.03861;"55° 42' 10.00'' Est, 21° 02' 19.00'' Sud";"97410";;"49 CHEM HUBERT DE LISLE";"97470";"SAINT-BENOIT";"Mât béton"; 16.0;"Telco OI"
346837;55.66083;-20.96056;"55° 39' 39.00'' Est, 20° 57' 38.00'' Sud";"97409";"ST ANDRE BALANCE";"CHEM LEFAGUYES";"97440";"SAINT-ANDRE";"Mât béton"; 16.2;"Sté Réunionn. de Radiotéléph."
347119;55.32000;-20.93389;"55° 19' 12.00'' Est, 20° 56' 02.00'' Sud";"97407";"PORT RÉUNION EST";"CAPITAINERIE";"97420";"LE PORT";"Bâtiment"; 12.0;"DDE"
348151;55.52917;-21.35639;"55° 31' 45.00'' Est, 21° 21' 23.00'' Sud";"97416";"GRAND BOIS LES HAUTS";"CHEM EMILE HUGO";"97432";"SAINT-PIERRE";"Mât béton"; 16.0;"Telco OI"
348157;55.50167;-21.34778;"55° 30' 06.00'' Est, 21° 20' 52.00'' Sud";"97416";"ST PIEERE HOP";"CHEM TERRE ROUGE";"97432";"SAINT-PIERRE";"Mât béton"; 16.0;"Telco OI"
348159;55.66139;-20.99028;"55° 39' 41.00'' Est, 20° 59' 25.00'' Sud";"97402";;"RESERVOIR PANIANDY";"97412";"BRAS-PANON";"Mât béton"; 16.0;"Telco OI"
348165;55.64528;-21.11639;"55° 38' 43.00'' Est, 21° 06' 59.00'' Sud";"97406";;"R ANACLET BEGUE";"97431";"LA PLAINE-DES-PALMISTES";"Mât béton"; 16.0;"Telco OI"
348339;55.76444;-21.15889;"55° 45' 52.00'' Est, 21° 09' 32.00'' Sud";"97419";"RESERVOIR ST ROSE";"ROUTE DES RADIERS";"97439";"SAINTE-ROSE";"Mât béton"; 16.0;"Telco OI"
348663;55.34556;-20.92694;"55° 20' 44.00'' Est, 20° 55' 37.00'' Sud";"97408";"CITE ANDRE ROBERT";"46 B  CD 41";"97419";"LA POSSESSION";"Bâtiment"; 8.0;"Société Privée SA"
348676;55.30389;-21.04000;"55° 18' 14.00'' Est, 21° 02' 24.00'' Sud";"97415";"LE GUILLAUME";"172 ROUTE LOUISE ET JOUAN LE GUILLAUME";"97434";"SAINT-PAUL";"Bâtiment"; 12.0;"Particulier"
348877;55.22111;-21.04306;"55° 13' 16.00'' Est, 21° 02' 35.00'' Sud";"97415";;"27 DOMAINE D'ANJOU ROUTE DU THÉATRE";"97434";"SAINT-PAUL";"Mât"; 3.0;"Telco OI"
348927;55.38500;-20.89083;"55° 23' 06.00'' Est, 20° 53' 27.00'' Sud";"97411";"LA RAVINE À JACQUES";"ROUTE DU LITORAL RN1";"97490";"SAINT-DENIS";"Mât béton"; 12.0;"DDE"
348983;55.27056;-21.02194;"55° 16' 14.00'' Est, 21° 01' 19.00'' Sud";"97415";"LES COTEAUX DU BERNICA";"SHLMR BAT N°3";"97434";"SAINT-PAUL";"Immeuble"; 13.3;"Sté Réunionn. de Radiotéléph."
348989;55.42111;-20.87500;"55° 25' 16.00'' Est, 20° 52' 30.00'' Sud";"97411";;"ROUTE DU LITTORAL";"97490";"SAINT-DENIS";"Mât béton"; 16.0;"Telco OI"
349290;55.39528;-20.88222;"55° 23' 43.00'' Est, 20° 52' 56.00'' Sud";"97411";"POINTE DU GOUFFRE";"RN.1  PR6 POINTE DU GOUFFRE";"97490";"SAINT-DENIS";"Mât béton"; 12.0;"DDE"
364235;55.28583;-20.93500;"55° 17' 09.00'' Est, 20° 56' 06.00'' Sud";"97407";"PORT RÉUNION OUEST";"SUBDIVISION ENTRETIEN ET DRAGAGES R CHARLES DICKENS PARCELLE AC- LOT 76";"97420";"LE PORT";"Local technique"; 3.6;"DDE"
367160;55.29333;-20.93639;"55° 17' 36.00'' Est, 20° 56' 11.00'' Sud";"97407";;"6 R DU GÉNÉRAL EMILE ROLLAND";"97420";"LE PORT";"Bâtiment"; 10.0;
367164;55.50167;-20.90528;"55° 30' 06.00'' Est, 20° 54' 19.00'' Sud";"97411";;"3 R EMILE HUGOT ZAC DU PARC TECHNOLOGIQUE";"97490";"SAINT-DENIS";"Pylône autostable"; 12.0;"Société Privée SA"
367468;55.47639;-21.33556;"55° 28' 35.00'' Est, 21° 20' 08.00'' Sud";"97416";;"40, R DU PRESBYTÉRE";"97432";"SAINT-PIERRE";"Bâtiment"; 17.0;
374216;55.64361;-20.91472;"55° 38' 37.00'' Est, 20° 54' 53.00'' Sud";"97409";;"9 CHEM CAMP NEUF";"97440";"SAINT-ANDRE";"Pylône autostable"; 12.0;"Titulaire programme Radio/TV"
389894;55.53056;-21.31889;"55° 31' 50.00'' Est, 21° 19' 08.00'' Sud";"97416";"BÉRIVE LES BAS";"164, CHEM DE BOISSY";"97432";"SAINT-PIERRE";"Mât béton"; 16.0;"ORANGE"
389896;55.48389;-20.91389;"55° 29' 02.00'' Est, 20° 54' 50.00'' Sud";"97411";"MOUFIA";"1 ROUTE DES ANANAS";"97490";"SAINT-DENIS";"Mât béton"; 15.0;"Particulier"
389963;55.42556;-21.32167;"55° 25' 32.00'' Est, 21° 19' 18.00'' Sud";"97416";;"AERODROME DE PIERREFONDS";"97432";"SAINT-PIERRE";"Mât"; 6.0;
392982;55.81500;-21.14833;"55° 48' 54.00'' Est, 21° 08' 54.00'' Sud";"97419";"BELLEVUE";"282 RN2";"97439";"SAINTE-ROSE";"Pylône autostable"; 24.0;"Sté Réunionn. de Radiotéléph."
393604;55.49556;-20.95167;"55° 29' 44.00'' Est, 20° 57' 06.00'' Sud";"97418";"ILET LA PLUIE";;"97438";"SAINTE-MARIE";"Bâtiment"; 5.0;"Particulier"
393606;55.38861;-20.99917;"55° 23' 19.00'' Est, 20° 59' 57.00'' Sud";"97408";"ILET BRAS SUZANNE MAFATE";;"97419";"LA POSSESSION";"Bâtiment"; 5.0;"Particulier"
393788;55.69917;-21.35778;"55° 41' 57.00'' Est, 21° 21' 28.00'' Sud";"97412";"MATOUTA";"VILLAGE";"97480";"SAINT-JOSEPH";"Bâtiment"; 5.0;"Particulier"
393793;55.70111;-21.33861;"55° 42' 04.00'' Est, 21° 20' 19.00'' Sud";"97417";"BASSE VALLÉE";"GÎTE FORESTIER";"97442";"SAINT-PHILIPPE";"Bâtiment"; 5.0;"Particulier"
412232;55.42389;-20.89806;"55° 25' 26.00'' Est, 20° 53' 53.00'' Sud";"97411";"COLORADO";"ZONE DE LOISIR DU COLORADO TEERAIN DE GOLF";"97417";"SAINT-DENIS";"Pylône autostable"; 20.0;"Autres"
415773;55.58528;-20.90944;"55° 35' 07.00'' Est, 20° 54' 34.00'' Sud";"97420";"STATION E.I.T RÉUNION BEL-AIR";"CHEM MARTIN LUTHER KING STATION INTER ARMÉES D'EMISSION DE BEL-AIR";"97441";"SAINTE-SUZANNE";"Dalle en béton"; 0.5;
415871;55.27333;-21.02500;"55° 16' 24.00'' Est, 21° 01' 30.00'' Sud";"97415";"PLATEAU-CAILLOUX";"AV DES FRANCOLINS";"97411";"SAINT-PAUL";"pylône arbre"; 15.0;"ORANGE"
417093;55.74667;-21.10583;"55° 44' 48.00'' Est, 21° 06' 21.00'' Sud";"97410";"LES ORANGERS";"PRÈS N.2";"97437";"SAINT-BENOIT";"Pylône autostable"; 22.0;"ORANGE"
417136;55.61333;-21.35556;"55° 36' 48.00'' Est, 21° 21' 20.00'' Sud";"97412";"PITON DE L ENTONNOIR";;"97480";"SAINT-JOSEPH";"Château d'eau - réservoir"; 9.0;
421231;55.71139;-21.03111;"55° 42' 41.00'' Est, 21° 01' 52.00'' Sud";"97410";;"52 R GEORGES POMPIDOU RFO";"97470";"SAINT-BENOIT";"Bâtiment"; 10.0;"Copropriété, Syndic, SCI"
425465;55.47611;-20.88861;"55° 28' 34.00'' Est, 20° 53' 19.00'' Sud";"97411";;"12 R VALON HOARAU";"97490";"SAINT-DENIS";"Pylône autostable"; 17.0;"ORANGE"
429093;55.29444;-21.03472;"55° 17' 40.00'' Est, 21° 02' 05.00'' Sud";"97415";"LE GUILLAUME";"9 CHEM BOIS JOLI";"97423";"SAINT-PAUL";"pylône arbre"; 15.0;"ORANGE"
430989;55.45222;-21.26556;"55° 27' 08.00'' Est, 21° 15' 56.00'' Sud";"97414";"RIVIÈRES ST LOUIS";"215 RTE HUBERT DELISLE - D.3";"97421";"SAINT-LOUIS";"Pylône autostable"; 24.0;"ORANGE"
432682;55.79611;-21.29139;"55° 47' 46.00'' Est, 21° 17' 29.00'' Sud";"97417";"LE TREMBLET";"RN.2";"97442";"SAINT-PHILIPPE";"Pylône autostable"; 16.0;
432690;55.47500;-21.33056;"55° 28' 30.00'' Est, 21° 19' 50.00'' Sud";"97416";"JOLIE FOND";"BD BANKS";"97410";"SAINT-PIERRE";"Pylône tubulaire"; 11.0;"ORANGE"
433192;55.44556;-21.24167;"55° 26' 44.00'' Est, 21° 14' 30.00'' Sud";"97414";"TAPAGE";"CHEM CHARLES L'ALLEMAND";"97421";"SAINT-LOUIS";"Pylône autostable"; 16.0;"ORANGE"
433466;55.57250;-21.22667;"55° 34' 21.00'' Est, 21° 13' 36.00'' Sud";"97422";"LA PETITE FERME";"CD 36 NOTRE DAME DE LA PAIX";"97418";"LE TAMPON";"Pylône autostable"; 14.0;"ORANGE"
433568;55.42528;-20.90278;"55° 25' 31.00'' Est, 20° 54' 10.00'' Sud";"97411";;"PARC DE LOISIRS DU COLORADO LE GOLF";"97417";"SAINT-DENIS";"Bâtiment"; 5.0;"Société Privée SA"
439246;55.28611;-20.92583;"55° 17' 10.00'' Est, 20° 55' 33.00'' Sud";"97407";;"R JEROME BOSCH";"97420";"LE PORT";"Pylône autostable"; 40.0;"ORANGE Services Fixes"
440941;55.33389;-21.24306;"55° 20' 02.00'' Est, 21° 14' 35.00'' Sud";"97401";;"2 R DE L'EGLISE";"97425";"LES AVIRONS";"Pylône autostable"; 20.0;"ORANGE"
442991;55.51500;-21.27111;"55° 30' 54.00'' Est, 21° 16' 16.00'' Sud";"97422";"KERVEGUEN";"111 R DU GÉNÉRAL DE GAULLE";"97418";"LE TAMPON";"pylône arbre"; 15.0;"ORANGE"
455497;55.28778;-20.94500;"55° 17' 16.00'' Est, 20° 56' 42.00'' Sud";"97407";"CENTRALE EDF";"R DES MARINS PECHEURS";"97420";"LE PORT";"Château d'eau - réservoir"; 29.7;"EDF GDF"
456398;55.69806;-21.37000;"55° 41' 53.00'' Est, 21° 22' 12.00'' Sud";"97412";"GIROFLE";"VINCENDO";"97480";"SAINT-JOSEPH";"Pylône autostable"; 35.0;"TDF"
456460;55.80194;-21.33417;"55° 48' 07.00'' Est, 21° 20' 03.00'' Sud";"97417";;"ILET AUX PALMISTES LE TREMBLET";"97442";"SAINT-PHILIPPE";"Pylône autostable"; 34.0;"TDF"
457492;55.33167;-21.20639;"55° 19' 54.00'' Est, 21° 12' 23.00'' Sud";"97413";"LE PLATE";"PITON CALVAIRE";"97436";"SAINT-LEU";"Pylône autostable"; 38.0;"TDF"
457887;55.58278;-20.99361;"55° 34' 58.00'' Est, 20° 59' 37.00'' Sud";"97409";;"LA DÉCOUVERTE PYLÔNE TDF";"97440";"SAINT-ANDRE";"Pylône autostable"; 21.0;"TDF"
467655;55.49611;-20.88556;"55° 29' 46.00'' Est, 20° 53' 08.00'' Sud";"97411";"LA JAMAÏQUE";"RN2 - RTE À QUATRE VOIES DE GILLOT";"97400";"SAINT-DENIS";"Mât béton"; 8.0;"ORANGE"
467657;55.43250;-20.88611;"55° 25' 57.00'' Est, 20° 53' 10.00'' Sud";"97411";;"CHEM DES PRÈLES,LA VIGIE STADE DE FOOT DE LA MONTAGNE 7";"97417";"SAINT-DENIS";"Mât béton"; 12.0;"Météo"
467659;55.50500;-21.26167;"55° 30' 18.00'' Est, 21° 15' 42.00'' Sud";"97422";"LESTROIS MARES";"4 R BENOITON ROUSSEL";"97418";"LE TAMPON";"Pylône autostable"; 18.0;"ORANGE"
467809;55.33139;-21.20667;"55° 19' 53.00'' Est, 21° 12' 24.00'' Sud";"97413";"LE PLATE";"PITON CALVAIRE";"97436";"SAINT-LEU";"Pylône autostable"; 65.0;"ORANGE Services Fixes"
467953;55.76472;-21.15917;"55° 45' 53.00'' Est, 21° 09' 33.00'' Sud";"97419";;"LES RÉSERVOIRS FORÊT MOUROUVIN";"97439";"SAINTE-ROSE";"Pylône autostable"; 15.0;"TDF"
467997;55.47472;-20.91722;"55° 28' 29.00'' Est, 20° 55' 02.00'' Sud";"97411";"BOIS DE NEFLES ST DENIS";"R NOTRE DAME DE LOURDES";"97400";"SAINT-DENIS";"Immeuble"; 20.0;"Société HLM"
468311;55.66444;-20.93583;"55° 39' 52.00'' Est, 20° 56' 09.00'' Sud";"97409";"LE COLOSSE";"CHEM BRUNET";"97440";"SAINT-ANDRE";"Mât béton"; 16.0;"Sté Réunionn. de Radiotéléph."
468314;55.63278;-20.94417;"55° 37' 58.00'' Est, 20° 56' 39.00'' Sud";"97420";"CAMP DES EVIS";"1 CHEM DESRUISSEAUX";"97441";"SAINTE-SUZANNE";"Mât béton"; 16.0;"Sté Réunionn. de Radiotéléph."
468878;55.44639;-20.88778;"55° 26' 47.00'' Est, 20° 53' 16.00'' Sud";"97411";"TOURETTE";"R TOURETTE";"97400";"SAINT-DENIS";"Immeuble"; 29.7;"SFR"
469023;55.41417;-21.27222;"55° 24' 51.00'' Est, 21° 16' 20.00'' Sud";"97414";"MAISON ROUGE";"68 R LECONTE DE LISLE";"97450";"SAINT-LOUIS";"Pylône autostable"; 16.0;"Particulier"
469080;55.49722;-20.89611;"55° 29' 50.00'' Est, 20° 53' 46.00'' Sud";"97411";"ZI DU CHAUDRON";"5 R LISLET GEOFFROY";"97400";"SAINT-DENIS";"Pylône autostable"; 25.0;"Sté Réunionn. de Radiotéléph."
470247;55.22556;-21.05083;"55° 13' 32.00'' Est, 21° 03' 03.00'' Sud";"97415";;"89/91 AV GL DE GAULLE ST GILLES";"97411";"SAINT-PAUL";"Immeuble"; 29.0;"Sté Réunionn. de Radiotéléph."
471373;55.62028;-20.97194;"55° 37' 13.00'' Est, 20° 58' 19.00'' Sud";"97409";"BRAS DES CHEVRETTES";;"97440";"SAINT-ANDRE";"Pylône autostable"; 16.0;"Particulier"
472631;55.30583;-21.09000;"55° 18' 21.00'' Est, 21° 05' 24.00'' Sud";"97415";;"RESERVOIR R H DELISLE";"97411";"SAINT-PAUL";"Château d'eau - réservoir"; 10.0;"Syndicat des eaux, Adduction"
475389;55.45250;-20.87472;"55° 27' 09.00'' Est, 20° 52' 29.00'' Sud";"97411";;"21 R DES SABLES";"97400";"SAINT-DENIS";"Immeuble"; 20.0;"Copropriété, Syndic, SCI"
475399;55.45528;-20.87722;"55° 27' 19.00'' Est, 20° 52' 38.00'' Sud";"97411";;"117 R PASTEUR";"97400";"SAINT-DENIS";"Immeuble"; 18.0;"Société HLM"
476187;55.45167;-20.88000;"55° 27' 06.00'' Est, 20° 52' 48.00'' Sud";"97411";;"LA POSTE R DU MARECHAL LECLERC";"97400";"SAINT-DENIS";"Immeuble"; 35.0;"Sté Réunionn. de Radiotéléph."
477155;55.49472;-20.89139;"55° 29' 41.00'' Est, 20° 53' 29.00'' Sud";"97411";"ZI DU CHAUDRON";"21 R PIERRE AUBERT SOCIÉTÉ REUNIONNAISE DE RADIOTELEPHONE";"97400";"SAINT-DENIS";"Pylône autostable"; 21.5;"Sté Réunionn. de Radiotéléph."
477161;55.45778;-20.88861;"55° 27' 28.00'' Est, 20° 53' 19.00'' Sud";"97411";;"33 R DU BOIS DE NEFLES RES PROXIMA";"97400";"SAINT-DENIS";"Immeuble"; 26.0;"SFR"
477167;55.46639;-20.88778;"55° 27' 59.00'' Est, 20° 53' 16.00'' Sud";"97411";;"IMM ANAXAGORE 24 R JEAN COCTEAU";"97400";"SAINT-DENIS";"Immeuble"; 36.0;"Copropriété, Syndic, SCI"
477744;55.34472;-20.95806;"55° 20' 41.00'' Est, 20° 57' 29.00'' Sud";"97408";"CAP NOIR";"38A CHEM BAROUTY PICHETTE";"97419";"LA POSSESSION";"Pylône autostable"; 17.0;"Sté Réunionn. de Radiotéléph."
478624;55.47639;-20.89667;"55° 28' 35.00'' Est, 20° 53' 48.00'' Sud";"97411";;"37 AV STANISLAS GIMART STE CLOTILDE";"97400";"SAINT-DENIS";"Pylône autostable"; 25.0;"Sté Réunionn. de Radiotéléph."
478635;55.44333;-20.88083;"55° 26' 36.00'' Est, 20° 52' 51.00'' Sud";"97411";"PETITE ILE";"20 R DU MAUSOLEE BAT C";"97400";"SAINT-DENIS";"Immeuble"; 19.0;"Copropriété, Syndic, SCI"
478641;55.45528;-20.88389;"55° 27' 19.00'' Est, 20° 53' 02.00'' Sud";"97411";;"159 R JULES AUBER FOYER DES JEUNES DE JOINVILLE";"97400";"SAINT-DENIS";"Pylône autostable"; 24.5;"SFR"
478992;55.48000;-20.88778;"55° 28' 48.00'' Est, 20° 53' 16.00'' Sud";"97411";;"R DU BOIS DE NEFLES IMM ARSENAL";"97400";"SAINT-DENIS";"Immeuble"; 27.8;"SFR"
479734;55.45944;-20.87972;"55° 27' 34.00'' Est, 20° 52' 47.00'' Sud";"97411";;"BD LANCASTEL 6 R HENRI VAVASSEUR";"97400";"SAINT-DENIS";"Immeuble"; 36.4;"Sté Réunionn. de Radiotéléph."
479831;55.49139;-20.90139;"55° 29' 29.00'' Est, 20° 54' 05.00'' Sud";"97411";;"28 RTE DU MOUFIA";"97400";"SAINT-DENIS";"Bâtiment"; 19.0;"Société Privée SA"
481162;55.33250;-21.19611;"55° 19' 57.00'' Est, 21° 11' 46.00'' Sud";"97413";"PITON LA BOUE";"63 CHEM DE LA DÉCOUVERTE";"97436";"SAINT-LEU";"Pylône autostable"; 14.0;"Particulier"
481528;55.48833;-21.33750;"55° 29' 18.00'' Est, 21° 20' 15.00'' Sud";"97416";"BASSIN BOEUF";"PROCHE RESERVOIRS PRES N.2 LOT ASILE";"97432";"SAINT-PIERRE";"Pylône autostable"; 28.0;"Sté Réunionn. de Radiotéléph."
481737;55.26806;-21.07778;"55° 16' 05.00'' Est, 21° 04' 40.00'' Sud";"97415";"LONGUET";"CHEM GROS EUCALYPTUS CD6 SALINE LES HAUTS";"97422";"SAINT-PAUL";"pylône arbre"; 18.0;"ORANGE"
481878;55.49917;-21.27167;"55° 29' 57.00'' Est, 21° 16' 18.00'' Sud";"97422";"LES QUATRE CENTS";"72 CHEM RAPHAEL BABET";"97418";"LE TAMPON";"Mât métallique"; 17.0;"Sté Réunionn. de Radiotéléph."
483573;55.81056;-21.14056;"55° 48' 38.00'' Est, 21° 08' 26.00'' Sud";"97419";"LA RAVINE GLISSANTE";"RN 2";"97439";"SAINTE-ROSE";"pylône arbre"; 15.0;"ORANGE"
483577;55.62083;-20.97083;"55° 37' 15.00'' Est, 20° 58' 15.00'' Sud";"97409";"BRAS DES CHEVRETTES";"CHEM SARABE";"97440";"SAINT-ANDRE";"Pylône autostable"; 16.0;"ORANGE"
483637;55.29833;-20.96194;"55° 17' 54.00'' Est, 20° 57' 43.00'' Sud";"97415";;"86 ROUTE DE CAMBAIE ZI DE CAMBAIE";"97411";"SAINT-PAUL";"Bâtiment"; 18.0;"Société Privée SA"
484036;55.52639;-21.25028;"55° 31' 35.00'' Est, 21° 15' 01.00'' Sud";"97422";;"CHEM LUSPOT";"97418";"LE TAMPON";"Mât"; 12.0;"Commune, communauté de commune"
484038;55.51917;-21.27972;"55° 31' 09.00'' Est, 21° 16' 47.00'' Sud";"97422";;"140 R JEAN BERTAUT";"97418";"LE TAMPON";"Immeuble"; 12.0;"Commune, communauté de commune"
485005;55.26056;-21.03528;"55° 15' 38.00'' Est, 21° 02' 07.00'' Sud";"97415";;"ALTIPORT DE L EPERON";"97411";"SAINT-PAUL";"Bâtiment"; 8.0;"Société Privée SA"
485172;55.38556;-20.98694;"55° 23' 08.00'' Est, 20° 59' 13.00'' Sud";"97408";"DOS D'ÂNE";"D.1 - LE GRAND COIN R JACQUES DUCLOS";"97419";"LA POSSESSION";"Pylône autostable"; 22.0;"TDF"
485344;55.51806;-20.89472;"55° 31' 05.00'' Est, 20° 53' 41.00'' Sud";"97418";;"AEROPORT DE LA REUNION ROLAND GARROS GILLOT";"97438";"SAINTE-MARIE";"Bâtiment"; 12.0;"CCI,Ch Metiers,Port Aut,Aérop"
485346;55.46083;-21.08972;"55° 27' 39.00'' Est, 21° 05' 23.00'' Sud";"97415";;"GROS MORNE ST GILLES LES BAINS";"97411";"SAINT-PAUL";"Pylône tubulaire"; 8.0;"Société Privée SA"
485793;55.47083;-21.29306;"55° 28' 15.00'' Est, 21° 17' 35.00'' Sud";"97416";"RÉSIDENCE LES JAMBROZADES";"1, R DES JAMALAC";"97432";"SAINT-PIERRE";"Mât"; 16.0;"ORANGE"
485829;55.45111;-20.87778;"55° 27' 04.00'' Est, 20° 52' 40.00'' Sud";"97411";"JULIETTE DODU";"92 R JULIETTE DODU";"97400";"SAINT-DENIS";"Bâtiment"; 4.3;"Particulier"
485831;55.42806;-21.32056;"55° 25' 41.00'' Est, 21° 19' 14.00'' Sud";"97416";"AEROPORT PIERREFONDS";"5000 PIERREFONDS";"97410";"SAINT-PIERRE";"Bâtiment"; 8.5;"CCI,Ch Metiers,Port Aut,Aérop"
486074;55.29833;-20.97556;"55° 17' 54.00'' Est, 20° 58' 32.00'' Sud";"97415";;"CHEM DU GRAND POURPIER ST PAUL TENNIS";"97460";"SAINT-PAUL";"Mât béton"; 16.0;"Sté Réunionn. de Radiotéléph."
486076;55.43833;-21.31306;"55° 26' 18.00'' Est, 21° 18' 47.00'' Sud";"97416";"PIERREFONDS RN1";"ROUTE NATIONNAL";"97410";"SAINT-PIERRE";"Mât béton"; 16.2;"Particulier"
486515;55.70028;-21.05361;"55° 42' 01.00'' Est, 21° 03' 13.00'' Sud";"97410";"BRAS MADELEINE";"CHEM CAMALON";"97470";"SAINT-BENOIT";"Mât béton"; 16.0;"Sté Réunionn. de Radiotéléph."
487193;55.51389;-21.27611;"55° 30' 50.00'' Est, 21° 16' 34.00'' Sud";"97422";;"284 R HUBERT DELISLE";"97418";"LE TAMPON";"Bâtiment"; 17.3;"Sté Réunionn. de Radiotéléph."
487747;55.28611;-20.92639;"55° 17' 10.00'' Est, 20° 55' 35.00'' Sud";"97407";"POINTE DES GALETS";"CHEM DU PHARE";"97420";"LE PORT";"Pylône autostable"; 60.0;"TDF"
492571;55.31250;-20.95000;"55° 18' 45.00'' Est, 20° 56' 60.00'' Sud";"97407";;"CENTRE DE DETENTION LA PLAINE DES GALETS";"97420";"LE PORT";"Bâtiment"; 10.0;"Etat, Ministère"
492573;55.31306;-20.95111;"55° 18' 47.00'' Est, 20° 57' 04.00'' Sud";"97407";;"CENTRE DE DETENTION LA PLAINE DES GALETS";"97420";"LE PORT";"Bâtiment"; 10.0;"Etat, Ministère"
492814;55.53222;-21.06472;"55° 31' 56.00'' Est, 21° 03' 53.00'' Sud";"97421";"BELOUVE";"RTE DE BELOUVE";"97433";"SALAZIE";"Pylône autostable"; 25.0;"TDF"
492885;55.51472;-21.26722;"55° 30' 53.00'' Est, 21° 16' 02.00'' Sud";"97422";;"50 CHEM ISAUTIER";"97418";"LE TAMPON";"Pylône autostable"; 35.0;"Sté Réunionn. de Radiotéléph."
493038;55.52000;-20.90028;"55° 31' 12.00'' Est, 20° 54' 01.00'' Sud";"97418";"DUPARC";"OFFICE MUNICIPALE DU TEMPS LIBRE 14 REU DESCORTES";"97438";"SAINTE-MARIE";"Pylône autostable"; 25.0;"Sté Réunionn. de Radiotéléph."
493216;55.53167;-21.26139;"55° 31' 54.00'' Est, 21° 15' 41.00'' Sud";"97422";"BRAS CREUX";"IMP FIDELIS EPIPHANA";"97418";"LE TAMPON";"Mât béton"; 16.0;"ORANGE"
493218;55.59389;-21.24750;"55° 35' 38.00'' Est, 21° 14' 51.00'' Sud";"97422";"NOTRE-DAME DE LA PAIX";"CHEM PETIT TAMPON";"97418";"LE TAMPON";"Mât béton"; 17.0;"ORANGE"
493358;55.52167;-21.27333;"55° 31' 18.00'' Est, 21° 16' 24.00'' Sud";"97422";;"R ROLAND GARROS";"97418";"LE TAMPON";"Bâtiment"; 27.0;"Conseil Général"
493560;55.69500;-21.03222;"55° 41' 42.00'' Est, 21° 01' 56.00'' Sud";"97410";"BOURBIER LES HAUTS";"CHEM RURAL N° 2";"97437";"SAINT-BENOIT";"Pylône autostable"; 25.0;"Sté Réunionn. de Radiotéléph."
493721;55.52444;-21.22556;"55° 31' 28.00'' Est, 21° 13' 32.00'' Sud";"97422";"LES PETITS PITONS";"67 CHEM GERMAIN DIJOUX";"97418";"LE TAMPON";"Pylône autostable"; 15.0;"ORANGE"
495399;55.47222;-21.33889;"55° 28' 20.00'' Est, 21° 20' 20.00'' Sud";"97416";;"108 R DES BONS ENFANTS POSTE";"97432";"SAINT-PIERRE";"Immeuble"; 26.5;"Sté Réunionn. de Radiotéléph."
495405;55.46000;-21.33500;"55° 27' 36.00'' Est, 21° 20' 06.00'' Sud";"97416";;"130 BD HUBERT DELISLE PETIT PARIS";"97432";"SAINT-PIERRE";"Bâtiment"; 22.0;"Copropriété, Syndic, SCI"
495411;55.47306;-21.33000;"55° 28' 23.00'' Est, 21° 19' 48.00'' Sud";"97416";;"BD BANK BASSE TERRE LES BAS";"97432";"SAINT-PIERRE";"Immeuble"; 26.4;"Société HLM"
495967;55.41222;-21.28806;"55° 24' 44.00'' Est, 21° 17' 17.00'' Sud";"97414";;"89 R ST LOUIS POLICE MUNICIPALE";"97421";"SAINT-LOUIS";"Bâtiment"; 13.0;"Commune, communauté de commune"
496293;55.55250;-21.21917;"55° 33' 09.00'' Est, 21° 13' 09.00'' Sud";"97422";"VINGTTROISIÈME PLAINE DE CAFRE";"R R. DOUYÈRE LES CITRINES";"97418";"LE TAMPON";"Immeuble"; 14.0;"Société HLM"
496560;55.49333;-20.91667;"55° 29' 36.00'' Est, 20° 55' 00.00'' Sud";"97411";"LA BRETAGNE";"27 CHEM DE LA GROTTE IMM LE PILOTE";"97400";"SAINT-DENIS";"Immeuble"; 19.1;"Sté Réunionn. de Radiotéléph."
496677;55.48111;-21.32694;"55° 28' 52.00'' Est, 21° 19' 37.00'' Sud";"97416";"BASSE TERRE";"38 R EUGENE DAYOT";"97432";"SAINT-PIERRE";"Bâtiment"; 16.5;"SFR"
497091;55.65389;-20.93917;"55° 39' 14.00'' Est, 20° 56' 21.00'' Sud";"97409";"CAMBUSTON";"RUELLE VIRAPATRIN";"97440";"SAINT-ANDRE";"Pylône autostable"; 20.0;"ORANGE"
497093;55.50556;-21.29417;"55° 30' 20.00'' Est, 21° 17' 39.00'' Sud";"97422";"CONDÉ";"R ARCHAMBAUD SHLMR BEAUREGARD";"97418";"LE TAMPON";"Immeuble"; 12.0;"Société HLM"
497095;55.53889;-21.02861;"55° 32' 20.00'' Est, 21° 01' 43.00'' Sud";"97421";;"ROUTE DE SALAZIE PRÉS D48";"97433";"SALAZIE";"Pylône autostable"; 24.0;"ORANGE"
498073;55.45389;-21.31639;"55° 27' 14.00'' Est, 21° 18' 59.00'' Sud";"97416";"ZI 3 MON REPOS";"19 R BENJAMEN HOAREAU";"97432";"SAINT-PIERRE";"Pylône autostable"; 21.0;"ORANGE"
498965;55.47583;-21.33889;"55° 28' 33.00'' Est, 21° 20' 20.00'' Sud";"97416";;"40 R FRANÇOIS DE MAHY";"97432";"SAINT-PIERRE";"Immeuble"; 24.0;"Particulier"
499479;55.47556;-21.32694;"55° 28' 32.00'' Est, 21° 19' 37.00'' Sud";"97416";;"190, R PAOLO TILMAR LES CAPUCINES BASSE TERRE LES BAS";"97432";"SAINT-PIERRE";"Immeuble"; 18.0;"Copropriété, Syndic, SCI"
499492;55.50111;-21.34833;"55° 30' 04.00'' Est, 21° 20' 54.00'' Sud";"97416";"TERRE ROUGE";"ANCIENNE RN2";"97432";"SAINT-PIERRE";"Mât béton"; 16.0;"ORANGE"
499537;55.26417;-21.01222;"55° 15' 51.00'' Est, 21° 00' 44.00'' Sud";"97415";;"107 A,  R DE LA BAIE";"97411";"SAINT-PAUL";"Immeuble"; 18.0;"Particulier"
499983;55.45778;-21.33139;"55° 27' 28.00'' Est, 21° 19' 53.00'' Sud";"97416";"RAVINE BLANCHE";"2 CHEM BADANIER";"97432";"SAINT-PIERRE";"Pylône autostable"; 16.0;"ORANGE"
500430;55.46917;-21.33833;"55° 28' 09.00'' Est, 21° 20' 18.00'' Sud";"97416";"PIERRE STADE";"148, R DES BONS ENFANTS";"97432";"SAINT-PIERRE";"Immeuble"; 18.0;"ORANGE"
500606;55.47611;-21.34083;"55° 28' 34.00'' Est, 21° 20' 27.00'' Sud";"97416";;"41 R DESIRE BARQUISSEAU";"97432";"SAINT-PIERRE";"Bâtiment"; 19.0;"Sté Réunionn. de Radiotéléph."
500612;55.51750;-20.89861;"55° 31' 03.00'' Est, 20° 53' 55.00'' Sud";"97418";;"PARKING JUMBO CC CITÉ DU PARC";"97438";"SAINTE-MARIE";"Pylône autostable"; 20.0;"Société Privée SA"
500618;55.47361;-21.33583;"55° 28' 25.00'' Est, 21° 20' 09.00'' Sud";"97416";;"88 R SUFFREN";"97432";"SAINT-PIERRE";"Immeuble"; 18.0;"Société HLM"
500624;55.46444;-21.33528;"55° 27' 52.00'' Est, 21° 20' 07.00'' Sud";"97416";;"9001 R RAYMOND VERGES";"97432";"SAINT-PIERRE";"Immeuble"; 15.0;"Société HLM"
501782;55.45139;-21.23028;"55° 27' 05.00'' Est, 21° 13' 49.00'' Sud";"97414";;"LE TAPAGE";"97421";"SAINT-LOUIS";"Pylône autostable"; 20.0;"TDF"
501790;55.40306;-20.91306;"55° 24' 11.00'' Est, 20° 54' 47.00'' Sud";"97411";;"CIMETIERE DE ST BERNARD";"97400";"SAINT-DENIS";"Pylône autostable"; 25.0;"TDF"
502142;55.34306;-21.26361;"55° 20' 35.00'' Est, 21° 15' 49.00'' Sud";"97404";"GROS PITON";"FORET DE L'ETANG SALE";"97427";"L'ETANG-SALE";"Pylône autostable"; 26.0;"TDF"
502272;55.52194;-21.25861;"55° 31' 19.00'' Est, 21° 15' 31.00'' Sud";"97422";"LE TREIZIEME";"R GEORGES POMPIDOU";"97418";"LE TAMPON";"Pylône autostable"; 16.0;"Sté Réunionn. de Radiotéléph."
502288;55.46278;-20.89917;"55° 27' 46.00'' Est, 20° 53' 57.00'' Sud";"97411";;"5032 TOUR DE LA CHAUMIÈRE - ST FRANÇOIS";"97400";"SAINT-DENIS";"Immeuble"; 35.0;"Copropriété, Syndic, SCI"
502414;55.46639;-21.34000;"55° 27' 59.00'' Est, 21° 20' 24.00'' Sud";"97416";;"R JEAN ALBANY";"97432";"SAINT-PIERRE";"Bâtiment"; 25.2;"Société HLM"
502988;55.51972;-21.28194;"55° 31' 11.00'' Est, 21° 16' 55.00'' Sud";"97422";;"2, R  PERE ROGNARD EGLISE DU TAMPON";"97418";"LE TAMPON";"Monument religieux"; 22.5;"Commune, communauté de commune"
505414;55.29500;-20.93278;"55° 17' 42.00'' Est, 20° 55' 58.00'' Sud";"97407";;"ANGLE R 14 JUILLET ET BLD BREST";"97420";"LE PORT";"Immeuble"; 21.0;"Société HLM"
506065;55.46611;-21.33444;"55° 27' 58.00'' Est, 21° 20' 04.00'' Sud";"97416";;"186 R MARIUS ET ARY LEBLOND";"97432";"SAINT-PIERRE";"Bâtiment"; 31.0;"ORANGE Services Fixes"
506301;55.51083;-20.91306;"55° 30' 39.00'' Est, 20° 54' 47.00'' Sud";"97418";;"RTE DE LA VIERGE NOIRE";"97438";"SAINTE-MARIE";"Pylône autostable"; 20.0;"ORANGE Services Fixes"
506646;55.49500;-20.89361;"55° 29' 42.00'' Est, 20° 53' 37.00'' Sud";"97411";;"35 BD  DU CHAUDRON LE CHAUDRON";"97400";"SAINT-DENIS";"Pylône autostable"; 15.0;"ORANGE"
506656;55.45167;-20.87861;"55° 27' 06.00'' Est, 20° 52' 43.00'' Sud";"97411";;"R DE LA COMPAGNIE";"97400";"SAINT-DENIS";"Immeuble"; 22.0;"ORANGE Services Fixes"
506662;55.49000;-20.89611;"55° 29' 24.00'' Est, 20° 53' 46.00'' Sud";"97411";"LE CHAUDRON";"94, AV LECONTE DE LISLE";"97400";"SAINT-DENIS";"Immeuble"; 17.0;"Particulier"
506668;55.27667;-21.00806;"55° 16' 36.00'' Est, 21° 00' 29.00'' Sud";"97415";;"R SALINS AUTOCOMMUTATEUR";"97411";"SAINT-PAUL";"Pylône autostable"; 45.0;"ORANGE Services Fixes"
506980;55.33528;-21.23167;"55° 20' 07.00'' Est, 21° 13' 54.00'' Sud";"97401";"LES AVIRONS";"AVIRONS TEVLAVE ENTRE LA CROIX ET LES BANANES";"97425";"LES AVIRONS";"Mât béton"; 16.0;"Sté Réunionn. de Radiotéléph."
506986;55.48000;-20.90472;"55° 28' 48.00'' Est, 20° 54' 17.00'' Sud";"97411";;"14 R PIERRE DE COUBERTIN";"97400";"SAINT-DENIS";"Immeuble"; 22.0;"Société HLM"
507513;55.67639;-20.99500;"55° 40' 35.00'' Est, 20° 59' 42.00'' Sud";"97402";"MAIRIE";"12 R DES LIMITES MAIRIE";"97412";"BRAS-PANON";"Immeuble"; 16.5;"Société HLM"
507515;55.37889;-21.23694;"55° 22' 44.00'' Est, 21° 14' 13.00'' Sud";"97404";"ETANG SALE LES HAUTS";"ROUTE HUBERT DELISLE ETANG SALE LES HAUTS";"97427";"L'ETANG-SALE";"Mât béton"; 16.0;"Sté Réunionn. de Radiotéléph."
508234;55.49139;-21.25639;"55° 29' 29.00'' Est, 21° 15' 23.00'' Sud";"97422";"LE DASSY";"26 R NICOLAS BOILEAU";"97418";"LE TAMPON";"Pylône autostable"; 18.0;"Particulier"
508445;55.47194;-21.33361;"55° 28' 19.00'' Est, 21° 20' 01.00'' Sud";"97416";;"R DU PÈRE RAIMBAULT";"97432";"SAINT-PIERRE";"Immeuble"; 20.0;"Société HLM"
508654;55.65556;-20.95306;"55° 39' 20.00'' Est, 20° 57' 11.00'' Sud";"97409";;"R DUMESNIL BAT 3A";"97440";"SAINT-ANDRE";"Mât"; 17.5;"Météo"
509015;55.45056;-20.88111;"55° 27' 02.00'' Est, 20° 52' 52.00'' Sud";"97411";;"114, R JEAN CHATEL";"97400";"SAINT-DENIS";"Immeuble"; 23.0;"ORANGE Services Fixes"
510054;55.48639;-21.34611;"55° 29' 11.00'' Est, 21° 20' 46.00'' Sud";"97416";"TERRE STE";"RN 2";"97432";"SAINT-PIERRE";"Pylône autostable"; 20.0;"Sté Réunionn. de Radiotéléph."
510229;55.46944;-20.90000;"55° 28' 10.00'' Est, 20° 53' 60.00'' Sud";"97411";"MONGAILLARD";"45 R DU STADE";"97400";"SAINT-DENIS";"Bâtiment"; 18.0;"Société HLM"
510243;55.50139;-20.89417;"55° 30' 05.00'' Est, 20° 53' 39.00'' Sud";"97411";"PRIMA";"R DU STADE DE L'EST";"97400";"SAINT-DENIS";"Pylône tubulaire"; 20.0;"ORANGE"
510264;55.45750;-20.89444;"55° 27' 27.00'' Est, 20° 53' 40.00'' Sud";"97411";;"BD DE LA PROVIDENCE";"97400";"SAINT-DENIS";"Bâtiment"; 26.0;"Copropriété, Syndic, SCI"
510277;55.47750;-21.33389;"55° 28' 39.00'' Est, 21° 20' 02.00'' Sud";"97416";;"29, R DE LA CHARITÉ G.H. LES FOULARDS";"97432";"SAINT-PIERRE";"Immeuble"; 16.0;"Société HLM"
510375;55.24194;-21.09306;"55° 14' 31.00'' Est, 21° 05' 35.00'' Sud";"97415";;"267 R DES ARGONAUTES";"97411";"SAINT-PAUL";"Pylône autostable"; 12.0;"ORANGE"
510381;55.27194;-21.00861;"55° 16' 19.00'' Est, 21° 00' 31.00'' Sud";"97415";;"7 R MILLET";"97411";"SAINT-PAUL";"Bâtiment"; 14.0;"Copropriété, Syndic, SCI"
510816;55.45417;-20.88806;"55° 27' 15.00'' Est, 20° 53' 17.00'' Sud";"97411";;"34/36 R MONTHYON";"97400";"SAINT-DENIS";"Immeuble"; 19.0;"Société HLM"
511221;55.45417;-20.88139;"55° 27' 15.00'' Est, 20° 52' 53.00'' Sud";"97411";;"65 R ROLAND GARROS";"97400";"SAINT-DENIS";"Immeuble"; 16.0;"Particulier"
511227;55.42889;-20.88139;"55° 25' 44.00'' Est, 20° 52' 53.00'' Sud";"97411";"LES BRISES";"1, R LONGUE LA MONTAGNE";"97400";"SAINT-DENIS";"Pylône autostable"; 16.0;"ORANGE"
511249;55.47444;-20.89500;"55° 28' 28.00'' Est, 20° 53' 42.00'' Sud";"97411";;"70 R STANISLAS GIMART";"97400";"SAINT-DENIS";"Bâtiment"; 18.0;"Société Privée SA"
511439;55.72944;-21.07278;"55° 43' 46.00'' Est, 21° 04' 22.00'' Sud";"97410";"ST-ANNE";"9 IMP. LUCIANO LAURET";"97437";"SAINT-BENOIT";"Pylône autostable"; 23.0;"ORANGE"
512058;55.47028;-20.89222;"55° 28' 13.00'' Est, 20° 53' 32.00'' Sud";"97411";;"16, ROUTE DIGUE DU BUTOR COMPLEXE SPORTIF CHAMP FLEURI";"97400";"SAINT-DENIS";"Pylône tubulaire"; 15.0;"ORANGE"
512060;55.51111;-21.26972;"55° 30' 40.00'' Est, 21° 16' 11.00'' Sud";"97422";;"RUELLE DES FRÈRES LUMIÈRES";"97418";"LE TAMPON";"pylône arbre"; 15.0;"ORANGE"
512177;55.48583;-20.89333;"55° 29' 09.00'' Est, 20° 53' 36.00'' Sud";"97411";;"4 R BRIDET";"97400";"SAINT-DENIS";"Immeuble"; 29.0;"Société HLM"
512360;55.48778;-20.90028;"55° 29' 16.00'' Est, 20° 54' 01.00'' Sud";"97411";"LES CALBASSIERS";"AV FOUCQUE BÂT. S";"97400";"SAINT-DENIS";"Immeuble"; 21.0;"Société HLM"
512372;55.43722;-21.26528;"55° 26' 14.00'' Est, 21° 15' 55.00'' Sud";"97414";;"R JEAN MOULIN";"97421";"SAINT-LOUIS";"Local technique"; 20.0;"ORANGE Services Fixes"
512390;55.45778;-20.89111;"55° 27' 28.00'' Est, 20° 53' 28.00'' Sud";"97411";;"24 R LÉON DIERX BAT E";"97400";"SAINT-DENIS";"Immeuble"; 41.0;"Société HLM"
512721;55.53861;-21.21778;"55° 32' 19.00'' Est, 21° 13' 04.00'' Sud";"97422";"PITON HYACINTHE";"FÔRET DE LA PLAINE DES CAFRES";"97418";"LE TAMPON";"Pylône autostable"; 50.0;"TDF"
512768;55.76639;-21.36028;"55° 45' 59.00'' Est, 21° 21' 37.00'' Sud";"97417";;"R DES LETCHIS";"97442";"SAINT-PHILIPPE";"Pylône autostable"; 18.0;"ORANGE Services Fixes"
512812;55.26667;-21.08694;"55° 15' 60.00'' Est, 21° 05' 13.00'' Sud";"97415";;"LA SALINE LES HAUTS CD 9";"97411";"SAINT-PAUL";"Pylône autostable"; 28.0;"TDF"
512834;55.46278;-21.33917;"55° 27' 46.00'' Est, 21° 20' 21.00'' Sud";"97416";;"R FERNAND COLARDEAU BÂTIMENT D - CITÉ SIDR";"97432";"SAINT-PIERRE";"Immeuble"; 19.0;"Copropriété, Syndic, SCI"
513186;55.47750;-21.33417;"55° 28' 39.00'' Est, 21° 20' 03.00'' Sud";"97416";;"94 B  R FRANCOIS DE MAHY RES LE FOULARD";"97432";"SAINT-PIERRE";"Immeuble"; 33.0;"Sté Réunionn. de Radiotéléph."
513200;55.45528;-20.87889;"55° 27' 19.00'' Est, 20° 52' 44.00'' Sud";"97411";;"42, R DE L'EST   RÉSIDENCE ARTEMIS SHLMR";"97400";"SAINT-DENIS";"Immeuble"; 24.0;"Copropriété, Syndic, SCI"
513352;55.82917;-21.17944;"55° 49' 45.00'' Est, 21° 10' 46.00'' Sud";"97419";"GROS PITON";"PITON DES CASCADES";"97439";"SAINTE-ROSE";"Pylône autostable"; 36.0;"TDF"
513574;55.48583;-21.32694;"55° 29' 09.00'' Est, 21° 19' 37.00'' Sud";"97416";"LES CSES";"R AUGUSTIN ARCHAMBAUD";"97432";"SAINT-PIERRE";"Pylône autostable"; 25.0;"TDF"
513636;55.47083;-21.25028;"55° 28' 15.00'' Est, 21° 15' 01.00'' Sud";"97403";"LA MARE";"R CÉSAIRE";"97414";"ENTRE-DEUX";"Pylône autostable"; 28.0;"ORANGE Services Fixes"
513692;55.43361;-21.18583;"55° 26' 01.00'' Est, 21° 11' 09.00'' Sud";"97424";"PLATEAU FLEURS JAUNES";"LA FENÊTRE DES MAKES";"97413";"CILAOS";"Pylône autostable"; 20.0;"ORANGE Services Fixes"
513792;55.48361;-20.91000;"55° 29' 01.00'' Est, 20° 54' 36.00'' Sud";"97411";"MOUFIA";"10 R SURCOUF";"97400";"SAINT-DENIS";"Immeuble"; 25.4;"Société HLM"
513801;55.41222;-20.89611;"55° 24' 44.00'' Est, 20° 53' 46.00'' Sud";"97411";"RUISSEAU BLANC";"R RÂOUL FOLLEREAU";"97400";"SAINT-DENIS";"Immeuble"; 20.4;"Société Privée SA"
514256;55.40583;-21.21167;"55° 24' 21.00'' Est, 21° 12' 42.00'' Sud";"97414";"LES MAKES";"10, R BRAS SYLVERT";"97421";"SAINT-LOUIS";"Pylône autostable"; 27.0;"ORANGE Services Fixes"
514393;55.65083;-20.95889;"55° 39' 03.00'' Est, 20° 57' 32.00'' Sud";"97409";;"R DE LA GARE";"97440";"SAINT-ANDRE";"Pylône autostable"; 40.0;"ORANGE Services Fixes"
514460;55.48111;-20.89722;"55° 28' 52.00'' Est, 20° 53' 50.00'' Sud";"97411";"LES TAMARINS";"CHEM LORY LES HAUTS LES TAMARINS BÂTIMENT 115";"97400";"SAINT-DENIS";"Immeuble"; 18.0;"Société HLM"
514775;55.58222;-21.37139;"55° 34' 56.00'' Est, 21° 22' 17.00'' Sud";"97405";"BASSE COUR DE MANAPANY";"ETS";"97429";"PETITE-ILE";"Pylône autostable"; 20.0;"TDF"
515276;55.60222;-20.90472;"55° 36' 08.00'' Est, 20° 54' 17.00'' Sud";"97420";"RAMPE DE BEL AIR";"AL DES ORCHIDÉES";"97441";"SAINTE-SUZANNE";"Pylône autostable"; 36.0;"TDF"
515327;55.42056;-21.29056;"55° 25' 14.00'' Est, 21° 17' 26.00'' Sud";"97414";"LA CHAPELLE";"R LEONUS BENARD RIVIÈRE ST ETIENNE";"97421";"SAINT-LOUIS";"Pylône autostable"; 50.0;"ORANGE Services Fixes"
515373;55.58083;-21.33194;"55° 34' 51.00'' Est, 21° 19' 55.00'' Sud";"97405";"MANAPANY LES HAUTS";"PITON DU RELAIS CHEM LEOPOLD LEBON";"97429";"PETITE-ILE";"Pylône autostable"; 40.0;"TDF"
517906;55.55639;-20.89806;"55° 33' 23.00'' Est, 20° 53' 53.00'' Sud";"97418";"LES GASPARDS";"R SIMONE SIGNORET";"97438";"SAINTE-MARIE";"Immeuble"; 31.2;"Société HLM"
517927;55.71944;-21.03944;"55° 43' 10.00'' Est, 21° 02' 22.00'' Sud";"97410";;"R DE L ANCIENNE MAIRIE TOUR FT";"97437";"SAINT-BENOIT";"Tour hertzienne"; 28.0;"ORANGE Services Fixes"
518597;55.27722;-21.14278;"55° 16' 38.00'' Est, 21° 08' 34.00'' Sud";"97413";"LES ACACIAS";"ZONE COMMERCIALE R DES ATELIERS";"97436";"SAINT-LEU";"Pylône autostable"; 28.5;"Sté Réunionn. de Radiotéléph."
519236;55.28694;-21.15778;"55° 17' 13.00'' Est, 21° 09' 28.00'' Sud";"97413";"SURPRISE";"BRAS MOUTON LES BAS";"97436";"SAINT-LEU";"Mât métallique"; 6.0;"Particulier"
520025;55.31722;-20.94694;"55° 19' 02.00'' Est, 20° 56' 49.00'' Sud";"97407";;"R THEODORE DROUET ZAC 2000";"97420";"LE PORT";"Pylône autostable"; 45.0;"Sté Réunionn. de Radiotéléph."
522433;55.31528;-20.95667;"55° 18' 55.00'' Est, 20° 57' 24.00'' Sud";"97408";;"RTE DU SACRE COEUR RN 1 RIVIERE DES GALETS";"97419";"LA POSSESSION";"Pylône autostable"; 25.3;"SFR"
524989;55.47528;-21.34028;"55° 28' 31.00'' Est, 21° 20' 25.00'' Sud";"97416";"MAHY";"ANGLE R FRANCOIS DE MAHYET R DES BON ENFANTS";"97410";"SAINT-PIERRE";"Immeuble"; 9.0;"Particulier"
524991;55.52250;-21.23528;"55° 31' 21.00'' Est, 21° 14' 07.00'' Sud";"97422";"DIX-SEPTIEME";"ROUTE DES CAFIEIERS";"97418";"LE TAMPON";"Mât béton"; 16.0;"Sté Réunionn. de Radiotéléph."
524993;55.29528;-20.93972;"55° 17' 43.00'' Est, 20° 56' 23.00'' Sud";"97407";"PORT VERDUN";"8BIS BD DE VERDUN";"97420";"LE PORT";"Immeuble"; 15.7;"Particulier"
525259;55.63528;-21.18861;"55° 38' 07.00'' Est, 21° 11' 19.00'' Sud";"97422";"PITON TEXTOR";"RTE DU VOLCAN";"97418";"LE TAMPON";"Pylône autostable"; 75.0;"ORANGE Services Fixes"
527620;55.48000;-20.89083;"55° 28' 48.00'' Est, 20° 53' 27.00'' Sud";"97411";;"101 AV. DU MARÉCHAL DE LATTRE DE TASSIGNY";"97400";"SAINT-DENIS";"Immeuble"; 21.0;"Société HLM"
534077;55.65194;-20.96417;"55° 39' 07.00'' Est, 20° 57' 51.00'' Sud";"97409";;"300 R DU LYCEE";"97440";"SAINT-ANDRE";"Immeuble"; 33.8;"SFR"
534512;55.51083;-21.31528;"55° 30' 39.00'' Est, 21° 18' 55.00'' Sud";"97416";"PITON TERRE ROUGE";"PITON DU BASSIN MARTIN";"97432";"SAINT-PIERRE";"Pylône autostable"; 30.0;"Sté Réunionn. de Radiotéléph."
536334;55.63500;-21.18778;"55° 38' 06.00'' Est, 21° 11' 16.00'' Sud";"97422";"PITON TEXTOR";;"97418";"LE TAMPON";"Pylône haubané"; 43.0;"TDF"
536863;55.65250;-20.94806;"55° 39' 09.00'' Est, 20° 56' 53.00'' Sud";"97409";;"51 IMP ZELMAR";"97440";"SAINT-ANDRE";"Pylône autostable"; 25.0;"Sté Réunionn. de Radiotéléph."
538117;55.38722;-21.06861;"55° 23' 14.00'' Est, 21° 04' 07.00'' Sud";"97415";"FORÊT DES HAUTS SOUS LE VENT";"LE MAÏDO";"97411";"SAINT-PAUL";"Mât métallique"; 7.0;"Société Privée SA"
538289;55.43333;-21.18556;"55° 25' 60.00'' Est, 21° 11' 08.00'' Sud";"97414";"FLEURS JAUNES";"LA FENÊTRE DES MAKES PYLONE TDF";"97421";"SAINT-LOUIS";"Pylône autostable"; 27.0;"TDF"
538722;55.64000;-21.29861;"55° 38' 24.00'' Est, 21° 17' 55.00'' Sud";"97412";;"GRAND COUDE R EMILE MUSSARD";"97480";"SAINT-JOSEPH";"Mât béton"; 17.0;"TDF"
540120;55.40694;-21.28278;"55° 24' 25.00'' Est, 21° 16' 58.00'' Sud";"97414";;"26 ET 28 R DE L'ABATTOIR";"97421";"SAINT-LOUIS";"Immeuble"; 18.0;"Société HLM"
540245;55.41250;-21.28556;"55° 24' 45.00'' Est, 21° 17' 08.00'' Sud";"97414";;"ANGLE R BACO BURNEL ET R LEONUS BENARD";"97421";"SAINT-LOUIS";"Pylône autostable"; 25.0;"Sté Réunionn. de Radiotéléph."
540885;55.52889;-20.89250;"55° 31' 44.00'' Est, 20° 53' 33.00'' Sud";"97418";"GILLOT";;"97438";"SAINTE-MARIE";"Contre-poids au sol"; 2.0;"Etat, Ministère"
541593;55.31694;-20.95167;"55° 19' 01.00'' Est, 20° 57' 06.00'' Sud";"97407";;"16, R CLAUDE CHAPPE";"97420";"LE PORT";"Pylône autostable"; 20.0;"ORANGE"
541925;55.60472;-21.32806;"55° 36' 17.00'' Est, 21° 19' 41.00'' Sud";"97412";"PLAINE DES GREGUES";"CHEM CONFLORS";"97480";"SAINT-JOSEPH";"pylône arbre"; 23.0;"ORANGE"
542152;55.31750;-20.93528;"55° 19' 03.00'' Est, 20° 56' 07.00'' Sud";"97407";;"19 R PAUL VERLAINE Z.I 2";"97420";"LE PORT";"Immeuble"; 20.0;"Société HLM"
542336;55.33556;-21.27194;"55° 20' 08.00'' Est, 21° 16' 19.00'' Sud";"97404";;"3 R ISLE DE FRANCE RÉSIDENCE DES CARINES";"97427";"L'ETANG-SALE";"Immeuble"; 21.0;"Société HLM"
542707;55.50333;-20.91889;"55° 30' 12.00'' Est, 20° 55' 08.00'' Sud";"97411";;"17 CHEM ST LEONARD PR LE CENTRE PENITENTIER";"97400";"SAINT-DENIS";"Immeuble"; 16.0;"Etat, Ministère"
543085;55.66722;-21.10417;"55° 40' 02.00'' Est, 21° 06' 15.00'' Sud";"97410";"L ' ECHO";"RN 3";"97437";"SAINT-BENOIT";"Pylône autostable"; 26.0;"ORANGE"
547798;55.45000;-20.92250;"55° 27' 00.00'' Est, 20° 55' 21.00'' Sud";"97411";"ST FRANÇOIS";"CHEM DE LA CONVALESCENCE";"97490";"SAINT-DENIS";"Pylône autostable"; 16.0;"ORANGE"
555599;55.34611;-21.21028;"55° 20' 46.00'' Est, 21° 12' 37.00'' Sud";"97401";"TÉVELAVE";"CHEM DE L'ALAMBIC";"97425";"LES AVIRONS";"Pylône autostable"; 10.0;"REUNION NUMERIQUE"
556756;55.28361;-20.99694;"55° 17' 01.00'' Est, 20° 59' 49.00'' Sud";"97415";;"R ST LOUIS IMM LES SAPHIRS";"97411";"SAINT-PAUL";"Immeuble"; 18.0;"Copropriété, Syndic, SCI"
556833;55.47583;-21.03222;"55° 28' 33.00'' Est, 21° 01' 56.00'' Sud";"97421";"GRAND ILET";"CD DE GRAND ILET";"97433";"SALAZIE";"Mât métallique"; 5.0;"REUNION NUMERIQUE"
556842;55.79417;-21.12750;"55° 47' 39.00'' Est, 21° 07' 39.00'' Sud";"97419";;"RN2 STADE DE FOOTBALL";"97439";"SAINTE-ROSE";"Mât béton"; 12.0;"MEDIASERV"
557127;55.48333;-20.90889;"55° 29' 00.00'' Est, 20° 54' 32.00'' Sud";"97411";"LE MOUFIA";"R DU MAHATMA GANDHI";"97490";"SAINT-DENIS";"Immeuble"; 27.4;"Société HLM"
557270;55.44611;-20.88889;"55° 26' 46.00'' Est, 20° 53' 20.00'' Sud";"97411";"LA SOURCE - TOURETTE";"43 R TOURETTE";"97400";"SAINT-DENIS";"Immeuble"; 14.0;"Particulier"
557454;55.70111;-21.05056;"55° 42' 04.00'' Est, 21° 03' 02.00'' Sud";"97410";"BRAS CANOT";"CHEM CAMALON";"97437";"SAINT-BENOIT";"Pylône autostable"; 20.0;"ORANGE"
557719;55.53250;-20.90500;"55° 31' 57.00'' Est, 20° 54' 18.00'' Sud";"97418";"LA MARE";"GRAND PRADO";"97438";"SAINTE-MARIE";"Bâtiment"; 10.0;"ORANGE Services Fixes"
558038;55.42194;-20.91167;"55° 25' 19.00'' Est, 20° 54' 42.00'' Sud";"97411";"COLORADO RADAR";"OBSERVATOIRE METEO";"97400";"SAINT-DENIS";"Bâtiment"; 10.0;"Météo"
558455;55.44278;-20.88389;"55° 26' 34.00'' Est, 20° 53' 02.00'' Sud";"97411";;"CD 41-STADE DE LA REDOUTE";"97400";"SAINT-DENIS";"Mât métallique"; 39.0;"Commune, communauté de commune"
558810;55.51528;-21.28583;"55° 30' 55.00'' Est, 21° 17' 09.00'' Sud";"97422";"BEL AIR";"14, CARREFOUR RAYMOND POINCARE";"97418";"LE TAMPON";"Pylône autostable"; 16.0;"ORANGE"
559248;55.46167;-20.88139;"55° 27' 42.00'' Est, 20° 52' 53.00'' Sud";"97411";;"2 RUELLE TADAR";"97400";"SAINT-DENIS";"Bâtiment"; 32.0;"Commune, communauté de commune"
560170;55.44194;-20.88111;"55° 26' 31.00'' Est, 20° 52' 52.00'' Sud";"97411";"LA PETITE ILE";"36 R DES BOIS NOIRS SHLMR LES CHIRICO";"97400";"SAINT-DENIS";"Immeuble"; 15.0;"Société HLM"
560745;55.39778;-21.28056;"55° 23' 52.00'' Est, 21° 16' 50.00'' Sud";"97414";"CENTRALE THERMIQUE DU GOL";"1 RN LE GOL";"97421";"SAINT-LOUIS";"Bâtiment"; 56.0;"Société Privée SA"
561939;55.33250;-21.24278;"55° 19' 57.00'' Est, 21° 14' 34.00'' Sud";"97401";;"61 AV GÉNÉRAL DE GAULLE";"97425";"LES AVIRONS";"Mât béton"; 12.0;"Société Privée SA"
562045;55.49556;-21.24583;"55° 29' 44.00'' Est, 21° 14' 45.00'' Sud";"97422";"TROIS MARES LES HAUTS";"11, R RACINE";"97430";"LE TAMPON";"Mât béton"; 16.0;"ORANGE"
562548;55.43028;-20.88667;"55° 25' 49.00'' Est, 20° 53' 12.00'' Sud";"97411";"LA MONTAGNE";"CHEM DE LA VIERGE 7ÈME KM";"97400";"SAINT-DENIS";"Pylône autostable"; 68.0;"TDF"
562560;55.44889;-20.87333;"55° 26' 56.00'' Est, 20° 52' 24.00'' Sud";"97411";"BARACHOIS RFO";"ANGLE DES RUES JEAN CHATEL ET GEORGES MACE";"97400";"SAINT-DENIS";"Immeuble"; 35.9;"TDF"
562569;55.51778;-21.06444;"55° 31' 04.00'' Est, 21° 03' 52.00'' Sud";"97421";"HELL BOURG";"CHEM DE LA CAYENNE";"97433";"SALAZIE";"Mât métallique"; 5.0;"Société Privée SA"
562626;55.53889;-21.02833;"55° 32' 20.00'' Est, 21° 01' 42.00'' Sud";"97421";;"ROUTE GEORGE POMPIDOU";"97433";"SALAZIE";"Mât métallique"; 5.0;"Société Privée SA"
563354;55.42028;-21.27889;"55° 25' 13.00'' Est, 21° 16' 44.00'' Sud";"97414";;"R AUGUSTE LARRE";"97421";"SAINT-LOUIS";"Pylône autostable"; 30.0;"Sté Réunionn. de Radiotéléph."
564298;55.49472;-21.01944;"55° 29' 41.00'' Est, 21° 01' 10.00'' Sud";"97421";"MARE À MARTIN";"CHEM DE LA MARE À MARTIN";"97433";"SALAZIE";"Mât métallique"; 5.0;"Société Privée SA"
570451;55.49500;-20.89889;"55° 29' 42.00'' Est, 20° 53' 56.00'' Sud";"97411";;"56 AV EUDOXIE NONGE";"97400";"SAINT-DENIS";"Pylône autostable"; 15.0;"ORANGE"
570655;55.79028;-21.35028;"55° 47' 25.00'' Est, 21° 21' 01.00'' Sud";"97417";"RAVINE ANGO";"1 CHEM MONT SERIN";"97442";"SAINT-PHILIPPE";"Pylône autostable"; 23.0;"ORANGE"
570936;55.47556;-20.89806;"55° 28' 32.00'' Est, 20° 53' 53.00'' Sud";"97411";"ST CLOTIDE";"83 R STANILAS GIMART";"97400";"SAINT-DENIS";"Immeuble"; 21.0;"Particulier"
570940;55.47000;-20.88528;"55° 28' 12.00'' Est, 20° 53' 07.00'' Sud";"97411";"ST CLOTIDE";"27 R LEOPOLD RAMBAUD";"97400";"SAINT-DENIS";"Immeuble"; 18.0;"Particulier"
571295;55.44778;-20.88778;"55° 26' 52.00'' Est, 20° 53' 16.00'' Sud";"97411";"RES BELLEPIERRE";"64 R FENELON";"97400";"SAINT-DENIS";"Immeuble"; 20.0;"Société HLM"
571299;55.45278;-20.87917;"55° 27' 10.00'' Est, 20° 52' 45.00'' Sud";"97411";;"129 R MARECHAL LECLERC";"97400";"SAINT-DENIS";"Bâtiment"; 19.0;"Société Privée SA"
571319;55.45111;-20.89167;"55° 27' 04.00'' Est, 20° 53' 30.00'' Sud";"97411";"LA SOURCE";"R HUBERT DELISLE";"97400";"SAINT-DENIS";"Immeuble"; 24.0;"Copropriété, Syndic, SCI"
572962;55.51361;-20.91028;"55° 30' 49.00'' Est, 20° 54' 37.00'' Sud";"97418";;"RTE DE LA VIERGE NOIRE";"97438";"SAINTE-MARIE";"Fût"; 17.0;"Etat, Ministère"
574189;55.29333;-21.17306;"55° 17' 36.00'' Est, 21° 10' 23.00'' Sud";"97413";;"CHEM DUBUISSON";"97436";"SAINT-LEU";"Pylône autostable"; 16.0;"Sté Réunionn. de Radiotéléph."
577080;55.43278;-20.89250;"55° 25' 58.00'' Est, 20° 53' 33.00'' Sud";"97411";"LA MONTAGNE";"CHEM PITON TRÉSOR CHATEAU D'EAU";"97400";"SAINT-DENIS";"Château d'eau - réservoir"; 14.0;"Commune, communauté de commune"
579983;55.31833;-20.93500;"55° 19' 06.00'' Est, 20° 56' 06.00'' Sud";"97407";"LA CAPITAINERIE";"19 R PAUL VERLAINE";"97420";"LE PORT";"Mât béton"; 16.0;"Sté Réunionn. de Radiotéléph."
580267;55.71472;-21.03222;"55° 42' 53.00'' Est, 21° 01' 56.00'' Sud";"97410";;"4 SULLY BRUNET";"97437";"SAINT-BENOIT";"Immeuble"; 19.0;"Sté Réunionn. de Radiotéléph."
580308;55.62000;-21.37417;"55° 37' 12.00'' Est, 21° 22' 27.00'' Sud";"97412";"MAGALIE";"R LAMBERT";"97480";"SAINT-JOSEPH";"Pylône autostable"; 16.0;"Sté Réunionn. de Radiotéléph."
580669;55.47361;-20.90056;"55° 28' 25.00'' Est, 20° 54' 02.00'' Sud";"97411";;"R DES  VAVANGUES ZAC CHEM FINETTE II";"97400";"SAINT-DENIS";"Immeuble"; 20.0;"Société HLM"
580709;55.22694;-21.02778;"55° 13' 37.00'' Est, 21° 01' 40.00'' Sud";"97415";;"29 ROUTE DE LA PLAGE BOUCAN CANOT SAINT GILLES LES BAINS";"97411";"SAINT-PAUL";"Immeuble"; 12.0;"Société Privée SA"
580956;55.39972;-21.29167;"55° 23' 59.00'' Est, 21° 17' 30.00'' Sud";"97414";"R VALMY";;"97421";"SAINT-LOUIS";"Mât béton"; 16.0;"Sté Réunionn. de Radiotéléph."
581396;55.69000;-20.97167;"55° 41' 24.00'' Est, 20° 58' 18.00'' Sud";"97409";"RIVIÈRE DU MAT LES BAS";"2313 CHEM GRAND CANAL";"97440";"SAINT-ANDRE";"Pylône autostable"; 16.0;"ORANGE"
581830;55.48000;-21.09944;"55° 28' 48.00'' Est, 21° 05' 58.00'' Sud";"97424";"PITON DES NEIGES";;"97413";"CILAOS";"Bâtiment"; 5.0;"DDE"
582007;55.49472;-20.93722;"55° 29' 41.00'' Est, 20° 56' 14.00'' Sud";"97411";"LA BRETAGNE";"CHEM DUFOUR LES HAUTS";"97400";"SAINT-DENIS";"Pylône autostable"; 15.0;"ORANGE"
583225;55.45778;-20.89444;"55° 27' 28.00'' Est, 20° 53' 40.00'' Sud";"97411";;"39 BD DE LA PROVIDENCE LA PROVIDENCE";"97400";"SAINT-DENIS";"Immeuble"; 25.0;"Copropriété, Syndic, SCI"
583232;55.44944;-20.87528;"55° 26' 58.00'' Est, 20° 52' 31.00'' Sud";"97411";;"25 R JEAN CHATEL LE BARACHOIS";"97400";"SAINT-DENIS";"Immeuble"; 22.0;"Copropriété, Syndic, SCI"
583249;55.23167;-21.08028;"55° 13' 54.00'' Est, 21° 04' 49.00'' Sud";"97415";"L'ERMITAGE LES BAINS";"CHEM CAROSSE STATION D'EPURATION";"97411";"SAINT-PAUL";"Pylône autostable"; 35.0;"Sté Réunionn. de Radiotéléph."
583258;55.69556;-21.03472;"55° 41' 44.00'' Est, 21° 02' 05.00'' Sud";"97410";"BOURBIER BEAULIEU";"CHEM MANES";"97437";"SAINT-BENOIT";"Pylône autostable"; 16.0;"ORANGE"
583268;55.53306;-20.89444;"55° 31' 59.00'' Est, 20° 53' 40.00'' Sud";"97418";"LA MARE";"USINE SUCRIERE DE LA MARE N.2F- CHEMÉE DE L'ANCIENNE SUCRERIE";"97438";"SAINTE-MARIE";"Monument historique"; 36.0;"Société Privée SA"
584520;55.65778;-20.97222;"55° 39' 28.00'' Est, 20° 58' 20.00'' Sud";"97409";;"31 R DES MANGUIERS";"97440";"SAINT-ANDRE";"Pylône autostable"; 25.0;"Sté Réunionn. de Radiotéléph."
584529;55.60222;-20.90472;"55° 36' 08.00'' Est, 20° 54' 17.00'' Sud";"97420";"BEL AIR";;"97441";"SAINTE-SUZANNE";"Pylône autostable"; 32.4;"Sté Réunionn. de Radiotéléph."
584565;55.54861;-20.90000;"55° 32' 55.00'' Est, 20° 53' 60.00'' Sud";"97418";;"RUELLE KICHENAPIN LA DÉCOUVERTE";"97438";"SAINTE-MARIE";"Pylône autostable"; 20.0;"Sté Réunionn. de Radiotéléph."
585629;55.46528;-21.25472;"55° 27' 55.00'' Est, 21° 15' 17.00'' Sud";"97403";;"CHEM REMY RIVIERE";"97414";"ENTRE-DEUX";"Pylône autostable"; 15.0;"TDF"
586021;55.44111;-21.27806;"55° 26' 28.00'' Est, 21° 16' 41.00'' Sud";"97414";"OUAKI";"CHEM DU PITON RIVIERE";"97421";"SAINT-LOUIS";"Mât béton"; 16.0;"Sté Réunionn. de Radiotéléph."
586037;55.48222;-20.90444;"55° 28' 56.00'' Est, 20° 54' 16.00'' Sud";"97411";;"16 R LEO LAGRANGE RES LES ORIENTALES";"97400";"SAINT-DENIS";"Immeuble"; 30.3;"Société Privée SA"
587804;55.34056;-21.00667;"55° 20' 26.00'' Est, 21° 00' 24.00'' Sud";"97415";"CROIX DE BEL AIR";"97 CHEM HOAREAU";"97411";"SAINT-PAUL";"Pylône haubané"; 12.0;"Titulaire programme Radio/TV"
588979;55.51222;-20.89139;"55° 30' 44.00'' Est, 20° 53' 29.00'' Sud";"97418";"AEROPORT ROLLAND GARROS";"GILLOT";"97438";"SAINTE-MARIE";"Bâtiment"; 15.0;"CCI,Ch Metiers,Port Aut,Aérop"
590105;55.63722;-20.93583;"55° 38' 14.00'' Est, 20° 56' 09.00'' Sud";"97420";;"STE VIVIENNE EGLISE  D 46";"97441";"SAINTE-SUZANNE";"Monument religieux"; 20.0;"Société Privée SA"
590240;55.42972;-21.30417;"55° 25' 47.00'' Est, 21° 18' 15.00'' Sud";"97416";;"30 ROUTE DE PIERREFOND";"97432";"SAINT-PIERRE";"Mât béton"; 16.0;"Particulier"
590291;55.45250;-21.29889;"55° 27' 09.00'' Est, 21° 17' 56.00'' Sud";"97416";;"BOIS D'OLIVE N° 15 CD 38 ROUTE DU BOIS D'OLVES";"97432";"SAINT-PIERRE";"Pylône autostable"; 30.0;"Sté Réunionn. de Radiotéléph."
590303;55.64917;-20.95611;"55° 38' 57.00'' Est, 20° 57' 22.00'' Sud";"97409";;"505 AV DE L'ILE DE FRANCE";"97440";"SAINT-ANDRE";"Immeuble"; 26.0;"Société Privée SA"
590457;55.53222;-20.90472;"55° 31' 56.00'' Est, 20° 54' 17.00'' Sud";"97418";;"ROUTE DU GRAND PRADO";"97438";"SAINTE-MARIE";"Mât béton"; 16.0;"Telco OI"
592803;55.70278;-21.07000;"55° 42' 10.00'' Est, 21° 04' 12.00'' Sud";"97410";"LA CONFIANCE";"ALLÉE DES COCOS";"97437";"SAINT-BENOIT";"Mât béton"; 14.0;"MEDIASERV"
592808;55.37972;-20.98083;"55° 22' 47.00'' Est, 20° 58' 51.00'' Sud";"97408";;"39 R GERMAIN ELSABETH";"97419";"LA POSSESSION";"Mât métallique"; 6.0;"MEDIASERV"
593170;55.50194;-20.90500;"55° 30' 07.00'' Est, 20° 54' 18.00'' Sud";"97411";"TECHNOPOLE";"CHEM GRAND CANAL9001 R HENRI CONU";"97400";"SAINT-DENIS";"Pylône autostable"; 30.0;"Conseil Régional"
596937;55.47500;-21.13944;"55° 28' 30.00'' Est, 21° 08' 22.00'' Sud";"97424";"LES TROIS MARES";"ZAC ROLAND GARROS";"97413";"CILAOS";"Pylône autostable"; 15.0;"Sté Réunionn. de Radiotéléph."
597723;55.46306;-20.89139;"55° 27' 47.00'' Est, 20° 53' 29.00'' Sud";"97411";"CHÂTEAU MORANGE";"19 R CHÂTEAU MORANGE";"97400";"SAINT-DENIS";"Immeuble"; 31.0;"Société HLM"
599118;55.30833;-21.21556;"55° 18' 30.00'' Est, 21° 12' 56.00'' Sud";"97413";;"R DE PÈRE TABAILLE";"97436";"SAINT-LEU";"Mât béton"; 14.0;"REUNION NUMERIQUE"
599120;55.63306;-20.92861;"55° 37' 59.00'' Est, 20° 55' 43.00'' Sud";"97420";"QUARTIER FRANÇAIS";"CCALE CARREFOUR";"97441";"SAINTE-SUZANNE";"Immeuble"; 8.0;"Société Privée SA"
599406;55.23250;-21.07389;"55° 13' 57.00'' Est, 21° 04' 26.00'' Sud";"97415";;"ROUTE DES CANNES SITE CHATEAU D'EAU";"97411";"SAINT-PAUL";"Mât béton"; 16.0;"Telco OI"
599417;55.22639;-21.02833;"55° 13' 35.00'' Est, 21° 01' 42.00'' Sud";"97415";;"BOUCAN CANNOT RES DES BOUCANNIERS";"97411";"SAINT-PAUL";"Bâtiment"; 11.0;"Particulier"
599421;55.23250;-21.04861;"55° 13' 57.00'' Est, 21° 02' 55.00'' Sud";"97415";"ST GILLES";"56 R BOTTARD ROUTE DU THEATRE";"97411";"SAINT-PAUL";"Mât béton"; 16.0;"Particulier"
599704;55.48583;-20.89417;"55° 29' 09.00'' Est, 20° 53' 39.00'' Sud";"97411";;"3 R ALAIN PETERS BAT 6/ SHLMR CALBASSIER";"97400";"SAINT-DENIS";"Immeuble"; 19.0;"Société Privée SA"
599714;55.49500;-20.89083;"55° 29' 42.00'' Est, 20° 53' 27.00'' Sud";"97411";"CHAUDRON";"23 R PIERRE AUBERT";"97400";"SAINT-DENIS";"Pylône autostable"; 25.0;"TDF"
599718;55.29250;-20.98417;"55° 17' 33.00'' Est, 20° 59' 03.00'' Sud";"97415";"ST GILLES LES HAUTS";"45 R DUKOVIL";"97411";"SAINT-PAUL";"Mât béton"; 16.0;"Telco OI"
601495;55.47333;-21.25417;"55° 28' 24.00'' Est, 21° 15' 15.00'' Sud";"97403";;"CHEM DU CIMETIÈRE";"97414";"ENTRE-DEUX";"Pylône autostable"; 10.0;"REUNION NUMERIQUE"
601499;55.47528;-21.16861;"55° 28' 31.00'' Est, 21° 10' 07.00'' Sud";"97424";"PALMISTE ROUGE";"7 R ELIARD TECHER";"97413";"CILAOS";"Mât métallique"; 6.0;"REUNION NUMERIQUE"
601828;55.47333;-21.13528;"55° 28' 24.00'' Est, 21° 08' 07.00'' Sud";"97424";;"10 R VICTORINE SERY PISCINE MUNICIPALE DE CILAOS";"97413";"CILAOS";"Pylône autostable"; 9.0;"REUNION NUMERIQUE"
602090;55.63500;-21.18778;"55° 38' 06.00'' Est, 21° 11' 16.00'' Sud";"97422";"PITON TEXTOR";"RTE FORESTIÈRE DU VOLCAN PLAINE DES CAFRES";"97418";"LE TAMPON";"Pylône autostable"; 40.0;"REUNION NUMERIQUE"
602438;55.49972;-20.89083;"55° 29' 59.00'' Est, 20° 53' 27.00'' Sud";"97411";;"CTRE CIAL CARREFOUR 75 PL DU PARKING";"97400";"SAINT-DENIS";"Mât"; 5.0;"Société Privée SA"
602816;55.22139;-21.04278;"55° 13' 17.00'' Est, 21° 02' 34.00'' Sud";"97415";;"25 R ANJOU ST GILLES LES BAINS";"97411";"SAINT-PAUL";"Mât métallique"; 13.5;"Sté Réunionn. de Radiotéléph."
602822;55.28333;-20.99417;"55° 16' 60.00'' Est, 20° 59' 39.00'' Sud";"97415";;"12 R DU 14 JUILLET";"97411";"SAINT-PAUL";"Pylône tubulaire"; 30.0;"SFR"
605421;55.29306;-20.98500;"55° 17' 35.00'' Est, 20° 59' 06.00'' Sud";"97415";"SAVANNAH";"R DU KOVIL";"97411";"SAINT-PAUL";"Pylône autostable"; 30.0;"Sté Réunionn. de Radiotéléph."
608382;55.48667;-21.34222;"55° 29' 12.00'' Est, 21° 20' 32.00'' Sud";"97416";"BASSIN BOEUF";"4 ALLEE DES LYS - TERRE STE";"97432";"SAINT-PIERRE";"Mât béton"; 16.0;"Telco OI"
608384;55.31778;-21.15250;"55° 19' 04.00'' Est, 21° 09' 09.00'' Sud";"97413";;"62 CHEM DES AGAPANTHES";"97436";"SAINT-LEU";"Mât béton"; 16.0;"Telco OI"
608386;55.37833;-20.93278;"55° 22' 42.00'' Est, 20° 55' 58.00'' Sud";"97408";"RAVINE A MALHEUR";"CRETE D'OR";"97419";"LA POSSESSION";"Mât béton"; 16.0;"Telco OI"
608392;55.33639;-21.23194;"55° 20' 11.00'' Est, 21° 13' 55.00'' Sud";"97401";;"CHEMS BELLECOMBE";"97425";"LES AVIRONS";"Mât béton"; 16.0;"Telco OI"
608696;55.27889;-21.12000;"55° 16' 44.00'' Est, 21° 07' 12.00'' Sud";"97423";;"ROUTES DES TAMARINS STATION TDF";"97426";"LES TROIS-BASSINS";"Pylône autostable"; 22.0;"TDF"
608880;55.67917;-21.03278;"55° 40' 45.00'' Est, 21° 01' 58.00'' Sud";"97410";"ABONDANCE";"CHEMIN GRAND FOND";"97470";"SAINT-BENOIT";"Mât béton"; 16.0;"Particulier"
609153;55.60000;-21.25667;"55° 36' 00.00'' Est, 21° 15' 24.00'' Sud";"97422";;"CHEMIN NOTRE DAME DE LA PAIX D36";"97430";"LE TAMPON";"Mât béton"; 16.0;"Telco OI"
609164;55.52889;-20.94306;"55° 31' 44.00'' Est, 20° 56' 35.00'' Sud";"97418";"PITON CAILLOUX";"21 CHEM DU BASSIN";"97438";"SAINTE-MARIE";"Mât béton"; 16.0;"Telco OI"
609172;55.29972;-21.02528;"55° 17' 59.00'' Est, 21° 01' 31.00'' Sud";"97415";"BELLEMENE";"232 R MONT ROUGE";"97411";"SAINT-PAUL";"Mât béton"; 16.0;"Telco OI"
609372;55.27917;-21.05083;"55° 16' 45.00'' Est, 21° 03' 03.00'' Sud";"97415";"BERNICA";"12 ALLEE FATIMA";"97411";"SAINT-PAUL";"Mât béton"; 16.0;"Telco OI"
609374;55.64444;-21.37667;"55° 38' 40.00'' Est, 21° 22' 36.00'' Sud";"97412";"LANGEVIN";"CHEM MONIER";"97480";"SAINT-JOSEPH";"Mât béton"; 16.0;"Telco OI"
609867;55.25056;-21.03389;"55° 15' 02.00'' Est, 21° 02' 02.00'' Sud";"97415";"CAP LA HOUSSAYE";"ROUTE DES TAMARINS";"97411";"SAINT-PAUL";"Pylône autostable"; 30.0;"Conseil Régional"
610033;55.51556;-21.28639;"55° 30' 56.00'' Est, 21° 17' 11.00'' Sud";"97422";;"ROND POINT RAYMOND POINCARÉ RESIDENCE AZALES";"97418";"LE TAMPON";"Immeuble"; 38.0;"Société Privée SA"
613461;55.49611;-20.89806;"55° 29' 46.00'' Est, 20° 53' 53.00'' Sud";"97411";"LE CHAUDRON";"AV EUDOXIE NONGE CENTRE D'AFFAIRES CADJEE";"97400";"SAINT-DENIS";"Immeuble"; 38.9;"Société Privée SA"
615705;55.57417;-21.22806;"55° 34' 27.00'' Est, 21° 13' 41.00'' Sud";"97422";"PETITE FERME";;"97430";"LE TAMPON";"Pylône autostable"; 16.0;"Sté Réunionn. de Radiotéléph."
616950;55.65194;-20.99944;"55° 39' 07.00'' Est, 20° 59' 58.00'' Sud";"97402";"LA CAROLINE";"4 CHEM LA CAROLINE";"97412";"BRAS-PANON";"Pylône autostable"; 18.0;"ORANGE"
617003;55.46278;-20.90833;"55° 27' 46.00'' Est, 20° 54' 30.00'' Sud";"97411";"MONTGAILLARD LES HAUTS";"44 RTE DE ST FRANÇOIS";"97400";"SAINT-DENIS";"Pylône autostable"; 15.0;"ORANGE"
617309;55.50667;-20.91611;"55° 30' 24.00'' Est, 20° 54' 58.00'' Sud";"97411";"DOMENJOD";;"97400";"SAINT-DENIS";"Immeuble"; 18.4;"Société HLM"
620349;55.51306;-20.89194;"55° 30' 47.00'' Est, 20° 53' 31.00'' Sud";"97418";"GILLOT";"AEROPORT DE ROLLAND GARROS";"97438";"SAINTE-MARIE";"Bâtiment"; 18.0;"CCI,Ch Metiers,Port Aut,Aérop"
621044;55.29028;-20.93528;"55° 17' 25.00'' Est, 20° 56' 07.00'' Sud";"97407";;"9 R CHARLES RENAUDIERE DE VAUX";"97420";"LE PORT";"Bâtiment"; 17.0;"Sté Réunionn. de Radiotéléph."
